~Version information
VERS.              2.00:   CWLS LOG ASCII STANDARD -VERSION 2.00
WRAP.                NO:   one line per depth step
~Well Information Block
#MNEM.UNIT     DATA         DESCRIPTION OF MNEMONIC
#--------  --------------   ------------------------
STRT.M                 1.00:START DEPTH
STOP.M              1051.00:STOP DEPTH
STEP.M                 0.20:STEP VALUE
NULL.           -9999.00000:NULL VALUE
COMP.        YDMYRTGEOLOGIA:COMPANY NAME
WELL.                 13015:WELL NAME
FLD .            VAYATSKAYA:FIELD NAME
CTRY.                RUSSIA:COUNTRY
DATE.              28.09.92:DATE
UWI .                 13015:UNIQUE WELL IDENTIFIER
SRVC.                  ????:???????? ????????? ???????? ???
SRVC_OC.                ???:???????? ????????? ????????-?????????
~Parameter Information Block
#MNEM.UNIT       Value     Description of mnemonic
#---------   -----------   ------------------------------------
EKB .M            182.45:   Elevation Kelly Bushing
TDL.M               1051:   Total Depth
SCD .M       -9999.00000:   Surface Casing Diameter
SCDP.M       -9999.00000:   Surface Casing Depth
CD  .M             0.230:   Casing Diameter
CDP .M               402:   Casing Depth
BS  .M             0.216:   Bit Size
                    CLAY:   Drill Fluid Type
DFD .G/CM3     1.24-1.25:   Drill Fluid Density
DFV .S           30-36.0:   Drill Fluid Viscosity
RMF.OHMM            0.07:   Mud Filtrate Resistivity
MT  .C             18.00:   Meas Temperature
                   DRST3:   Cartridge Gamma
TAU_GR.S            3.00:   GR Time Constant
K_GK         -9999.00000:   ????. ????????
SPEED.M/H    -9999.00000:   Speed M/Hour
                  NGK_60:   Probe NGR
USL_ED.IMP/MIN      6000:   1 ???.??.
OTN_KNL.GR/NGR         9:   ????????? ???????
TAU_NGR.S           3.00:   NGR Time Constant
SPEED.M/H    -9999.00000:   Speed M/Hour
                    AIKM:   Cartridge IK
                     6F1:   Probe IK
                     K_3:   Cartridge BK
             -9999.00000:   Probe BK
                     K_3:   Cartridge GZ3
       Lower  sonde 0.5M:   Probe BKZ
                SPEZSOND:   Cartridge SP
                   SKP-1:   Cartridge DS
                    USBA:   Cartridge DT
             -9999.00000:   Probe DT
~Curve Information Block
#MNEM.UNIT       API CODE     Curve Description
#---------    -------------   --------------------------------
DEPT.M                    :    1    DEPTH M
BK.OHMM                   :    2    LATEROLOG DEEP
PZ.OHMM                   :    3    SONDE BKZ 02.5M
SP.MV                     :    4    SPONTANEOUS POTENTIALS MVOLT
DS.M                      :    5    CALIPER
DT.MCS                    :    6    DELTA TIME INTERVAL TRANSIT TIME MCSEC/M
IK.MSM/M                  :    7    INDUCTION (CONDUCTIVITY) LOG DEEP MSM/M
NGR.UE                    :    8    NEUTRON GAMMA RAY
GR.MCR/H                  :    9    GAMMA RAY MICRO_ROENTGENS PER HOUR
~A DEPTH      BK            PZ         SP            DS           DT          IK           NGR          GR
# ...
 497.4  -9999.00000     14.22400     14.22400      0.21900  -9999.00000  -9999.00000      1.43100      1.93000
 497.6  -9999.00000     14.60500     13.97000      0.21800  -9999.00000  -9999.00000      1.40800      1.82900
 497.8  -9999.00000     16.63700     13.46200      0.21600  -9999.00000  -9999.00000      1.43100      1.77800
 498.0  -9999.00000     19.55800     13.46200      0.21600  -9999.00000  -9999.00000      1.46100      1.82900
 498.2  -9999.00000     22.35200     12.95400      0.21700  -9999.00000  -9999.00000      1.51400      1.93000
 498.4  -9999.00000     25.52700     12.44600      0.21600  -9999.00000  -9999.00000      1.54500      1.93000
 498.6  -9999.00000     28.19400     11.68400      0.21600  -9999.00000  -9999.00000      1.54500      1.67600
 498.8  -9999.00000     30.98800     11.43000      0.21400  -9999.00000  -9999.00000      1.59100      1.67600
 499.0  -9999.00000     33.65500     11.43000      0.21100  -9999.00000  -9999.00000      1.64400      1.77800
 499.2  -9999.00000     36.44900     11.68400      0.20900  -9999.00000  -9999.00000      1.59800      1.93000
 499.4  -9999.00000     38.60800     11.93800      0.20700  -9999.00000  -9999.00000      1.53000      1.98100
 499.6  -9999.00000     38.10000     12.70000      0.20500  -9999.00000  -9999.00000      1.42300      2.33700
 499.8  -9999.00000     35.68700     13.20800      0.21000  -9999.00000  -9999.00000      1.32400      2.23500
 500.0  -9999.00000     32.13100     15.24000      0.21300  -9999.00000  -9999.00000      1.21700      2.13400
 500.2  -9999.00000     28.19400     16.25600      0.21600  -9999.00000  -9999.00000      1.49200      2.43800
 500.4  -9999.00000     23.74900     16.76400      0.21900  -9999.00000  -9999.00000      1.60600      2.43800
 500.6  -9999.00000     20.32000     16.76400      0.22000  -9999.00000  -9999.00000      1.65900      2.43800
 500.8  -9999.00000     19.17700     16.51000      0.22000  -9999.00000  -9999.00000      1.66700      2.38800
 501.0  -9999.00000     20.32000     15.74800      0.21800  -9999.00000  -9999.00000      1.62100      2.08300
 501.2  -9999.00000     22.22500     15.74800      0.21700  -9999.00000  -9999.00000      1.55300      2.28600
 501.4  -9999.00000     23.87600     15.74800      0.21500  -9999.00000  -9999.00000      1.42300      2.54000
 501.6  -9999.00000     24.76500     15.24000      0.21300  -9999.00000  -9999.00000      1.30100      2.84500
 501.8  -9999.00000     23.49500     14.73200      0.21200  -9999.00000  -9999.00000      1.21000      3.15000
 502.0  -9999.00000     20.82800     13.97000      0.21200  -9999.00000  -9999.00000      1.08800      3.50500
 502.2  -9999.00000     17.65300     13.71600      0.21300  -9999.00000  -9999.00000      1.01900      2.79400
 502.4  -9999.00000     15.11300     14.22400      0.21500  -9999.00000  -9999.00000      1.01900      1.98100
 502.6  -9999.00000     12.70000     15.49400      0.21700  -9999.00000  -9999.00000      0.98100      1.98100
 502.8  -9999.00000     10.41400     16.00200      0.21800  -9999.00000  -9999.00000      0.98900      1.98100
 503.0  -9999.00000      9.01700     15.74800      0.21900  -9999.00000  -9999.00000      1.01100      2.03200
 503.2  -9999.00000      8.50900     14.47800      0.21900  -9999.00000  -9999.00000      1.01900      2.08300
 503.4  -9999.00000      8.76300     14.47800      0.21700  -9999.00000  -9999.00000      1.02700      2.08300
 503.6  -9999.00000     10.28700     15.49400      0.21600  -9999.00000  -9999.00000      1.05000      2.18400
 503.8  -9999.00000     12.44600     16.51000      0.21400  -9999.00000  -9999.00000      1.16400      2.38800
 504.0  -9999.00000     17.27200     17.01800      0.21300  -9999.00000  -9999.00000      1.22500      2.54000
 504.2  -9999.00000     22.98700     17.01800      0.21100  -9999.00000  -9999.00000      1.36200      2.69200
 504.4  -9999.00000     30.48000     16.51000      0.20800  -9999.00000  -9999.00000      1.41500      2.94600
 504.6  -9999.00000     37.59200     15.49400      0.20600  -9999.00000  -9999.00000      1.46100      2.79400
 504.8  -9999.00000     39.49700     14.98600      0.20500  -9999.00000  -9999.00000      1.41500      2.79400
 505.0  -9999.00000     36.95700     15.24000      0.20600  -9999.00000  -9999.00000      1.32400      2.99700
 505.2  -9999.00000     30.98800     16.00200      0.20900  -9999.00000  -9999.00000      1.22500      3.04800
 505.4  -9999.00000     25.01900     16.76400      0.21300  -9999.00000  -9999.00000      1.15600      3.25100
 505.6  -9999.00000     18.92300     17.01800      0.21700  -9999.00000  -9999.00000      1.09500      3.45400
 505.8  -9999.00000     14.35100     17.78000      0.21900  -9999.00000  -9999.00000      1.06500      3.70800
 506.0  -9999.00000     12.44600     18.03400      0.22100  -9999.00000  -9999.00000      1.14100      3.55600
 506.2  -9999.00000     11.30300     18.54200      0.22100  -9999.00000  -9999.00000      1.15600      3.45400
 506.4  -9999.00000     10.66800     18.79600      0.22100  -9999.00000  -9999.00000      1.19400      3.30200
 506.6  -9999.00000     10.66800     18.79600      0.22000  -9999.00000  -9999.00000      1.27800      3.15000
 506.8  -9999.00000     11.43000     18.54200      0.21900  -9999.00000  -9999.00000      1.35400      2.99700
 507.0  -9999.00000     13.33500     18.54200      0.21900  -9999.00000  -9999.00000      1.40000      2.84500
 507.2  -9999.00000     15.49400     18.54200      0.22000  -9999.00000  -9999.00000      1.38500      2.64200
 507.4  -9999.00000     17.65300     18.79600      0.22200  -9999.00000  -9999.00000      1.32400      2.74300
 507.6  -9999.00000     19.55800     19.55800      0.22500  -9999.00000  -9999.00000      1.30900      2.84500
 507.8  -9999.00000     19.30400     20.32000      0.23000  -9999.00000  -9999.00000      1.35400      2.59100
 508.0  -9999.00000     18.28800     21.33600      0.23400  -9999.00000  -9999.00000      1.37700      2.33700
 508.2  -9999.00000     17.52600     21.84400      0.23600  -9999.00000  -9999.00000      1.38500      2.28600
 508.4  -9999.00000     16.25600     21.84400      0.23500  -9999.00000  -9999.00000      1.36200      2.33700
 508.6  -9999.00000     15.49400     22.09800      0.23500  -9999.00000  -9999.00000      1.34700      2.13400
 508.8  -9999.00000     15.11300     21.08200      0.23500  -9999.00000  -9999.00000      1.33900      2.08300
 509.0  -9999.00000     15.49400     18.79600      0.23400  -9999.00000  -9999.00000      1.32400      2.03200
 509.2  -9999.00000     16.00200     16.51000      0.22700  -9999.00000  -9999.00000      1.26300      2.08300
 509.4  -9999.00000     17.01800     13.97000      0.21800  -9999.00000  -9999.00000      1.21000      2.08300
 509.6  -9999.00000     18.41500     12.70000      0.21100  -9999.00000  -9999.00000      1.17100      2.28600
 509.8  -9999.00000     20.70100     11.68400      0.21200  -9999.00000  -9999.00000      1.14900      2.28600
 510.0  -9999.00000     22.60600     11.43000      0.21200  -9999.00000  -9999.00000      1.24800      2.03200
 510.2  -9999.00000     24.00300     11.43000      0.21300  -9999.00000  -9999.00000      1.34700      2.08300
 510.4  -9999.00000     23.36800     11.68400      0.21300  -9999.00000  -9999.00000      1.41500      2.13400
 510.6  -9999.00000     22.22500     11.68400      0.21200  -9999.00000  -9999.00000      1.49200      2.18400
 510.8  -9999.00000     19.68500     11.68400      0.21200  -9999.00000  -9999.00000      1.45300      2.28600
 511.0  -9999.00000     20.95500     12.19200      0.21000  -9999.00000  -9999.00000      1.43100      2.38800
 511.2  -9999.00000     22.22500     12.70000      0.20900  -9999.00000  -9999.00000      1.36200      2.18400
 511.4  -9999.00000     23.49500     13.46200      0.20800  -9999.00000  -9999.00000      1.27800      1.93000
 511.6  -9999.00000     23.36800     13.97000      0.20700  -9999.00000  -9999.00000      1.17900      1.88000
 511.8  -9999.00000     22.22500     14.47800      0.20700  -9999.00000  -9999.00000      1.10300      1.93000
