~Version information
VERS.              2.00:   CWLS LOG ASCII STANDARD -VERSION 2.00
WRAP.                NO:   one line per depth step
~Well Information Block
#MNEM.UNIT     DATA         DESCRIPTION OF MNEMONIC
#--------  --------------   ------------------------
STRT.M                 1.00:START DEPTH
STOP.M              1051.00:STOP DEPTH
STEP.M                 0.20:STEP VALUE
NULL.           -9999.00000:NULL VALUE
COMP.        YDMYRTGEOLOGIA:COMPANY NAME
WELL.                 13015:WELL NAME
FLD .            VAYATSKAYA:FIELD NAME
CTRY.                RUSSIA:COUNTRY
DATE.              28.09.92:DATE
UWI .                 13015:UNIQUE WELL IDENTIFIER
SRVC.                  ????:???????? ????????? ???????? ???
SRVC_OC.                ???:???????? ????????? ????????-?????????
~Parameter Information Block
#MNEM.UNIT       Value     Description of mnemonic
#---------   -----------   ------------------------------------
EKB .M            182.45:   Elevation Kelly Bushing
TDL.M               1051:   Total Depth
SCD .M       -9999.00000:   Surface Casing Diameter
SCDP.M       -9999.00000:   Surface Casing Depth
CD  .M             0.230:   Casing Diameter
CDP .M               402:   Casing Depth
BS  .M             0.216:   Bit Size
                    CLAY:   Drill Fluid Type
DFD .G/CM3     1.24-1.25:   Drill Fluid Density
DFV .S           30-36.0:   Drill Fluid Viscosity
RMF.OHMM            0.07:   Mud Filtrate Resistivity
MT  .C             18.00:   Meas Temperature
                   DRST3:   Cartridge Gamma
TAU_GR.S            3.00:   GR Time Constant
K_GK         -9999.00000:   ????. ????????
SPEED.M/H    -9999.00000:   Speed M/Hour
                  NGK_60:   Probe NGR
USL_ED.IMP/MIN      6000:   1 ???.??.
OTN_KNL.GR/NGR         9:   ????????? ???????
TAU_NGR.S           3.00:   NGR Time Constant
SPEED.M/H    -9999.00000:   Speed M/Hour
                    AIKM:   Cartridge IK
                     6F1:   Probe IK
                     K_3:   Cartridge BK
             -9999.00000:   Probe BK
                     K_3:   Cartridge GZ3
       Lower  sonde 0.5M:   Probe BKZ
                SPEZSOND:   Cartridge SP
                   SKP-1:   Cartridge DS
                    USBA:   Cartridge DT
             -9999.00000:   Probe DT
~Curve Information Block
#MNEM.UNIT       API CODE     Curve Description
#---------    -------------   --------------------------------
DEPT.M                    :    1    DEPTH M
BK.OHMM                   :    2    LATEROLOG DEEP
PZ.OHMM                   :    3    SONDE BKZ 02.5M
SP.MV                     :    4    SPONTANEOUS POTENTIALS MVOLT
DS.M                      :    5    CALIPER
DT.MCS                    :    6    DELTA TIME INTERVAL TRANSIT TIME MCSEC/M
IK.MSM/M                  :    7    INDUCTION (CONDUCTIVITY) LOG DEEP MSM/M
NGR.UE                    :    8    NEUTRON GAMMA RAY
GR.MCR/H                  :    9    GAMMA RAY MICRO_ROENTGENS PER HOUR
~A DEPTH      BK            PZ         SP            DS           DT          IK           NGR          GR
# ...
 789.4  -9999.00000     10.41300     64.76200      0.22600  -9999.00000  -9999.00000      2.03300      3.09900
 789.6  -9999.00000     10.03200     60.44400      0.22500  -9999.00000  -9999.00000      2.04000      3.30200
 789.8  -9999.00000      9.52400     57.90500      0.22500  -9999.00000  -9999.00000      2.03300      3.45400
 790.0  -9999.00000      9.01600     55.87300      0.22500  -9999.00000  -9999.00000      1.90300      3.60700
 790.2  -9999.00000      8.63500     53.84100      0.22400  -9999.00000  -9999.00000      1.78900      3.55600
 790.4  -9999.00000      7.74700     51.56200      0.22600  -9999.00000  -9999.00000      1.88000      3.30200
 790.6  -9999.00000      7.23900     51.81600      0.22600  -9999.00000  -9999.00000      1.92600      3.15000
 790.8  -9999.00000      7.36600     52.83200      0.22500  -9999.00000  -9999.00000      1.96400      2.94600
 791.0  -9999.00000      7.87400     53.59400      0.22400  -9999.00000  -9999.00000      2.01700      2.64200
 791.2  -9999.00000      8.50900     54.61000      0.22400  -9999.00000  -9999.00000      2.00200      2.79400
 791.4  -9999.00000      9.14400     56.89600      0.22300  -9999.00000  -9999.00000      1.97900      2.99700
 791.6  -9999.00000     10.41400     59.69000      0.22200  -9999.00000  -9999.00000      1.91800      3.25100
 791.8  -9999.00000     12.19200     61.72200      0.22100  -9999.00000  -9999.00000      1.88000      3.65800
 792.0  -9999.00000     13.84300     59.69000      0.21900  -9999.00000  -9999.00000      1.85000      3.60700
 792.2  -9999.00000     14.85900     55.62600      0.21700  -9999.00000  -9999.00000      1.78100      3.35300
 792.4  -9999.00000     14.09700     52.57800      0.21700  -9999.00000  -9999.00000      1.71300      2.74300
 792.6  -9999.00000     12.70000     50.54600      0.21900  -9999.00000  -9999.00000      1.72000      2.18400
 792.8  -9999.00000     13.20800     50.80000      0.22200  -9999.00000  -9999.00000      1.78100      1.82900
 793.0  -9999.00000     14.47800     52.57800      0.22400  -9999.00000  -9999.00000      1.85700      1.88000
 793.2  -9999.00000     18.54200     55.62600      0.22400  -9999.00000  -9999.00000      1.83400      2.23500
 793.4  -9999.00000     21.33600     58.67400      0.22500  -9999.00000  -9999.00000      1.74300      2.79400
 793.6  -9999.00000     20.44700     65.27800      0.22500  -9999.00000  -9999.00000      1.74300      3.96200
 793.8  -9999.00000     17.39900     71.88200      0.22300  -9999.00000  -9999.00000      1.82700      4.67400
 794.0  -9999.00000     15.24000     75.69200      0.22200  -9999.00000  -9999.00000      1.93300      5.08000
 794.2  -9999.00000     14.60500     70.35800      0.22100  -9999.00000  -9999.00000      1.99400      5.43600
 794.4  -9999.00000     15.36700     60.70600      0.21800  -9999.00000  -9999.00000      2.02500      4.82600
 794.6  -9999.00000     17.52600     54.86400      0.21700  -9999.00000  -9999.00000      1.91800      3.40400
 794.8  -9999.00000     19.43100     51.56200      0.21800  -9999.00000  -9999.00000      1.87300      2.28600
 795.0  -9999.00000     21.46300     49.53000      0.21900  -9999.00000  -9999.00000      1.85700      2.03200
 795.2  -9999.00000     22.98700     49.78400      0.22100  -9999.00000  -9999.00000      1.95600      2.23500
 795.4  -9999.00000     22.60600     51.81600      0.22100  -9999.00000  -9999.00000      2.06300      2.38800
 795.6  -9999.00000     21.08200     54.10200      0.22100  -9999.00000  -9999.00000      2.17700      2.48900
 795.8  -9999.00000     19.05000     56.13400      0.22100  -9999.00000  -9999.00000      2.17700      2.59100
 796.0  -9999.00000     17.39900     55.88000      0.22100  -9999.00000  -9999.00000      2.08600      2.69200
 796.2  -9999.00000     16.63700     54.10200      0.22100  -9999.00000  -9999.00000      2.12400      2.69200
 796.4  -9999.00000     16.12900     52.83200      0.22200  -9999.00000  -9999.00000      2.21500      2.89600
 796.6  -9999.00000     16.63700     52.07000      0.22200  -9999.00000  -9999.00000      2.30700      3.25100
 796.8  -9999.00000     18.41500     51.56200      0.22100  -9999.00000  -9999.00000      2.31500      3.75900
 797.0  -9999.00000     20.06600     50.54600      0.22000  -9999.00000  -9999.00000      2.20000      4.47000
 797.2  -9999.00000     22.35200     48.51400      0.21800  -9999.00000  -9999.00000      2.08600      4.67400
 797.4  -9999.00000     24.25700     46.22800      0.21800  -9999.00000  -9999.00000      2.02500      4.21600
 797.6  -9999.00000     26.54300     44.95800      0.21900  -9999.00000  -9999.00000      1.98700      4.06400
 797.8  -9999.00000     28.19400     45.46600      0.21900  -9999.00000  -9999.00000      1.97200      3.91200
 798.0  -9999.00000     28.57500     46.99000      0.21700  -9999.00000  -9999.00000      1.96400      4.36900
 798.2  -9999.00000     27.17800     50.54600      0.21500  -9999.00000  -9999.00000      1.97200      4.87700
 798.4  -9999.00000     22.98700     51.56200      0.21300  -9999.00000  -9999.00000      1.94100      5.69000
 798.6  -9999.00000     18.66900     51.81600      0.21200  -9999.00000  -9999.00000      1.87300      5.94400
 798.8  -9999.00000     16.51000     50.29200      0.21200  -9999.00000  -9999.00000      1.84200      4.82600
 799.0  -9999.00000     16.76400     46.48200      0.21300  -9999.00000  -9999.00000      1.82700      3.96200
 799.2  -9999.00000     18.79600     45.21200      0.21300  -9999.00000  -9999.00000      1.84200      3.75900
 799.4  -9999.00000     21.59000     43.94200      0.21400  -9999.00000  -9999.00000      1.82700      3.81000
 799.6  -9999.00000     24.25700     41.14800      0.21500  -9999.00000  -9999.00000      1.78100      3.65800
 799.8  -9999.00000     23.24100     40.38600      0.21600  -9999.00000  -9999.00000      1.69700      3.81000
 800.0  -9999.00000     20.82800     39.62400      0.21700  -9999.00000  -9999.00000      1.62900      4.06400
 800.2  -9999.00000     18.41500     38.86200      0.21900  -9999.00000  -9999.00000      1.53700      4.26700
 800.4  -9999.00000     16.12900     41.65600      0.22000  -9999.00000  -9999.00000      1.43800      4.42000
 800.6  -9999.00000     13.71600     41.91000      0.22200  -9999.00000  -9999.00000      1.36200      5.08000
 800.8  -9999.00000     11.30300     39.87800      0.22100  -9999.00000  -9999.00000      1.31600      4.97800
 801.0  -9999.00000      8.89000     36.57600      0.22200  -9999.00000  -9999.00000      1.28600      4.92800
 801.2  -9999.00000      6.60400     35.56000      0.22300  -9999.00000  -9999.00000      1.29300      4.82600
 801.4  -9999.00000      4.31800     36.06800      0.22400  -9999.00000  -9999.00000      1.31600      4.72400
 801.6  -9999.00000      3.17500     38.10000      0.22600  -9999.00000  -9999.00000      1.30100      4.62300
 801.8  -9999.00000      2.66700     41.91000      0.22700  -9999.00000  -9999.00000      1.35400      4.52100
 802.0  -9999.00000      2.54000     48.76800      0.22700  -9999.00000  -9999.00000      1.43800      4.42000
 802.2  -9999.00000      2.54000     58.16600      0.22600  -9999.00000  -9999.00000      1.62100      4.26700
 802.4  -9999.00000      2.79400     67.56400      0.22400  -9999.00000  -9999.00000      1.83400      4.16600
 802.6  -9999.00000      3.30200     72.13600      0.22100  -9999.00000  -9999.00000      2.12400      4.06400
 802.8  -9999.00000      4.31800     69.34200      0.21900  -9999.00000  -9999.00000      2.43600      3.91200
 803.0  -9999.00000      6.85800     65.53200      0.22000  -9999.00000  -9999.00000      2.32200      3.81000
 803.2  -9999.00000      9.14400     62.23000      0.22100  -9999.00000  -9999.00000      2.25400      3.65800
 803.4  -9999.00000     11.17600     58.92800      0.22300  -9999.00000  -9999.00000      1.99400      3.30200
 803.6  -9999.00000     11.17600     56.13400      0.22300  -9999.00000  -9999.00000      1.86500      3.04800
 803.8  -9999.00000     10.79500     54.86400      0.22300  -9999.00000  -9999.00000      1.91800      2.84500
