~Version information
VERS.              2.00:   CWLS LOG ASCII STANDARD -VERSION 2.00
WRAP.                NO:   one line per depth step
~Well Information Block
#MNEM.UNIT     DATA         DESCRIPTION OF MNEMONIC
#--------  --------------   ------------------------
STRT.M                 1.00:START DEPTH
STOP.M              1051.00:STOP DEPTH
STEP.M                 0.20:STEP VALUE
NULL.           -9999.00000:NULL VALUE
COMP.        YDMYRTGEOLOGIA:COMPANY NAME
WELL.                 13015:WELL NAME
FLD .            VAYATSKAYA:FIELD NAME
CTRY.                RUSSIA:COUNTRY
DATE.              28.09.92:DATE
UWI .                 13015:UNIQUE WELL IDENTIFIER
SRVC.                  ????:???????? ????????? ???????? ???
SRVC_OC.                ???:???????? ????????? ????????-?????????
~Parameter Information Block
#MNEM.UNIT       Value     Description of mnemonic
#---------   -----------   ------------------------------------
EKB .M            182.45:   Elevation Kelly Bushing
TDL.M               1051:   Total Depth
SCD .M       -9999.00000:   Surface Casing Diameter
SCDP.M       -9999.00000:   Surface Casing Depth
CD  .M             0.230:   Casing Diameter
CDP .M               402:   Casing Depth
BS  .M             0.216:   Bit Size
                    CLAY:   Drill Fluid Type
DFD .G/CM3     1.24-1.25:   Drill Fluid Density
DFV .S           30-36.0:   Drill Fluid Viscosity
RMF.OHMM            0.07:   Mud Filtrate Resistivity
MT  .C             18.00:   Meas Temperature
                   DRST3:   Cartridge Gamma
TAU_GR.S            3.00:   GR Time Constant
K_GK         -9999.00000:   ????. ????????
SPEED.M/H    -9999.00000:   Speed M/Hour
                  NGK_60:   Probe NGR
USL_ED.IMP/MIN      6000:   1 ???.??.
OTN_KNL.GR/NGR         9:   ????????? ???????
TAU_NGR.S           3.00:   NGR Time Constant
SPEED.M/H    -9999.00000:   Speed M/Hour
                    AIKM:   Cartridge IK
                     6F1:   Probe IK
                     K_3:   Cartridge BK
             -9999.00000:   Probe BK
                     K_3:   Cartridge GZ3
       Lower  sonde 0.5M:   Probe BKZ
                SPEZSOND:   Cartridge SP
                   SKP-1:   Cartridge DS
                    USBA:   Cartridge DT
             -9999.00000:   Probe DT
~Curve Information Block
#MNEM.UNIT       API CODE     Curve Description
#---------    -------------   --------------------------------
DEPT.M                    :    1    DEPTH M
BK.OHMM                   :    2    LATEROLOG DEEP
PZ.OHMM                   :    3    SONDE BKZ 02.5M
SP.MV                     :    4    SPONTANEOUS POTENTIALS MVOLT
DS.M                      :    5    CALIPER
DT.MCS                    :    6    DELTA TIME INTERVAL TRANSIT TIME MCSEC/M
IK.MSM/M                  :    7    INDUCTION (CONDUCTIVITY) LOG DEEP MSM/M
NGR.UE                    :    8    NEUTRON GAMMA RAY
GR.MCR/H                  :    9    GAMMA RAY MICRO_ROENTGENS PER HOUR
~A DEPTH      BK            PZ         SP            DS           DT          IK           NGR          GR
# ...
 701.8  -9999.00000     21.20900     70.35800      0.21400  -9999.00000  -9999.00000      2.47500      3.25100
 702.0  -9999.00000     21.08200     71.12000      0.21400  -9999.00000  -9999.00000      2.38300      3.81000
 702.2  -9999.00000     21.33600     72.89800      0.21400  -9999.00000  -9999.00000      2.30700      4.42000
 702.4  -9999.00000     21.97100     73.40600      0.21400  -9999.00000  -9999.00000      2.21500      4.62300
 702.6  -9999.00000     22.73300     73.66000      0.21300  -9999.00000  -9999.00000      2.13900      4.36900
 702.8  -9999.00000     24.63800     69.08800      0.21200  -9999.00000  -9999.00000      1.96400      4.47000
 703.0  -9999.00000     27.81300     65.27800      0.21100  -9999.00000  -9999.00000      1.88000      4.42000
 703.2  -9999.00000     30.09900     61.46800      0.21100  -9999.00000  -9999.00000      1.76600      4.06400
 703.4  -9999.00000     32.51200     57.65800      0.21100  -9999.00000  -9999.00000      1.70500      4.06400
 703.6  -9999.00000     34.67100     53.84800      0.21100  -9999.00000  -9999.00000      1.75100      4.31800
 703.8  -9999.00000     36.95700     50.29200      0.21100  -9999.00000  -9999.00000      1.91800      5.02900
 704.0  -9999.00000     39.24300     46.48200      0.21100  -9999.00000  -9999.00000      2.26900      5.58800
 704.2  -9999.00000     41.52900     42.41800      0.21100  -9999.00000  -9999.00000      2.58900      5.13100
 704.4  -9999.00000     43.81500     38.86200      0.21100  -9999.00000  -9999.00000      2.67300      4.36900
 704.6  -9999.00000     48.89500     35.05200      0.21100  -9999.00000  -9999.00000      2.56600      3.65800
 704.8  -9999.00000     53.97500     31.24200      0.21100  -9999.00000  -9999.00000      2.21500      3.96200
 705.0  -9999.00000     58.42000     28.44800      0.21100  -9999.00000  -9999.00000      1.94900      4.11500
 705.2  -9999.00000     62.23000     27.43200      0.21100  -9999.00000  -9999.00000      1.76600      3.65800
 705.4  -9999.00000     66.67500     26.41600      0.21100  -9999.00000  -9999.00000      1.76600      2.94600
 705.6  -9999.00000     70.48500     25.90800      0.21100  -9999.00000  -9999.00000      1.80400      2.54000
 705.8  -9999.00000     73.66000     25.65400      0.21200  -9999.00000  -9999.00000      1.75800      2.54000
 706.0  -9999.00000     75.56500     25.40000      0.21200  -9999.00000  -9999.00000      1.72800      2.64200
 706.2  -9999.00000     76.20000     24.38400      0.21200  -9999.00000  -9999.00000      1.65200      2.74300
 706.4  -9999.00000     75.56500     24.63800      0.21100  -9999.00000  -9999.00000      1.59100      2.84500
 706.6  -9999.00000     73.66000     24.89200      0.21000  -9999.00000  -9999.00000      1.51400      2.94600
 706.8  -9999.00000     72.39000     24.89200      0.21000  -9999.00000  -9999.00000      1.48400      3.25100
 707.0  -9999.00000     70.48500     25.14600      0.20900  -9999.00000  -9999.00000      1.43800      3.50500
 707.2  -9999.00000     66.04000     25.14600      0.20700  -9999.00000  -9999.00000      1.48400      3.45400
 707.4  -9999.00000     63.50000     25.40000      0.20500  -9999.00000  -9999.00000      1.46900      3.35300
 707.6  -9999.00000     60.32500     25.65400      0.20500  -9999.00000  -9999.00000      1.45300      3.70800
 707.8  -9999.00000     56.51500     25.65400      0.20500  -9999.00000  -9999.00000      1.48400      4.31800
 708.0  -9999.00000     52.07000     25.90800      0.20500  -9999.00000  -9999.00000      1.53000      4.26700
 708.2  -9999.00000     47.62500     26.16200      0.20600  -9999.00000  -9999.00000      1.59800      3.60700
 708.4  -9999.00000     45.72000     26.67000      0.20600  -9999.00000  -9999.00000      1.67400      2.94600
 708.6  -9999.00000     42.54500     27.43200      0.20700  -9999.00000  -9999.00000      1.70500      2.99700
 708.8  -9999.00000     41.13800     27.17800      0.20700  -9999.00000  -9999.00000      1.68200      2.89600
 709.0  -9999.00000     39.73100     26.92400      0.20800  -9999.00000  -9999.00000      1.64400      2.69200
 709.2  -9999.00000     38.32500     26.92400      0.20700  -9999.00000  -9999.00000      1.49900      2.54000
 709.4  -9999.00000     36.91800     27.68600      0.20700  -9999.00000  -9999.00000      1.46900      2.43800
 709.6  -9999.00000     35.51100     28.70200      0.20900  -9999.00000  -9999.00000      1.43800      2.28600
 709.8  -9999.00000     34.10400     29.71800      0.21100  -9999.00000  -9999.00000      1.50700      2.43800
 710.0  -9999.00000     31.62300     30.98800      0.21400  -9999.00000  -9999.00000      1.48400      2.59100
 710.2  -9999.00000     31.36900     32.76600      0.21300  -9999.00000  -9999.00000      1.53000      2.38800
 710.4  -9999.00000     31.62300     36.32200      0.21100  -9999.00000  -9999.00000      1.61300      2.38800
 710.6  -9999.00000     34.29000     40.64000      0.21100  -9999.00000  -9999.00000      1.72800      2.23500
 710.8  -9999.00000     35.94100     46.22800      0.21300  -9999.00000  -9999.00000      1.94700      2.08300
 711.0  -9999.00000     36.95700     51.81600      0.21500  -9999.00000  -9999.00000      2.12700      2.03200
 711.2  -9999.00000     34.79800     58.92800      0.21500  -9999.00000  -9999.00000      2.30700      2.13400
 711.4  -9999.00000     32.25800     67.05600      0.21500  -9999.00000  -9999.00000      2.44400      2.38800
 711.6  -9999.00000     29.46400     74.93000      0.21500  -9999.00000  -9999.00000      2.41400      2.79400
 711.8  -9999.00000     27.30500     80.77200      0.21600  -9999.00000  -9999.00000      2.30700      3.30200
 712.0  -9999.00000     25.14600     82.80400      0.21500  -9999.00000  -9999.00000      2.17700      3.70800
 712.2  -9999.00000     23.36800     83.31200      0.21500  -9999.00000  -9999.00000      1.97200      3.96200
 712.4  -9999.00000     22.47900     82.04200      0.21500  -9999.00000  -9999.00000      1.93300      4.42000
 712.6  -9999.00000     21.71700     79.24800      0.21400  -9999.00000  -9999.00000      2.04000      5.43600
 712.8  -9999.00000     20.19300     74.93000      0.21200  -9999.00000  -9999.00000      2.15400      6.65500
 713.0  -9999.00000     18.41500     72.39000      0.21100  -9999.00000  -9999.00000      2.20000      7.92500
 713.2  -9999.00000     17.39900     69.85000      0.21000  -9999.00000  -9999.00000      2.14700      8.53400
 713.4  -9999.00000     17.39900     67.31000      0.21000  -9999.00000  -9999.00000      2.11600      7.06100
 713.6  -9999.00000     19.05000     65.02400      0.21100  -9999.00000  -9999.00000      2.09400      6.24800
 713.8  -9999.00000     21.33600     62.73800      0.21200  -9999.00000  -9999.00000      1.84200      6.04500
 714.0  -9999.00000     22.60600     59.43600      0.21200  -9999.00000  -9999.00000      1.74300      5.58800
 714.2  -9999.00000     23.74900     55.88000      0.21200  -9999.00000  -9999.00000      1.53000      5.23200
 714.4  -9999.00000     23.62200     52.57800      0.21300  -9999.00000  -9999.00000      1.61300      4.77500
 714.6  -9999.00000     23.11400     43.68800      0.21400  -9999.00000  -9999.00000      1.74300      4.36900
 714.8  -9999.00000     22.98700     36.57600      0.21500  -9999.00000  -9999.00000      1.61300      4.31800
 715.0  -9999.00000     18.92300     34.03600      0.21600  -9999.00000  -9999.00000      1.53000      4.36900
 715.2  -9999.00000     14.47800     32.25800      0.21700  -9999.00000  -9999.00000      1.46100      4.36900
 715.4  -9999.00000      9.90600     30.48000      0.21900  -9999.00000  -9999.00000      1.41500      4.26700
 715.6  -9999.00000      4.95300     28.70200      0.22300  -9999.00000  -9999.00000      1.35400      3.55600
 715.8  -9999.00000      4.95300     30.22600      0.22500  -9999.00000  -9999.00000      1.35400      3.25100
 716.0  -9999.00000      4.95300     33.52800      0.22800  -9999.00000  -9999.00000      1.36200      3.35300
 716.2  -9999.00000      5.08000     34.79800      0.22700  -9999.00000  -9999.00000      1.46900      3.75900
