~Version information
VERS.              2.00:   CWLS LOG ASCII STANDARD -VERSION 2.00
WRAP.                NO:   one line per depth step
~Well Information Block
#MNEM.UNIT     DATA         DESCRIPTION OF MNEMONIC
#--------  --------------   ------------------------
STRT.M                 1.00:START DEPTH
STOP.M              1051.00:STOP DEPTH
STEP.M                 0.20:STEP VALUE
NULL.           -9999.00000:NULL VALUE
COMP.        YDMYRTGEOLOGIA:COMPANY NAME
WELL.                 13015:WELL NAME
FLD .            VAYATSKAYA:FIELD NAME
CTRY.                RUSSIA:COUNTRY
DATE.              28.09.92:DATE
UWI .                 13015:UNIQUE WELL IDENTIFIER
SRVC.                  ????:???????? ????????? ???????? ???
SRVC_OC.                ???:???????? ????????? ????????-?????????
~Parameter Information Block
#MNEM.UNIT       Value     Description of mnemonic
#---------   -----------   ------------------------------------
EKB .M            182.45:   Elevation Kelly Bushing
TDL.M               1051:   Total Depth
SCD .M       -9999.00000:   Surface Casing Diameter
SCDP.M       -9999.00000:   Surface Casing Depth
CD  .M             0.230:   Casing Diameter
CDP .M               402:   Casing Depth
BS  .M             0.216:   Bit Size
                    CLAY:   Drill Fluid Type
DFD .G/CM3     1.24-1.25:   Drill Fluid Density
DFV .S           30-36.0:   Drill Fluid Viscosity
RMF.OHMM            0.07:   Mud Filtrate Resistivity
MT  .C             18.00:   Meas Temperature
                   DRST3:   Cartridge Gamma
TAU_GR.S            3.00:   GR Time Constant
K_GK         -9999.00000:   ????. ????????
SPEED.M/H    -9999.00000:   Speed M/Hour
                  NGK_60:   Probe NGR
USL_ED.IMP/MIN      6000:   1 ???.??.
OTN_KNL.GR/NGR         9:   ????????? ???????
TAU_NGR.S           3.00:   NGR Time Constant
SPEED.M/H    -9999.00000:   Speed M/Hour
                    AIKM:   Cartridge IK
                     6F1:   Probe IK
                     K_3:   Cartridge BK
             -9999.00000:   Probe BK
                     K_3:   Cartridge GZ3
       Lower  sonde 0.5M:   Probe BKZ
                SPEZSOND:   Cartridge SP
                   SKP-1:   Cartridge DS
                    USBA:   Cartridge DT
             -9999.00000:   Probe DT
~Curve Information Block
#MNEM.UNIT       API CODE     Curve Description
#---------    -------------   --------------------------------
DEPT.M                    :    1    DEPTH M
BK.OHMM                   :    2    LATEROLOG DEEP
PZ.OHMM                   :    3    SONDE BKZ 02.5M
SP.MV                     :    4    SPONTANEOUS POTENTIALS MVOLT
DS.M                      :    5    CALIPER
DT.MCS                    :    6    DELTA TIME INTERVAL TRANSIT TIME MCSEC/M
IK.MSM/M                  :    7    INDUCTION (CONDUCTIVITY) LOG DEEP MSM/M
NGR.UE                    :    8    NEUTRON GAMMA RAY
GR.MCR/H                  :    9    GAMMA RAY MICRO_ROENTGENS PER HOUR
~A DEPTH      BK            PZ         SP            DS           DT          IK           NGR          GR
# ...
 658.0  -9999.00000     70.48500     26.16200      0.20600  -9999.00000  -9999.00000      2.12400      4.52100
 658.2  -9999.00000     71.75500     25.14600      0.20600  -9999.00000  -9999.00000      2.04000      4.31800
 658.4  -9999.00000     76.20000     24.13000      0.20500  -9999.00000  -9999.00000      2.07100      3.65800
 658.6  -9999.00000     80.64500     23.11400      0.20400  -9999.00000  -9999.00000      2.10100      3.45400
 658.8  -9999.00000     83.82000     22.86000      0.20400  -9999.00000  -9999.00000      2.13200      3.25100
 659.0  -9999.00000     86.36000     23.36800      0.20500  -9999.00000  -9999.00000      2.15400      3.55600
 659.2  -9999.00000     86.99500     24.13000      0.20500  -9999.00000  -9999.00000      2.16200      3.45400
 659.4  -9999.00000     86.36000     24.38400      0.20600  -9999.00000  -9999.00000      2.15400      3.20000
 659.6  -9999.00000     84.45500     23.11400      0.20600  -9999.00000  -9999.00000      2.01000      3.30200
 659.8  -9999.00000     81.91500     22.35200      0.20600  -9999.00000  -9999.00000      1.97900      3.45400
 660.0  -9999.00000     78.74000     22.09800      0.20600  -9999.00000  -9999.00000      1.97200      3.50500
 660.2  -9999.00000     77.47000     22.60600      0.20600  -9999.00000  -9999.00000      1.92600      3.45400
 660.4  -9999.00000     76.20000     22.35200      0.20700  -9999.00000  -9999.00000      1.81900      3.45400
 660.6  -9999.00000     75.56500     22.09800      0.20800  -9999.00000  -9999.00000      1.85000      3.60700
 660.8  -9999.00000     74.29500     21.84400      0.20800  -9999.00000  -9999.00000      1.80400      3.96200
 661.0  -9999.00000     71.75500     21.33600      0.20700  -9999.00000  -9999.00000      1.78900      4.21600
 661.2  -9999.00000     66.67500     20.82800      0.20600  -9999.00000  -9999.00000      1.79600      4.01300
 661.4  -9999.00000     62.23000     20.82800      0.20600  -9999.00000  -9999.00000      1.76600      3.91200
 661.6  -9999.00000     59.05500     20.06600      0.20600  -9999.00000  -9999.00000      1.72000      3.81000
 661.8  -9999.00000     55.88000     19.55800      0.20600  -9999.00000  -9999.00000      1.66700      3.70800
 662.0  -9999.00000     51.43500     19.55800      0.20600  -9999.00000  -9999.00000      1.69700      3.75900
 662.2  -9999.00000     49.53000     20.06600      0.20700  -9999.00000  -9999.00000      1.69000      3.65800
 662.4  -9999.00000     46.35500     20.82800      0.20700  -9999.00000  -9999.00000      1.75800      3.50500
 662.6  -9999.00000     43.81500     21.33600      0.20700  -9999.00000  -9999.00000      1.81900      3.65800
 662.8  -9999.00000     41.91000     21.84400      0.20700  -9999.00000  -9999.00000      1.77300      3.91200
 663.0  -9999.00000     40.00500     22.60600      0.20700  -9999.00000  -9999.00000      1.66700      3.91200
 663.2  -9999.00000     40.00500     22.60600      0.20800  -9999.00000  -9999.00000      1.66700      3.75900
 663.4  -9999.00000     40.00500     23.11400      0.20800  -9999.00000  -9999.00000      1.68200      3.65800
 663.6  -9999.00000     40.64000     24.13000      0.20800  -9999.00000  -9999.00000      1.69700      3.65800
 663.8  -9999.00000     41.27500     24.89200      0.20800  -9999.00000  -9999.00000      1.69700      4.06400
 664.0  -9999.00000     41.91000     25.14600      0.20800  -9999.00000  -9999.00000      1.56800      4.26700
 664.2  -9999.00000     41.27500     25.65400      0.20900  -9999.00000  -9999.00000      1.66700      4.36900
 664.4  -9999.00000     40.00500     25.14600      0.20900  -9999.00000  -9999.00000      1.67400      4.36900
 664.6  -9999.00000     39.37000     24.89200      0.21000  -9999.00000  -9999.00000      1.63600      4.26700
 664.8  -9999.00000     40.00500     23.62200      0.21000  -9999.00000  -9999.00000      1.59800      4.47000
 665.0  -9999.00000     40.64000     22.86000      0.21000  -9999.00000  -9999.00000      1.60600      4.57200
 665.2  -9999.00000     41.91000     21.59000      0.21000  -9999.00000  -9999.00000      1.66700      4.52100
 665.4  -9999.00000     44.45000     20.57400      0.21000  -9999.00000  -9999.00000      1.71300      4.42000
 665.6  -9999.00000     47.62500     19.81200      0.21000  -9999.00000  -9999.00000      1.73500      4.26700
 665.8  -9999.00000     50.16500     19.30400      0.20900  -9999.00000  -9999.00000      1.78900      4.36900
 666.0  -9999.00000     53.34000     18.79600      0.20900  -9999.00000  -9999.00000      1.74300      4.52100
 666.2  -9999.00000     55.24500     18.28800      0.20900  -9999.00000  -9999.00000      1.72000      4.36900
 666.4  -9999.00000     56.51500     18.79600      0.20900  -9999.00000  -9999.00000      1.72800      4.36900
 666.6  -9999.00000     57.15000     19.30400      0.20900  -9999.00000  -9999.00000      1.78100      4.26700
 666.8  -9999.00000     57.15000     19.81200      0.20900  -9999.00000  -9999.00000      1.75100      4.01300
 667.0  -9999.00000     55.88000     20.06600      0.20800  -9999.00000  -9999.00000      1.75800      3.96200
 667.2  -9999.00000     55.88000     19.81200      0.20800  -9999.00000  -9999.00000      1.72800      4.11500
 667.4  -9999.00000     54.61000     20.06600      0.20800  -9999.00000  -9999.00000      1.69000      4.01300
 667.6  -9999.00000     53.34000     20.57400      0.20800  -9999.00000  -9999.00000      1.65900      3.81000
 667.8  -9999.00000     53.34000     21.08200      0.20900  -9999.00000  -9999.00000      1.71300      3.40400
 668.0  -9999.00000     52.70500     22.09800      0.20900  -9999.00000  -9999.00000      1.76600      3.20000
 668.2  -9999.00000     51.43500     22.35200      0.20900  -9999.00000  -9999.00000      1.65200      3.20000
 668.4  -9999.00000     51.43500     23.11400      0.20900  -9999.00000  -9999.00000      1.57500      3.15000
 668.6  -9999.00000     52.07000     23.62200      0.20800  -9999.00000  -9999.00000      1.62900      2.99700
 668.8  -9999.00000     52.70500     24.38400      0.20800  -9999.00000  -9999.00000      1.72000      3.09900
 669.0  -9999.00000     52.70500     24.63800      0.20800  -9999.00000  -9999.00000      1.81200      3.09900
 669.2  -9999.00000     53.34000     25.40000      0.20800  -9999.00000  -9999.00000      1.86500      3.25100
 669.4  -9999.00000     49.53000     25.90800      0.20800  -9999.00000  -9999.00000      1.90300      3.55600
 669.6  -9999.00000     45.72000     26.41600      0.20800  -9999.00000  -9999.00000      1.87300      3.70800
 669.8  -9999.00000     43.18000     27.17800      0.20800  -9999.00000  -9999.00000      1.83400      3.75900
 670.0  -9999.00000     43.18000     28.19400      0.20800  -9999.00000  -9999.00000      1.83400      3.50500
 670.2  -9999.00000     44.45000     28.95600      0.20800  -9999.00000  -9999.00000      1.83400      3.30200
 670.4  -9999.00000     46.35500     28.70200      0.20800  -9999.00000  -9999.00000      1.71300      3.15000
 670.6  -9999.00000     46.99000     28.44800      0.20900  -9999.00000  -9999.00000      1.68200      3.30200
 670.8  -9999.00000     43.23100     28.95600      0.20900  -9999.00000  -9999.00000      1.65900      3.65800
 671.0  -9999.00000     39.47200     29.46400      0.20800  -9999.00000  -9999.00000      1.62100      3.86100
 671.2  -9999.00000     36.70300     29.71800      0.20600  -9999.00000  -9999.00000      1.51400      4.06400
 671.4  -9999.00000     34.41700     29.97200      0.20700  -9999.00000  -9999.00000      1.45300      3.96200
 671.6  -9999.00000     35.81400     30.48000      0.20700  -9999.00000  -9999.00000      1.47600      3.81000
 671.8  -9999.00000     37.97300     31.49600      0.20800  -9999.00000  -9999.00000      1.58300      3.30200
 672.0  -9999.00000     38.48100     31.75000      0.20900  -9999.00000  -9999.00000      1.68200      2.84500
 672.2  -9999.00000     54.31400     31.49600      0.20900  -9999.00000  -9999.00000      1.70500      2.59100
 672.4  -9999.00000     69.21500     31.49600      0.21000  -9999.00000  -9999.00000      1.74300      2.23500
