~Version information
VERS.              2.00:   CWLS LOG ASCII STANDARD -VERSION 2.00
WRAP.                NO:   one line per depth step
~Well Information Block
#MNEM.UNIT     DATA         DESCRIPTION OF MNEMONIC
#--------  --------------   ------------------------
STRT.M                 1.00:START DEPTH
STOP.M              1051.00:STOP DEPTH
STEP.M                 0.20:STEP VALUE
NULL.           -9999.00000:NULL VALUE
COMP.        YDMYRTGEOLOGIA:COMPANY NAME
WELL.                 13015:WELL NAME
FLD .            VAYATSKAYA:FIELD NAME
CTRY.                RUSSIA:COUNTRY
DATE.              28.09.92:DATE
UWI .                 13015:UNIQUE WELL IDENTIFIER
SRVC.                  ????:???????? ????????? ???????? ???
SRVC_OC.                ???:???????? ????????? ????????-?????????
~Parameter Information Block
#MNEM.UNIT       Value     Description of mnemonic
#---------   -----------   ------------------------------------
EKB .M            182.45:   Elevation Kelly Bushing
TDL.M               1051:   Total Depth
SCD .M       -9999.00000:   Surface Casing Diameter
SCDP.M       -9999.00000:   Surface Casing Depth
CD  .M             0.230:   Casing Diameter
CDP .M               402:   Casing Depth
BS  .M             0.216:   Bit Size
                    CLAY:   Drill Fluid Type
DFD .G/CM3     1.24-1.25:   Drill Fluid Density
DFV .S           30-36.0:   Drill Fluid Viscosity
RMF.OHMM            0.07:   Mud Filtrate Resistivity
MT  .C             18.00:   Meas Temperature
                   DRST3:   Cartridge Gamma
TAU_GR.S            3.00:   GR Time Constant
K_GK         -9999.00000:   ????. ????????
SPEED.M/H    -9999.00000:   Speed M/Hour
                  NGK_60:   Probe NGR
USL_ED.IMP/MIN      6000:   1 ???.??.
OTN_KNL.GR/NGR         9:   ????????? ???????
TAU_NGR.S           3.00:   NGR Time Constant
SPEED.M/H    -9999.00000:   Speed M/Hour
                    AIKM:   Cartridge IK
                     6F1:   Probe IK
                     K_3:   Cartridge BK
             -9999.00000:   Probe BK
                     K_3:   Cartridge GZ3
       Lower  sonde 0.5M:   Probe BKZ
                SPEZSOND:   Cartridge SP
                   SKP-1:   Cartridge DS
                    USBA:   Cartridge DT
             -9999.00000:   Probe DT
~Curve Information Block
#MNEM.UNIT       API CODE     Curve Description
#---------    -------------   --------------------------------
DEPT.M                    :    1    DEPTH M
BK.OHMM                   :    2    LATEROLOG DEEP
PZ.OHMM                   :    3    SONDE BKZ 02.5M
SP.MV                     :    4    SPONTANEOUS POTENTIALS MVOLT
DS.M                      :    5    CALIPER
DT.MCS                    :    6    DELTA TIME INTERVAL TRANSIT TIME MCSEC/M
IK.MSM/M                  :    7    INDUCTION (CONDUCTIVITY) LOG DEEP MSM/M
NGR.UE                    :    8    NEUTRON GAMMA RAY
GR.MCR/H                  :    9    GAMMA RAY MICRO_ROENTGENS PER HOUR
~A DEPTH      BK            PZ         SP            DS           DT          IK           NGR          GR
# ...
 541.2  -9999.00000     31.49600     29.71800      0.20400  -9999.00000  -9999.00000      1.78900      4.47000
 541.4  -9999.00000     25.01900     30.48000      0.20400  -9999.00000  -9999.00000      1.82700      4.42000
 541.6  -9999.00000     21.20900     29.97200      0.20400  -9999.00000  -9999.00000      1.85000      4.26700
 541.8  -9999.00000     18.41500     28.19400      0.20400  -9999.00000  -9999.00000      1.83400      4.06400
 542.0  -9999.00000     17.52600     25.90800      0.20400  -9999.00000  -9999.00000      1.85000      4.26700
 542.2  -9999.00000     20.82800     24.13000      0.20400  -9999.00000  -9999.00000      1.91100      4.06400
 542.4  -9999.00000     24.76500     22.09800      0.20300  -9999.00000  -9999.00000      1.97900      3.81000
 542.6  -9999.00000     30.20800     21.59000      0.20300  -9999.00000  -9999.00000      2.03300      3.86100
 542.8  -9999.00000     35.65100     21.59000      0.20400  -9999.00000  -9999.00000      1.91100      3.96200
 543.0  -9999.00000     41.09400     21.84400      0.20300  -9999.00000  -9999.00000      1.83400      3.65800
 543.2  -9999.00000     43.18000     22.09800      0.20300  -9999.00000  -9999.00000      1.77300      3.35300
 543.4  -9999.00000     46.35500     22.09800      0.20200  -9999.00000  -9999.00000      1.75100      3.40400
 543.6  -9999.00000     48.89500     21.33600      0.20300  -9999.00000  -9999.00000      1.76600      3.50500
 543.8  -9999.00000     47.62500     20.57400      0.20300  -9999.00000  -9999.00000      1.82700      3.50500
 544.0  -9999.00000     45.08500     20.06600      0.20300  -9999.00000  -9999.00000      1.91100      3.35300
 544.2  -9999.00000     43.18000     19.30400      0.20400  -9999.00000  -9999.00000      2.04800      3.25100
 544.4  -9999.00000     44.45000     18.79600      0.20400  -9999.00000  -9999.00000      2.20000      3.15000
 544.6  -9999.00000     46.99000     18.03400      0.20300  -9999.00000  -9999.00000      2.26900      3.15000
 544.8  -9999.00000     51.43500     17.52600      0.20200  -9999.00000  -9999.00000      2.20800      3.15000
 545.0  -9999.00000     52.70500     18.28800      0.20200  -9999.00000  -9999.00000      2.07100      3.04800
 545.2  -9999.00000     53.34000     19.05000      0.20200  -9999.00000  -9999.00000      1.92600      3.04800
 545.4  -9999.00000     51.43500     18.28800      0.20200  -9999.00000  -9999.00000      1.87300      2.94600
 545.6  -9999.00000     49.53000     17.78000      0.20100  -9999.00000  -9999.00000      1.78900      2.89600
 545.8  -9999.00000     46.46400     17.01800      0.20100  -9999.00000  -9999.00000      1.65200      3.04800
 546.0  -9999.00000     42.87200     16.51000      0.20100  -9999.00000  -9999.00000      1.53700      2.94600
 546.2  -9999.00000     39.27900     15.74800      0.20000  -9999.00000  -9999.00000      1.43800      2.89600
 546.4  -9999.00000     35.68700     14.47800      0.20100  -9999.00000  -9999.00000      1.41500      2.54000
 546.6  -9999.00000     32.13100     15.24000      0.20100  -9999.00000  -9999.00000      1.41500      2.48900
 546.8  -9999.00000     32.76600     15.74800      0.20200  -9999.00000  -9999.00000      1.47600      2.59100
 547.0  -9999.00000     34.29000     15.74800      0.20200  -9999.00000  -9999.00000      1.53700      2.74300
 547.2  -9999.00000     36.95700     14.98600      0.20200  -9999.00000  -9999.00000      1.56000      3.04800
 547.4  -9999.00000     38.60800     14.47800      0.20200  -9999.00000  -9999.00000      1.69000      3.04800
 547.6  -9999.00000     39.75100     14.22400      0.20300  -9999.00000  -9999.00000      1.63600      2.79400
 547.8  -9999.00000     38.86200     14.22400      0.20400  -9999.00000  -9999.00000      1.56000      2.74300
 548.0  -9999.00000     38.35400     14.22400      0.20400  -9999.00000  -9999.00000      1.49200      2.64200
 548.2  -9999.00000     37.97300     14.47800      0.20300  -9999.00000  -9999.00000      1.43800      2.43800
 548.4  -9999.00000     37.71900     14.22400      0.20400  -9999.00000  -9999.00000      1.40800      2.59100
 548.6  -9999.00000     36.95700     14.22400      0.20300  -9999.00000  -9999.00000      1.37000      2.64200
 548.8  -9999.00000     35.30600     13.97000      0.20300  -9999.00000  -9999.00000      1.32400      2.94600
 549.0  -9999.00000     32.38500     14.22400      0.20300  -9999.00000  -9999.00000      1.27800      2.94600
 549.2  -9999.00000     30.73400     13.71600      0.20400  -9999.00000  -9999.00000      1.28600      2.64200
 549.4  -9999.00000     29.08300     12.95400      0.20400  -9999.00000  -9999.00000      1.28600      2.54000
 549.6  -9999.00000     28.70200     12.44600      0.20400  -9999.00000  -9999.00000      1.28600      2.43800
 549.8  -9999.00000     29.59100     12.70000      0.20400  -9999.00000  -9999.00000      1.37700      2.28600
 550.0  -9999.00000     30.98800     13.71600      0.20300  -9999.00000  -9999.00000      1.48400      2.28600
 550.2  -9999.00000     32.51200     14.73200      0.20300  -9999.00000  -9999.00000      1.55300      2.74300
 550.4  -9999.00000     34.54400     15.49400      0.20300  -9999.00000  -9999.00000      1.62100      3.20000
 550.6  -9999.00000     35.56000     16.25600      0.20200  -9999.00000  -9999.00000      1.70500      3.20000
 550.8  -9999.00000     36.06800     16.76400      0.20300  -9999.00000  -9999.00000      1.72800      3.15000
 551.0  -9999.00000     36.19500     17.01800      0.20400  -9999.00000  -9999.00000      1.72000      3.30200
 551.2  -9999.00000     36.32200     16.51000      0.20400  -9999.00000  -9999.00000      1.76600      3.60700
 551.4  -9999.00000     37.21100     14.98600      0.20400  -9999.00000  -9999.00000      1.82700      3.50500
 551.6  -9999.00000     38.22700     13.71600      0.20400  -9999.00000  -9999.00000      1.84200      3.35300
 551.8  -9999.00000     39.59200     13.46200      0.20400  -9999.00000  -9999.00000      1.88000      3.25100
 552.0  -9999.00000     41.56100     13.97000      0.20400  -9999.00000  -9999.00000      1.86500      3.15000
 552.2  -9999.00000     40.64000     14.73200      0.20400  -9999.00000  -9999.00000      1.83400      3.09900
 552.4  -9999.00000     39.18000     15.24000      0.20300  -9999.00000  -9999.00000      1.75800      3.09900
 552.6  -9999.00000     34.98900     16.00200      0.20400  -9999.00000  -9999.00000      1.61300      2.99700
 552.8  -9999.00000     30.79800     16.51000      0.20500  -9999.00000  -9999.00000      1.55300      2.99700
 553.0  -9999.00000     26.60700     17.01800      0.20600  -9999.00000  -9999.00000      1.44600      3.20000
 553.2  -9999.00000     22.41500     17.78000      0.20700  -9999.00000  -9999.00000      1.37700      2.99700
 553.4  -9999.00000     18.54200     17.78000      0.20800  -9999.00000  -9999.00000      1.36200      2.59100
 553.6  -9999.00000     15.11300     17.27200      0.21000  -9999.00000  -9999.00000      1.33900      2.38800
 553.8  -9999.00000     14.98600     16.25600      0.21000  -9999.00000  -9999.00000      1.36200      2.54000
 554.0  -9999.00000     16.76400     14.98600      0.20800  -9999.00000  -9999.00000      1.45300      2.69200
 554.2  -9999.00000     19.68500     14.22400      0.20600  -9999.00000  -9999.00000      1.59100      2.64200
 554.4  -9999.00000     23.62200     13.20800      0.20500  -9999.00000  -9999.00000      1.75100      2.48900
 554.6  -9999.00000     29.46400     12.95400      0.20400  -9999.00000  -9999.00000      1.82700      2.23500
 554.8  -9999.00000     32.76600     13.20800      0.20400  -9999.00000  -9999.00000      1.83400      1.98100
 555.0  -9999.00000     35.99200     13.46200      0.20400  -9999.00000  -9999.00000      1.81900      1.93000
 555.2  -9999.00000     37.87100     14.47800      0.20400  -9999.00000  -9999.00000      1.65200      2.28600
 555.4  -9999.00000     39.75100     16.00200      0.20500  -9999.00000  -9999.00000      1.63600      2.54000
 555.6  -9999.00000     41.63100     17.01800      0.20600  -9999.00000  -9999.00000      1.69000      2.54000
