~Version information
VERS.              2.00:   CWLS LOG ASCII STANDARD -VERSION 2.00
WRAP.                NO:   one line per depth step
~Well Information Block
#MNEM.UNIT     DATA         DESCRIPTION OF MNEMONIC
#--------  --------------   ------------------------
STRT.M                 1.00:START DEPTH
STOP.M              1051.00:STOP DEPTH
STEP.M                 0.20:STEP VALUE
NULL.           -9999.00000:NULL VALUE
COMP.        YDMYRTGEOLOGIA:COMPANY NAME
WELL.                 13015:WELL NAME
FLD .            VAYATSKAYA:FIELD NAME
CTRY.                RUSSIA:COUNTRY
DATE.              28.09.92:DATE
UWI .                 13015:UNIQUE WELL IDENTIFIER
SRVC.                  ????:???????? ????????? ???????? ???
SRVC_OC.                ???:???????? ????????? ????????-?????????
~Parameter Information Block
#MNEM.UNIT       Value     Description of mnemonic
#---------   -----------   ------------------------------------
EKB .M            182.45:   Elevation Kelly Bushing
TDL.M               1051:   Total Depth
SCD .M       -9999.00000:   Surface Casing Diameter
SCDP.M       -9999.00000:   Surface Casing Depth
CD  .M             0.230:   Casing Diameter
CDP .M               402:   Casing Depth
BS  .M             0.216:   Bit Size
                    CLAY:   Drill Fluid Type
DFD .G/CM3     1.24-1.25:   Drill Fluid Density
DFV .S           30-36.0:   Drill Fluid Viscosity
RMF.OHMM            0.07:   Mud Filtrate Resistivity
MT  .C             18.00:   Meas Temperature
                   DRST3:   Cartridge Gamma
TAU_GR.S            3.00:   GR Time Constant
K_GK         -9999.00000:   ????. ????????
SPEED.M/H    -9999.00000:   Speed M/Hour
                  NGK_60:   Probe NGR
USL_ED.IMP/MIN      6000:   1 ???.??.
OTN_KNL.GR/NGR         9:   ????????? ???????
TAU_NGR.S           3.00:   NGR Time Constant
SPEED.M/H    -9999.00000:   Speed M/Hour
                    AIKM:   Cartridge IK
                     6F1:   Probe IK
                     K_3:   Cartridge BK
             -9999.00000:   Probe BK
                     K_3:   Cartridge GZ3
       Lower  sonde 0.5M:   Probe BKZ
                SPEZSOND:   Cartridge SP
                   SKP-1:   Cartridge DS
                    USBA:   Cartridge DT
             -9999.00000:   Probe DT
~Curve Information Block
#MNEM.UNIT       API CODE     Curve Description
#---------    -------------   --------------------------------
DEPT.M                    :    1    DEPTH M
BK.OHMM                   :    2    LATEROLOG DEEP
PZ.OHMM                   :    3    SONDE BKZ 02.5M
SP.MV                     :    4    SPONTANEOUS POTENTIALS MVOLT
DS.M                      :    5    CALIPER
DT.MCS                    :    6    DELTA TIME INTERVAL TRANSIT TIME MCSEC/M
IK.MSM/M                  :    7    INDUCTION (CONDUCTIVITY) LOG DEEP MSM/M
NGR.UE                    :    8    NEUTRON GAMMA RAY
GR.MCR/H                  :    9    GAMMA RAY MICRO_ROENTGENS PER HOUR
~A DEPTH      BK            PZ         SP            DS           DT          IK           NGR          GR
# ...
1037.6      3.62400      5.20700     62.99200      0.21400    265.34399    159.51199      1.53700      9.90600
1037.8      6.79600      4.95300     62.23000      0.21400    266.86801    160.02000      1.56800      9.80400
1038.0      4.13400      4.95300     60.19800      0.21300    268.89999    163.06799      1.50700     10.00800
1038.2      4.44700      5.20700     58.67400      0.21300    267.37601    163.06799      1.49900     10.46500
1038.4     10.38500      5.33400     58.16600      0.21600    264.83600    156.46400      1.50700     10.51600
1038.6      6.60000      5.46100     58.67400      0.21400    264.32800    147.82800      1.53000     10.41400
1038.8      4.64700      5.33400     54.35600      0.21100    264.32800    143.25600      1.53000     10.21100
1039.0      4.44700      4.95300     51.05400      0.21200    270.93201    145.79601      1.45300     11.73500
1039.2      3.17700      4.69900     52.07000      0.21600    282.10800    148.33600      1.37700     12.44600
1039.4      3.27200      4.19100     53.34000      0.22100    290.74399    148.84399      1.30100     12.64900
1039.6      3.36900      4.06400     54.61000      0.22400    296.84000    147.32001      1.24800     13.10600
1039.8      3.13100      4.06400     55.88000      0.22500    299.38000    145.28799      1.30100     12.95400
1040.0      3.27200      3.81000     57.40400      0.22500    297.34799    141.73199      1.38500     12.34400
1040.2      3.52000      3.93700     58.67400      0.22600    293.79199    136.65199      1.41500     11.83600
1040.4      3.78700      4.31800     60.19800      0.22600    285.15601    130.55600      1.51400     11.17600
1040.6      4.71500      5.33400     61.46800      0.22700    266.35999    119.88800      1.65200     10.46500
1040.8      6.69700      7.23900     61.97600      0.22700    245.53200    103.12400      1.85000      9.14400
1041.0      9.51300      9.27100     61.97600      0.21900    221.65601     87.37600      2.10900      7.06100
1041.2     13.31600     12.57300     60.70600      0.21200    201.84399     81.28000      2.30700      4.21600
1041.4     17.83900     15.87500     56.13400      0.21100    192.70000     87.37600      2.44400      3.86100
1041.6     14.75100     19.17700     52.07000      0.21000    192.70000     99.06000      2.37500      3.45400
1041.8     22.21400     21.33600     48.51400      0.20900    196.76401    112.26800      2.18500      3.25100
1042.0     15.18900     21.84400     45.72000      0.20700    202.35201    127.00000      2.02500      3.04800
1042.2      9.65300     20.32000     43.18000      0.20700    208.44800    141.73199      1.97200      2.99700
1042.4     12.55900     17.01800     40.64000      0.20600    214.03600    155.95599      1.87300      2.74300
1042.6     18.36800     15.49400  -9999.00000      0.20400    218.10001    164.08400      1.78900      2.43800
1042.8     16.10300     14.73200  -9999.00000      0.20300    219.62399    169.67200      1.70500      2.43800
1043.0     14.75100  -9999.00000  -9999.00000      0.20100    219.62399    172.21201      1.65900      2.18400
1043.2     18.10200  -9999.00000  -9999.00000      0.20000    217.59200    170.68800      1.70500      2.13400
1043.4     19.76100  -9999.00000  -9999.00000      0.20100    216.06799    165.60800      1.81200      2.23500
1043.6     22.54100  -9999.00000  -9999.00000      0.20200    216.57600    160.52800      1.81900      2.38800
1043.8     20.05200  -9999.00000  -9999.00000      0.20200    216.57600    156.46400      1.69000      2.54000
1044.0     20.95200  -9999.00000  -9999.00000      0.20300    214.54401    152.90800      1.69000      2.74300
1044.2     22.87300  -9999.00000  -9999.00000      0.20300    214.54401    148.33600      1.73500      3.30200
1044.4     20.64700  -9999.00000  -9999.00000      0.20400    214.03600    140.71600      1.72800      3.96200
1044.6      8.34000  -9999.00000  -9999.00000      0.20600    217.59200    134.62000      1.60600      4.67400
1044.8      6.79600  -9999.00000  -9999.00000      0.20900    225.21201    137.16000      1.53700      5.38500
1045.0      3.89900  -9999.00000  -9999.00000      0.21200    233.34000    153.92400      1.54500      5.43600
1045.2      2.82700  -9999.00000  -9999.00000      0.21300    240.45200    179.32401      1.45300      5.43600
1045.4      2.14100  -9999.00000  -9999.00000      0.21300    245.53200    196.90100      1.42300      5.43600
1045.6      2.01900  -9999.00000  -9999.00000      0.21200    249.08800    217.83000      1.36200      5.23200
1045.8      1.93300  -9999.00000  -9999.00000      0.21200    249.59599    238.75999      1.32400      4.97800
1046.0      1.87700  -9999.00000  -9999.00000      0.21300    250.10400    246.38000      1.34700      4.97800
1046.2      1.90500  -9999.00000  -9999.00000      0.21300    252.13600    246.38000      1.36200      5.69000
1046.4      1.99000  -9999.00000  -9999.00000      0.21400    251.62801    231.14000      1.35400      6.24800
1046.6      2.55200  -9999.00000  -9999.00000      0.21400    249.59599    199.51700      1.37000      6.85800
1046.8      2.95300  -9999.00000  -9999.00000      0.21500    242.99200    166.75101      1.42300      7.46800
1047.0      3.41800  -9999.00000  -9999.00000      0.21500    234.86400    142.24001      1.51400      8.12800
1047.2      5.07300  -9999.00000  -9999.00000      0.21500    228.76801    113.79200      1.62900      8.53400
1047.4      8.10000  -9999.00000  -9999.00000      0.21400    231.30800     99.06000      1.75100      8.78800
1047.6     12.19700  -9999.00000  -9999.00000      0.21300    239.94400     97.02800      1.77300      8.83900
1047.8      5.14800  -9999.00000  -9999.00000      0.21600    250.10400    110.23600      1.65900      8.68700
1048.0      4.38300  -9999.00000  -9999.00000      0.22200    255.69200    123.95200      1.43800      8.23000
1048.2      4.31900  -9999.00000  -9999.00000      0.22400  -9999.00000  -9999.00000      1.38500      8.38200
1048.4      3.89900  -9999.00000  -9999.00000      0.22300  -9999.00000  -9999.00000      1.45300      8.28000
1048.6      4.51300  -9999.00000  -9999.00000      0.22300  -9999.00000  -9999.00000      1.57500  -9999.00000
1048.8      5.70200  -9999.00000  -9999.00000      0.22200  -9999.00000  -9999.00000      1.65900  -9999.00000
1049.0      7.10100  -9999.00000  -9999.00000      0.22100  -9999.00000  -9999.00000      1.78600  -9999.00000
1049.2  -9999.00000  -9999.00000  -9999.00000  -9999.00000  -9999.00000  -9999.00000      1.91800  -9999.00000
1049.4  -9999.00000  -9999.00000  -9999.00000  -9999.00000  -9999.00000  -9999.00000      1.98700  -9999.00000
1049.6  -9999.00000  -9999.00000  -9999.00000  -9999.00000  -9999.00000  -9999.00000      1.97200  -9999.00000
1049.8  -9999.00000  -9999.00000  -9999.00000  -9999.00000  -9999.00000  -9999.00000      1.97200  -9999.00000
1050.0  -9999.00000  -9999.00000  -9999.00000  -9999.00000  -9999.00000  -9999.00000      1.91100  -9999.00000
1050.2  -9999.00000  -9999.00000  -9999.00000  -9999.00000  -9999.00000  -9999.00000      1.91800  -9999.00000
1050.4  -9999.00000  -9999.00000  -9999.00000  -9999.00000  -9999.00000  -9999.00000      1.86500  -9999.00000
1050.6  -9999.00000  -9999.00000  -9999.00000  -9999.00000  -9999.00000  -9999.00000      1.88800  -9999.00000
1050.8  -9999.00000  -9999.00000  -9999.00000  -9999.00000  -9999.00000  -9999.00000      1.97200  -9999.00000
1051.0  -9999.00000  -9999.00000  -9999.00000  -9999.00000  -9999.00000  -9999.00000      1.97900  -9999.00000
.LAS
