~Version information
VERS.              2.00:   CWLS LOG ASCII STANDARD -VERSION 2.00
WRAP.                NO:   one line per depth step
~Well Information Block
#MNEM.UNIT     DATA         DESCRIPTION OF MNEMONIC
#--------  --------------   ------------------------
STRT.M                 1.00:START DEPTH
STOP.M              1051.00:STOP DEPTH
STEP.M                 0.20:STEP VALUE
NULL.           -9999.00000:NULL VALUE
COMP.        YDMYRTGEOLOGIA:COMPANY NAME
WELL.                 13015:WELL NAME
FLD .            VAYATSKAYA:FIELD NAME
CTRY.                RUSSIA:COUNTRY
DATE.              28.09.92:DATE
UWI .                 13015:UNIQUE WELL IDENTIFIER
SRVC.                  ????:???????? ????????? ???????? ???
SRVC_OC.                ???:???????? ????????? ????????-?????????
~Parameter Information Block
#MNEM.UNIT       Value     Description of mnemonic
#---------   -----------   ------------------------------------
EKB .M            182.45:   Elevation Kelly Bushing
TDL.M               1051:   Total Depth
SCD .M       -9999.00000:   Surface Casing Diameter
SCDP.M       -9999.00000:   Surface Casing Depth
CD  .M             0.230:   Casing Diameter
CDP .M               402:   Casing Depth
BS  .M             0.216:   Bit Size
                    CLAY:   Drill Fluid Type
DFD .G/CM3     1.24-1.25:   Drill Fluid Density
DFV .S           30-36.0:   Drill Fluid Viscosity
RMF.OHMM            0.07:   Mud Filtrate Resistivity
MT  .C             18.00:   Meas Temperature
                   DRST3:   Cartridge Gamma
TAU_GR.S            3.00:   GR Time Constant
K_GK         -9999.00000:   ????. ????????
SPEED.M/H    -9999.00000:   Speed M/Hour
                  NGK_60:   Probe NGR
USL_ED.IMP/MIN      6000:   1 ???.??.
OTN_KNL.GR/NGR         9:   ????????? ???????
TAU_NGR.S           3.00:   NGR Time Constant
SPEED.M/H    -9999.00000:   Speed M/Hour
                    AIKM:   Cartridge IK
                     6F1:   Probe IK
                     K_3:   Cartridge BK
             -9999.00000:   Probe BK
                     K_3:   Cartridge GZ3
       Lower  sonde 0.5M:   Probe BKZ
                SPEZSOND:   Cartridge SP
                   SKP-1:   Cartridge DS
                    USBA:   Cartridge DT
             -9999.00000:   Probe DT
~Curve Information Block
#MNEM.UNIT       API CODE     Curve Description
#---------    -------------   --------------------------------
DEPT.M                    :    1    DEPTH M
BK.OHMM                   :    2    LATEROLOG DEEP
PZ.OHMM                   :    3    SONDE BKZ 02.5M
SP.MV                     :    4    SPONTANEOUS POTENTIALS MVOLT
DS.M                      :    5    CALIPER
DT.MCS                    :    6    DELTA TIME INTERVAL TRANSIT TIME MCSEC/M
IK.MSM/M                  :    7    INDUCTION (CONDUCTIVITY) LOG DEEP MSM/M
NGR.UE                    :    8    NEUTRON GAMMA RAY
GR.MCR/H                  :    9    GAMMA RAY MICRO_ROENTGENS PER HOUR
~A DEPTH      BK            PZ         SP            DS           DT          IK           NGR          GR
# ...
 950.0      9.23900     18.92300     40.64000      0.21400    193.20799     54.35600      2.29200      1.57500
 950.2      9.10500     18.28800     41.65600      0.21300    192.70000     56.89600      2.26100      1.72700
 950.4     10.69300     17.52600     46.73600      0.21300    190.66800     55.88000      2.26100      1.88000
 950.6     16.82500     17.01800     51.81600      0.21300    188.63600     53.34000      2.29200      2.13400
 950.8     11.84600     16.89100     56.38800      0.21300    186.09599     54.86400      2.31500      2.03200
 951.0      9.65300     17.39900     56.64200      0.21300    184.06400     62.48400      2.33000      1.72700
 951.2     14.11800     18.54200     54.86400      0.21300    182.53999     69.08800      2.39800      1.37200
 951.4     24.25000     19.93900     52.32400      0.21300    182.03200     75.18400      2.56600      1.21900
 951.6     24.97000     21.46300     49.78400      0.21300    182.03200     80.77200      2.64200      1.27000
 951.8     20.05200     22.98700     47.75200      0.21300    183.04800     88.90000      2.58100      1.52400
 952.0     11.33700     23.62200     45.21200      0.21300    183.55600    101.60000      2.45900      1.77800
 952.2      8.58700     22.35200     42.67200      0.21100    183.04800    114.30000      2.24600      2.03200
 952.4     13.12200     20.70100     40.38600      0.21100    183.04800    131.06400      2.03300      1.93000
 952.6     18.10200     18.16100     37.08400      0.21000    183.04800    149.35201      1.83400      1.77800
 952.8     15.63900     17.52600     34.03600      0.21000    183.04800    165.10001      1.65900      1.67600
 953.0     12.19700     17.52600     30.73400      0.21000    184.57201    176.27600      1.53000      1.57500
 953.2     10.69300     17.52600     27.68600      0.21000    184.57201    171.70399      1.52200      1.67600
 953.4     10.38500     17.52600     24.63800      0.21000    184.57201    161.03600      1.59800      1.82900
 953.6      7.10100     16.89100     25.40000      0.21000    184.57201    150.36800      1.61300      1.98100
 953.8      3.84200     14.60500     25.40000      0.21000    184.06400    148.33600      1.53000      2.23500
 954.0      3.27200     12.19200     26.41600      0.21000    183.04800    146.30400      1.50700      2.28600
 954.2      4.51300      9.77900     26.92400      0.21100    181.52400    132.58800      1.56000      2.28600
 954.4      5.53800      7.36600     27.17800      0.21000    179.49200    113.79200      1.62100      2.38800
 954.6      5.62000      5.33400     27.94000      0.21000    179.49200     96.01200      1.63600      2.33700
 954.8      5.70200      5.84200     27.94000      0.21000    180.00000     91.44000      1.59100      2.23500
 955.0      5.07300      6.35000     27.43200      0.21000    182.03200     97.02800      1.64400      2.13400
 955.2      4.92700      6.47700     26.67000      0.21000    184.57201    107.18800      1.64400      2.13400
 955.4      4.51300      6.60400     27.43200      0.21000    186.60400    113.79200      1.65900      2.13400
 955.6      6.89600      6.73100     28.95600      0.21000    189.65199    114.30000      1.70500      1.98100
 955.8      7.63900      7.23900     32.76600      0.21000    191.68401    104.14000      1.86500      1.77800
 956.0     11.33700      9.39800     36.57600      0.21100    192.70000     86.36000      2.01000      1.72700
 956.2     22.87300     12.31900     39.62400      0.21300    190.66800     60.96000      2.23100      1.62600
 956.4     45.47500     19.05000     40.64000      0.21300    187.11200     43.18000      2.45200      1.47300
 956.6     93.09400     25.90800     41.91000      0.21300    183.55600     37.08400      2.67300      1.42200
 956.8     86.53100     32.51200     42.41800      0.21400    180.00000     38.60800      2.87100      1.57500
 957.0     37.60300     38.86200     44.19600      0.21400    180.00000     46.73600      2.68000      1.93000
 957.2     17.83900     36.83000     46.73600      0.21400    182.53999     59.43600      2.63500      2.23500
 957.4      9.65300     30.73400     50.29200      0.21400    186.60400     72.13600      2.38300      2.48900
 957.6     10.69300     24.63800     54.10200      0.21300    189.65199     82.29600      2.22300      2.48900
 957.8     11.84600     20.19300     55.62600      0.21300    192.19200     86.36000      2.19300      2.48900
 958.0     11.67400     17.39900     53.84800      0.21300    192.19200     86.86800      2.24600      2.59100
 958.2     12.37700     14.35100     49.02200      0.21100    194.22400     91.44000      2.19300      2.48900
 958.4     11.67400     12.44600     41.91000      0.21100    195.24001    100.07600      2.07100      2.13400
 958.6      8.58700     10.92200     36.06800      0.21100    197.78000    114.80800      1.94900      2.03200
 958.8      6.22500      8.76300     34.29000      0.21200    200.32001    138.17599      1.70500      2.23500
 959.0      4.51300      6.98500     31.49600      0.21200    200.82800    165.10001      1.49200      2.38800
 959.2      3.27200      5.71500     28.44800      0.21200    199.30400    184.91200      1.39200      2.18400
 959.4      2.51500      4.95300     25.65400      0.21300    195.74800    186.43600      1.37000      1.77800
 959.6      3.78700      4.57200     24.13000      0.21400    192.19200    165.10001      1.42300      1.62600
 959.8      4.13400      4.44500     23.36800      0.21200    189.14400    142.24001      1.48400      1.67600
 960.0      4.13400      4.19100     22.60600      0.20900    186.09599    132.58800      1.59100      1.67600
 960.2      5.70200      5.08000     21.84400      0.21200    183.55600    128.52400      1.72800      1.67600
 960.4      8.58700      5.96900     21.59000      0.21300    180.50800    109.72800      1.80400      1.62600
 960.6     13.12200      8.25500     22.60600      0.21200    176.95200     84.83600      1.91800      1.37200
 960.8     20.34800     11.17600     23.87600      0.21200    175.93600     55.37200      2.09400      1.27000
 961.0     25.71100     14.35100     24.89200      0.21300    178.47600     42.67200      2.23800      1.32100
 961.2     18.91300     17.90700     29.21000      0.21300    182.03200     39.11600      2.32200      1.37200
 961.4     12.93200     20.32000     33.02000      0.21300    185.08000     43.18000      2.34500      1.37200
 961.6     16.10300     21.33600     30.98800      0.21300    186.60400     48.26000      2.20000      1.32100
 961.8     13.51200     20.70100     29.21000      0.21300    186.60400     55.88000      2.07100      1.42200
 962.0      8.97200     19.68500     27.68600      0.21300    186.60400     65.02400      1.97200      1.57500
 962.2     11.84600     18.28800     26.16200      0.21300    185.58800     77.72400      1.80400      1.67600
 962.4      7.41900     17.27200     27.17800      0.21200    184.06400     89.40800      1.76600      1.77800
 962.6     13.51200     16.38300     28.95600      0.21200    183.04800     96.52000      1.91800      1.77800
 962.8     27.66100     16.51000     30.22600      0.21300    180.50800     98.55200      2.02500      1.93000
 963.0     37.60300     17.39900     29.97200      0.21300    179.49200     97.53600      2.35300      1.57500
 963.2     32.96600     19.68500     29.21000      0.21300    180.00000     98.04400      2.52000      1.47300
 963.4     16.34100     21.59000     28.44800      0.21300    182.03200    104.64800      2.23800      1.62600
 963.6     10.38500     18.54200     26.92400      0.21300    185.58800    120.90400      2.01400      1.88000
 963.8      7.20500     14.22400     26.16200      0.21200    188.63600    149.86000      1.78900      1.88000
 964.0      6.60000     10.79500     24.89200      0.21200    192.19200    176.78400      1.56400      1.62600
 964.2      5.87200      8.38200     23.11400      0.21200    196.76401    209.63499      1.33900      1.62600
 964.4      4.44700      6.60400     24.38400      0.21300    199.30400    236.22000      1.33900      1.67600
