~Version information
VERS.              2.00:   CWLS LOG ASCII STANDARD -VERSION 2.00
WRAP.                NO:   one line per depth step
~Well Information Block
#MNEM.UNIT     DATA         DESCRIPTION OF MNEMONIC
#--------  --------------   ------------------------
STRT.M                 1.00:START DEPTH
STOP.M              1051.00:STOP DEPTH
STEP.M                 0.20:STEP VALUE
NULL.           -9999.00000:NULL VALUE
COMP.        YDMYRTGEOLOGIA:COMPANY NAME
WELL.                 13015:WELL NAME
FLD .            VAYATSKAYA:FIELD NAME
CTRY.                RUSSIA:COUNTRY
DATE.              28.09.92:DATE
UWI .                 13015:UNIQUE WELL IDENTIFIER
SRVC.                  ????:???????? ????????? ???????? ???
SRVC_OC.                ???:???????? ????????? ????????-?????????
~Parameter Information Block
#MNEM.UNIT       Value     Description of mnemonic
#---------   -----------   ------------------------------------
EKB .M            182.45:   Elevation Kelly Bushing
TDL.M               1051:   Total Depth
SCD .M       -9999.00000:   Surface Casing Diameter
SCDP.M       -9999.00000:   Surface Casing Depth
CD  .M             0.230:   Casing Diameter
CDP .M               402:   Casing Depth
BS  .M             0.216:   Bit Size
                    CLAY:   Drill Fluid Type
DFD .G/CM3     1.24-1.25:   Drill Fluid Density
DFV .S           30-36.0:   Drill Fluid Viscosity
RMF.OHMM            0.07:   Mud Filtrate Resistivity
MT  .C             18.00:   Meas Temperature
                   DRST3:   Cartridge Gamma
TAU_GR.S            3.00:   GR Time Constant
K_GK         -9999.00000:   ????. ????????
SPEED.M/H    -9999.00000:   Speed M/Hour
                  NGK_60:   Probe NGR
USL_ED.IMP/MIN      6000:   1 ???.??.
OTN_KNL.GR/NGR         9:   ????????? ???????
TAU_NGR.S           3.00:   NGR Time Constant
SPEED.M/H    -9999.00000:   Speed M/Hour
                    AIKM:   Cartridge IK
                     6F1:   Probe IK
                     K_3:   Cartridge BK
             -9999.00000:   Probe BK
                     K_3:   Cartridge GZ3
       Lower  sonde 0.5M:   Probe BKZ
                SPEZSOND:   Cartridge SP
                   SKP-1:   Cartridge DS
                    USBA:   Cartridge DT
             -9999.00000:   Probe DT
~Curve Information Block
#MNEM.UNIT       API CODE     Curve Description
#---------    -------------   --------------------------------
DEPT.M                    :    1    DEPTH M
BK.OHMM                   :    2    LATEROLOG DEEP
PZ.OHMM                   :    3    SONDE BKZ 02.5M
SP.MV                     :    4    SPONTANEOUS POTENTIALS MVOLT
DS.M                      :    5    CALIPER
DT.MCS                    :    6    DELTA TIME INTERVAL TRANSIT TIME MCSEC/M
IK.MSM/M                  :    7    INDUCTION (CONDUCTIVITY) LOG DEEP MSM/M
NGR.UE                    :    8    NEUTRON GAMMA RAY
GR.MCR/H                  :    9    GAMMA RAY MICRO_ROENTGENS PER HOUR
~A DEPTH      BK            PZ         SP            DS           DT          IK           NGR          GR
# ...
 993.8      6.41000      6.35000     57.40400      0.21500    204.89200     79.24800      1.83400      1.88000
 994.0      6.99800      7.36600     55.62600      0.21400    200.82800     73.66000      1.85000      1.98100
 994.2      8.34000      9.01700     54.35600      0.21300    196.76401     66.54800      1.96400      2.18400
 994.4     10.23400     10.54100     52.57800      0.21400    193.71600     56.89600      2.04800      2.43800
 994.6     12.02000     11.93800     51.81600      0.21500    193.71600     49.27600      2.12400      2.59100
 994.8     12.19700     13.58900     51.81600      0.21400    196.25600     46.22800      2.13900      2.59100
 995.0     12.93200     15.11300     51.56200      0.21400    202.35201     45.72000      2.13200      2.69200
 995.2     16.10300     16.25600     60.96000      0.21400    207.94000     46.22800      2.28400      3.04800
 995.4     11.33700     17.52600     69.34200      0.21400    209.97200     46.73600      2.25400      3.55600
 995.6     17.58000     19.30400     77.97800      0.21400    208.95599     47.24400      2.34500      4.06400
 995.8     25.33800     21.46300     80.51800      0.21300    205.39999     45.72000      2.51300      4.31800
 996.0     31.09300     25.27300     79.50200      0.21200    201.33600     42.67200      2.77900      4.26700
 996.2     30.19700     28.82900     77.47000      0.21100    199.81200     41.65600      2.88600      4.31800
 996.4     35.46700     31.11500     75.43800      0.21100    208.44800     43.18000      2.77900      5.08000
 996.6     28.48200     28.82900     74.42200      0.21200    219.62399     48.76800      2.55100      5.99400
 996.8     16.34100     23.74900     73.91400      0.21200    229.27600     60.96000      2.11600      7.56900
 997.0      9.23900     18.16100     72.39000      0.21300    236.38800     77.72400      1.72800      9.29600
 997.2      5.07300     16.12900     69.59600      0.21600    234.35600     93.98000      1.54500     10.00800
 997.4      8.84200     15.49400     67.56400      0.22300    223.17999     90.42400      1.60600      8.07700
 997.6     15.87000     15.36700     66.54800      0.22000    209.46400     72.13600      1.91800      6.04500
 997.8     20.64700     16.12900     65.53200      0.21500    196.76401     53.34000      2.16200      4.62300
 998.0     21.89100     18.41500     64.77000      0.21300    192.19200     40.13200      2.35300      3.70800
 998.2     44.81500     20.95500     65.02400      0.21300    195.74800     39.62400      2.45900      3.50500
 998.4     16.34100     23.36800     64.26200      0.21400    199.81200     47.75200      2.31500      3.91200
 998.6     11.50400     23.87600     62.48400      0.21500    201.84399     56.38800      2.03300      4.16600
 998.8     15.63900     24.13000     60.19800      0.21500    201.84399     64.00800      2.13200      3.55600
 999.0     21.26000     24.25700     58.67400      0.21400    198.28799     64.00800      2.38300      2.69200
 999.2     30.64200     25.65400     58.67400      0.21200    194.73199     65.53200      2.62700      2.69200
 999.4     28.06800     26.79700     59.18200      0.21200    196.25600     71.62800      2.65700      3.04800
 999.6     22.21400     27.55900     59.69000      0.21100    204.38400     79.24800      2.51300      3.70800
 999.8     13.12200     21.97100     61.97600      0.21200    215.56000     89.40800      2.26900      4.77500
1000.0      7.63900     18.03400     64.26200      0.21500    222.67200    101.60000      1.91100      6.09600
1000.2      4.44700     12.82700     64.51600      0.21700    228.76801    113.79200      1.73500      7.77200
1000.4      3.67800      8.76300     60.45200      0.21600    230.29201    128.52400      1.62100      7.36600
1000.6      3.41800      6.98500     55.88000      0.21500    228.76801    145.28799      1.56800      5.99400
1000.8      3.08600      5.71500     50.54600      0.21500    226.73599    165.60800      1.60600      6.04500
1001.0      2.66600      5.08000     48.51400      0.21600    224.70399    180.84801      1.53000      4.87700
1001.2      2.82700      4.95300     46.73600      0.21400    218.10001    179.83200      1.56000      4.06400
1001.4      5.07300      5.33400     41.91000      0.21300    211.49600    165.10001      1.62100      3.55600
1001.6     15.41200      6.22300     37.59200      0.20900    205.90800    140.20799      1.71300      2.99700
1001.8     32.48800     10.54100     32.76600      0.20700    202.86000    124.96800      1.75800      2.54000
1002.0     33.94400     20.44700     27.94000      0.20400    202.86000    122.42800      1.84200      2.43800
1002.2     31.09300     24.89200     24.89200      0.20300    202.86000    127.00000      1.78900      2.38800
1002.4     26.47400     27.64000     23.11400      0.20200    201.84399    130.55600      1.75800      2.23500
1002.6     26.47400     30.38800     22.60600      0.20200    200.32001    132.08000      1.74300      2.23500
1002.8     26.47400     33.13500     22.60600      0.20200    199.30400    131.06400      1.75800      2.18400
1003.0     25.71100     35.88300     22.35200      0.20200    198.28799    130.04800      1.78100      2.03200
1003.2     26.47400     38.63100     22.09800      0.20200    198.79601    130.04800      1.72800      1.93000
1003.4     24.60800     40.64000     22.35200      0.20100    199.81200    130.04800      1.69000      2.03200
1003.6     26.47400     41.27500     23.36800      0.20100    199.81200    130.04800      1.65900      2.03200
1003.8     28.48200     41.27500     24.38400      0.20200    200.82800    129.53999      1.61300      1.98100
1004.0     30.19700     40.64000     26.16200      0.20100    198.79601    128.52400      1.58300      1.88000
1004.2     22.87300     35.97300     27.94000      0.20100    199.81200    130.04800      1.55300      2.03200
1004.4     10.38500     31.30600     29.21000      0.20400    199.81200    134.11200      1.55300      2.28600
1004.6      8.46300     26.63800     28.44800      0.20700    202.35201    140.71600      1.56800      2.43800
1004.8     16.82500     21.97100     25.90800      0.20900    208.44800    149.35201      1.56000      2.28600
1005.0     21.89100     20.70100     23.11400      0.20700    215.56000    162.05200      1.43800      2.18400
1005.2     14.96800     21.84400     20.06600      0.20500    220.13200    176.27600      1.30100      2.18400
1005.4     10.53800     21.59000     19.05000      0.20300    219.11600    181.86400      1.21700      2.23500
1005.6      8.58700     19.93900     18.79600      0.20200    213.52800    175.25999      1.21700      2.38800
1005.8     12.93200     19.17700     19.55800      0.20200    205.90800    157.48000      1.30900      2.48900
1006.0     17.58000     20.19300     21.08200      0.20300    197.78000    138.68401      1.41500      2.54000
1006.2     26.09000     22.98700     24.38400      0.20400    193.20799    127.50800      1.53700      2.54000
1006.4     28.06800     26.03500     28.19400      0.20400    192.19200    125.47600      1.68200      2.79400
1006.6     16.82500     25.14600     32.25800      0.20500    192.70000    129.53999      1.74300      3.25100
1006.8     11.01100     21.59000     36.06800      0.20700    194.73199    130.55600      1.81900      3.75900
1007.0      9.23900     17.65300     40.38600      0.20900    197.78000    123.95200      1.88800      4.21600
1007.2      7.31200     12.95400     44.19600      0.21100    201.33600    115.31600      1.86500      5.13100
1007.4      6.41000     10.28700     48.00600      0.21000    206.41600    110.74400      1.82700      6.04500
1007.6      5.87200      8.50900     52.07000      0.21100    213.52800    111.25200      1.74300      5.99400
1007.8      5.70200      7.36600     56.13400      0.21100    220.13200    118.36400      1.63600      5.74000
1008.0      4.92700      6.09600     55.62600      0.21100    227.24400    131.06400      1.63600      6.19800
1008.2      3.78700      5.20700     53.08600      0.21100    231.81599    156.46400      1.59100      5.38500
