~Version information
VERS.              2.00:   CWLS LOG ASCII STANDARD -VERSION 2.00
WRAP.                NO:   one line per depth step
~Well Information Block
#MNEM.UNIT     DATA         DESCRIPTION OF MNEMONIC
#--------  --------------   ------------------------
STRT.M                 1.00:START DEPTH
STOP.M              1051.00:STOP DEPTH
STEP.M                 0.20:STEP VALUE
NULL.           -9999.00000:NULL VALUE
COMP.        YDMYRTGEOLOGIA:COMPANY NAME
WELL.                 13015:WELL NAME
FLD .            VAYATSKAYA:FIELD NAME
CTRY.                RUSSIA:COUNTRY
DATE.              28.09.92:DATE
UWI .                 13015:UNIQUE WELL IDENTIFIER
SRVC.                  ????:???????? ????????? ???????? ???
SRVC_OC.                ???:???????? ????????? ????????-?????????
~Parameter Information Block
#MNEM.UNIT       Value     Description of mnemonic
#---------   -----------   ------------------------------------
EKB .M            182.45:   Elevation Kelly Bushing
TDL.M               1051:   Total Depth
SCD .M       -9999.00000:   Surface Casing Diameter
SCDP.M       -9999.00000:   Surface Casing Depth
CD  .M             0.230:   Casing Diameter
CDP .M               402:   Casing Depth
BS  .M             0.216:   Bit Size
                    CLAY:   Drill Fluid Type
DFD .G/CM3     1.24-1.25:   Drill Fluid Density
DFV .S           30-36.0:   Drill Fluid Viscosity
RMF.OHMM            0.07:   Mud Filtrate Resistivity
MT  .C             18.00:   Meas Temperature
                   DRST3:   Cartridge Gamma
TAU_GR.S            3.00:   GR Time Constant
K_GK         -9999.00000:   ????. ????????
SPEED.M/H    -9999.00000:   Speed M/Hour
                  NGK_60:   Probe NGR
USL_ED.IMP/MIN      6000:   1 ???.??.
OTN_KNL.GR/NGR         9:   ????????? ???????
TAU_NGR.S           3.00:   NGR Time Constant
SPEED.M/H    -9999.00000:   Speed M/Hour
                    AIKM:   Cartridge IK
                     6F1:   Probe IK
                     K_3:   Cartridge BK
             -9999.00000:   Probe BK
                     K_3:   Cartridge GZ3
       Lower  sonde 0.5M:   Probe BKZ
                SPEZSOND:   Cartridge SP
                   SKP-1:   Cartridge DS
                    USBA:   Cartridge DT
             -9999.00000:   Probe DT
~Curve Information Block
#MNEM.UNIT       API CODE     Curve Description
#---------    -------------   --------------------------------
DEPT.M                    :    1    DEPTH M
BK.OHMM                   :    2    LATEROLOG DEEP
PZ.OHMM                   :    3    SONDE BKZ 02.5M
SP.MV                     :    4    SPONTANEOUS POTENTIALS MVOLT
DS.M                      :    5    CALIPER
DT.MCS                    :    6    DELTA TIME INTERVAL TRANSIT TIME MCSEC/M
IK.MSM/M                  :    7    INDUCTION (CONDUCTIVITY) LOG DEEP MSM/M
NGR.UE                    :    8    NEUTRON GAMMA RAY
GR.MCR/H                  :    9    GAMMA RAY MICRO_ROENTGENS PER HOUR
~A DEPTH      BK            PZ         SP            DS           DT          IK           NGR          GR
# ...
 877.0     15.63900     13.97000     37.84600      0.21300  -9999.00000  -9999.00000      1.77300      3.35300
 877.2     14.96800     13.97000     41.40200      0.21200  -9999.00000  -9999.00000      1.84200      3.60700
 877.4     13.31600     13.97000     42.41800      0.21200  -9999.00000  -9999.00000      1.88800      3.81000
 877.6      8.71400     13.33500     40.38600      0.21200  -9999.00000  -9999.00000      1.78900      3.50500
 877.8      5.70200     10.92200     36.83000      0.21200  -9999.00000  -9999.00000      1.56000      3.20000
 878.0      3.73200      8.12800     36.32200      0.21300  -9999.00000  -9999.00000      1.29300      3.25100
 878.2      3.36900      5.96900     37.59200      0.21400  -9999.00000  -9999.00000      1.47600      3.50500
 878.4      3.22400      4.31800     44.19600      0.21500  -9999.00000  -9999.00000      1.51400      4.06400
 878.6      2.37200      3.30200     51.81600      0.21600  -9999.00000  -9999.00000      1.30900      5.28300
 878.8      1.79600      2.54000     48.76800      0.21700  -9999.00000  -9999.00000      1.34700      4.82600
 879.0      1.71900      2.15900     43.43400      0.21800  -9999.00000  -9999.00000      1.36200      4.36900
 879.2      1.90500      2.15900     39.87800      0.21700  -9999.00000  -9999.00000      1.44600      3.86100
 879.4      2.86800      2.28600     38.60800      0.21700  -9999.00000  -9999.00000      1.59800      3.30200
 879.6      6.41000      2.41300     42.41800      0.21500  -9999.00000  -9999.00000      1.81900      2.94600
 879.8      9.23900      2.66700     51.56200      0.21400  -9999.00000  -9999.00000      1.95600      2.79400
 880.0      9.51300      3.42900     58.16600      0.21300  -9999.00000  -9999.00000      2.02500      2.99700
 880.2      8.84200      4.19100     62.23000      0.21300  -9999.00000  -9999.00000      1.97200      3.40400
 880.4      5.95800      5.33400     64.26200      0.21300  -9999.00000  -9999.00000      1.91100      3.25100
 880.6      4.64700      5.96900     62.48400      0.21300  -9999.00000  -9999.00000      1.87300      2.54000
 880.8      4.25700      5.84200     57.65800      0.21300  -9999.00000  -9999.00000      1.56800      1.93000
 881.0      3.17700      5.46100     53.08600      0.21400  -9999.00000  -9999.00000      1.62900      1.72700
 881.2      3.32000      4.95300     48.26000      0.21400  -9999.00000  -9999.00000      1.49900      1.88000
 881.4      3.89900      4.57200     43.68800      0.21400  -9999.00000  -9999.00000      1.44600      1.98100
 881.6      3.84200      4.19100     45.72000      0.21300  -9999.00000  -9999.00000      1.45300      2.18400
 881.8      3.84200      4.19100     49.02200      0.21200  -9999.00000  -9999.00000      1.55300      2.48900
 882.0      4.51300      4.31800     50.03800      0.21100  -9999.00000  -9999.00000      1.69700      2.89600
 882.2      5.30000      4.69900     51.05400      0.21100  -9999.00000  -9999.00000      1.81900      3.25100
 882.4      7.41900      5.33400     52.07000      0.21100  -9999.00000  -9999.00000      1.85700      3.20000
 882.6     13.71100      6.47700     51.56200      0.21200  -9999.00000  -9999.00000      1.94900      3.04800
 882.8     15.18900      7.62000     48.76800      0.21200  -9999.00000  -9999.00000      1.81200      2.94600
 883.0     13.12200      9.65200     44.70400      0.21200  -9999.00000  -9999.00000      1.66700      3.30200
 883.2     14.96800     12.06500     42.67200      0.21100  -9999.00000  -9999.00000      1.53000      3.96200
 883.4     12.02000     13.71600     42.92600      0.21100  -9999.00000  -9999.00000      1.56000      4.62300
 883.6      8.21900     15.49400     45.21200      0.21100  -9999.00000  -9999.00000      1.68200      5.28300
 883.8      6.04600     14.60500     49.78400      0.21100  -9999.00000  -9999.00000      1.61300      6.40100
 884.0      5.14800     11.55700     54.10200      0.21200  -9999.00000  -9999.00000      1.53000      7.82300
 884.2      5.22300      9.65200     53.08600      0.21200  -9999.00000  -9999.00000      1.45300      8.48400
 884.4      7.10100      8.25500     45.72000      0.21300  -9999.00000  -9999.00000      1.37700      7.67100
 884.6      7.75200      7.36600     39.11600      0.21500  -9999.00000  -9999.00000      1.37700      5.94400
 884.8      6.50400      7.36600     36.57600      0.21400  -9999.00000  -9999.00000      1.40000      4.21600
 885.0      6.69700      7.74700     35.56000      0.21500  -9999.00000  -9999.00000      1.56000      3.65800
 885.2      6.89600      7.74700     35.30600      0.21500  -9999.00000  -9999.00000      1.68200      3.35300
 885.4      6.89600      7.49300     34.79800      0.21500  -9999.00000  -9999.00000      1.71300      2.89600
 885.6      6.41000      7.36600     34.03600      0.21400  -9999.00000  -9999.00000      1.72800      2.48900
 885.8      5.62000      6.98500     33.52800      0.21300  -9999.00000  -9999.00000      1.75100      2.43800
 886.0      4.99900      6.73100     33.52800      0.21300  -9999.00000  -9999.00000      1.71300      2.54000
 886.2      5.70200      6.22300     34.29000      0.21300  -9999.00000  -9999.00000      1.73500      2.64200
 886.4      5.37800      5.96900     35.05200      0.21200  -9999.00000  -9999.00000      1.77300      2.74300
 886.6      5.37800      5.84200     35.30600      0.21000  -9999.00000  -9999.00000      1.77300      2.74300
 886.8      7.20500      6.09600     35.30600      0.21000  -9999.00000  -9999.00000      1.78100      2.74300
 887.0      7.31200      6.35000     35.56000      0.21200  -9999.00000  -9999.00000      1.81900      2.59100
 887.2      6.60000      6.85800     36.83000      0.21400  -9999.00000  -9999.00000      1.72000      2.43800
 887.4      8.46300      7.74700     38.10000      0.21600  -9999.00000  -9999.00000      1.75100      2.23500
 887.6     10.08600      9.01700     41.91000      0.21800  -9999.00000  -9999.00000      1.78100      2.03200
 887.8     11.01100     10.66800     45.46600      0.21800  -9999.00000  -9999.00000      1.84200      2.03200
 888.0     12.55900     11.55700     50.29200      0.21700  -9999.00000  -9999.00000      1.94100      2.43800
 888.2     12.02000     11.68400     54.61000      0.21600  -9999.00000  -9999.00000      2.07800      2.79400
 888.4      6.22500     11.04900     58.42000      0.21500  -9999.00000  -9999.00000      1.95600      3.15000
 888.6      6.60000     10.28700     60.96000      0.21500  -9999.00000  -9999.00000      1.97900      3.60700
 888.8      6.60000      9.52500     59.69000      0.21500  -9999.00000  -9999.00000      1.97200      3.86100
 889.0      6.41000      8.89000     56.64200      0.21500  -9999.00000  -9999.00000      2.07100      3.65800
 889.2      6.13500      8.25500     53.34000      0.21400  -9999.00000  -9999.00000      2.13900      3.30200
 889.4      5.45800      7.87400     50.03800      0.21400  -9999.00000  -9999.00000      2.10900      2.94600
 889.6      5.95800      7.74700     47.75200      0.21400  -9999.00000  -9999.00000      2.07100      2.94600
 889.8      6.60000      7.62000     47.24400      0.21400  -9999.00000  -9999.00000      1.96400      2.94600
 890.0      6.41000      7.62000     46.99000      0.21500  -9999.00000  -9999.00000      1.94100      3.04800
 890.2      6.50400      7.11200     46.99000      0.21500  -9999.00000  -9999.00000      2.01700      3.04800
 890.4      6.60000      7.36600     45.72000      0.21400  -9999.00000  -9999.00000      2.00200      3.04800
 890.6      6.99800      7.62000     44.45000      0.21400  -9999.00000  -9999.00000      1.91800      2.94600
 890.8      6.79600      7.87400     44.45000      0.21500  -9999.00000  -9999.00000      1.91100      3.15000
 891.0      5.53800      8.00100     44.19600      0.21500  -9999.00000  -9999.00000      1.93300      3.60700
 891.2      5.95800      7.87400     40.89400      0.21500  -9999.00000  -9999.00000      1.87300      4.06400
 891.4      6.60000      7.74700     37.84600      0.21300  -9999.00000  -9999.00000      1.81200      4.11500
