~Version information
VERS.              2.00:   CWLS LOG ASCII STANDARD -VERSION 2.00
WRAP.                NO:   one line per depth step
~Well Information Block
#MNEM.UNIT     DATA         DESCRIPTION OF MNEMONIC
#--------  --------------   ------------------------
STRT.M                 1.00:START DEPTH
STOP.M              1051.00:STOP DEPTH
STEP.M                 0.20:STEP VALUE
NULL.           -9999.00000:NULL VALUE
COMP.        YDMYRTGEOLOGIA:COMPANY NAME
WELL.                 13015:WELL NAME
FLD .            VAYATSKAYA:FIELD NAME
CTRY.                RUSSIA:COUNTRY
DATE.              28.09.92:DATE
UWI .                 13015:UNIQUE WELL IDENTIFIER
SRVC.                  ????:???????? ????????? ???????? ???
SRVC_OC.                ???:???????? ????????? ????????-?????????
~Parameter Information Block
#MNEM.UNIT       Value     Description of mnemonic
#---------   -----------   ------------------------------------
EKB .M            182.45:   Elevation Kelly Bushing
TDL.M               1051:   Total Depth
SCD .M       -9999.00000:   Surface Casing Diameter
SCDP.M       -9999.00000:   Surface Casing Depth
CD  .M             0.230:   Casing Diameter
CDP .M               402:   Casing Depth
BS  .M             0.216:   Bit Size
                    CLAY:   Drill Fluid Type
DFD .G/CM3     1.24-1.25:   Drill Fluid Density
DFV .S           30-36.0:   Drill Fluid Viscosity
RMF.OHMM            0.07:   Mud Filtrate Resistivity
MT  .C             18.00:   Meas Temperature
                   DRST3:   Cartridge Gamma
TAU_GR.S            3.00:   GR Time Constant
K_GK         -9999.00000:   ????. ????????
SPEED.M/H    -9999.00000:   Speed M/Hour
                  NGK_60:   Probe NGR
USL_ED.IMP/MIN      6000:   1 ???.??.
OTN_KNL.GR/NGR         9:   ????????? ???????
TAU_NGR.S           3.00:   NGR Time Constant
SPEED.M/H    -9999.00000:   Speed M/Hour
                    AIKM:   Cartridge IK
                     6F1:   Probe IK
                     K_3:   Cartridge BK
             -9999.00000:   Probe BK
                     K_3:   Cartridge GZ3
       Lower  sonde 0.5M:   Probe BKZ
                SPEZSOND:   Cartridge SP
                   SKP-1:   Cartridge DS
                    USBA:   Cartridge DT
             -9999.00000:   Probe DT
~Curve Information Block
#MNEM.UNIT       API CODE     Curve Description
#---------    -------------   --------------------------------
DEPT.M                    :    1    DEPTH M
BK.OHMM                   :    2    LATEROLOG DEEP
PZ.OHMM                   :    3    SONDE BKZ 02.5M
SP.MV                     :    4    SPONTANEOUS POTENTIALS MVOLT
DS.M                      :    5    CALIPER
DT.MCS                    :    6    DELTA TIME INTERVAL TRANSIT TIME MCSEC/M
IK.MSM/M                  :    7    INDUCTION (CONDUCTIVITY) LOG DEEP MSM/M
NGR.UE                    :    8    NEUTRON GAMMA RAY
GR.MCR/H                  :    9    GAMMA RAY MICRO_ROENTGENS PER HOUR
~A DEPTH      BK            PZ         SP            DS           DT          IK           NGR          GR
# ...
 906.2     12.37700      7.49300     70.10400      0.20800    202.35201    101.09200      2.03300      2.74300
 906.4     20.05200     10.92200     73.66000      0.20900    199.81200     87.37600      2.30700      1.98100
 906.6     14.53700     15.87500     74.16800      0.21000    196.25600     90.93200      2.31500      1.98100
 906.8     16.82500     21.84400     75.18400      0.21000    193.71600    105.66400      2.22300      2.18400
 907.0     32.48800     26.92400     66.04000      0.20800    193.20799    118.36400      2.13200      2.13400
 907.2     32.01600     30.48000     58.16600      0.20600    193.20799    131.06400      1.94100      1.82900
 907.4     26.09000     32.63900     50.54600      0.20500    196.76401    140.20799      1.72800      1.57500
 907.6     23.21000     33.65500     42.92600      0.20500    203.87601    146.81200      1.57500      1.52400
 907.8     18.36800     31.36900     35.30600      0.20400    213.02000    154.43201      1.40800      1.52400
 908.0     13.31600     28.32100     27.43200      0.20400    220.64000    159.00400      1.30900      1.52400
 908.2     10.53800     25.52700     23.11400      0.20500    222.67200    156.97200      1.14900      1.57500
 908.4     14.11800     23.87600     22.09800      0.20600    219.11600    146.30400      1.11800      1.52400
 908.6     23.55100     23.74900     21.84400      0.20800    213.02000    130.55600      1.22500      1.42200
 908.8     22.21400     24.51100     22.60600      0.20600    206.41600    113.79200      1.28600      1.52400
 909.0     19.76100     25.40000     24.13000      0.20600    202.35201    103.63200      1.28600      1.72700
 909.2     14.53700     25.01900     25.14600      0.20800    199.81200    103.12400      1.35400      2.08300
 909.4     11.84600     23.62200     26.92400      0.21100    198.79601    109.72800      1.45300      2.43800
 909.6     12.93200     21.59000     28.70200      0.21300    196.25600    115.31600      1.60600      2.64200
 909.8     12.55900     19.30400     29.71800      0.21500    193.20799    110.74400      1.75800      2.54000
 910.0     12.19700     17.14500     29.97200      0.21500    191.17599    101.60000      1.81200      2.54000
 910.2      9.93900     14.85900     29.97200      0.21500    190.66800    101.60000      1.74300      2.74300
 910.4      4.13400     12.19200     29.97200      0.21500    190.66800    117.34800      1.61300      2.99700
 910.6      4.78500      9.27100     30.48000      0.21500    192.70000    134.11200      1.43100      2.94600
 910.8      5.45800      7.49300     34.03600      0.21500    196.76401    151.89200      1.49200      3.09900
 911.0      5.53800      6.35000     37.84600      0.21500    199.81200    158.49600      1.56800      3.55600
 911.2      5.95800      5.71500     40.89400      0.21500    203.36800    147.82800      1.64400      4.16600
 911.4      3.62400      4.95300     37.84600      0.21500    207.94000    128.52400      1.70500      4.62300
 911.6      2.58900      4.31800     33.78200      0.21500    211.49600    133.09599      1.60600      4.47000
 911.8      2.82700      3.42900     29.46400      0.21600    216.57600    157.98801      1.47600      3.81000
 912.0      3.04100      3.04800     27.43200      0.21700    222.16400    194.36099      1.40000      3.09900
 912.2      3.17700      2.79400     26.41600      0.21700    226.22800    230.73399      1.35400      2.99700
 912.4      3.89900      2.66700     25.90800      0.21500    229.27600    269.23999      1.30900      2.89600
 912.6      4.01500      2.79400     27.17800      0.21500    227.24400    299.72000      1.26300      2.94600
 912.8      3.73200      3.04800     28.70200      0.21400    220.13200    297.17999      1.24800      3.15000
 913.0      3.62400      3.30200     32.00400      0.21300    213.02000    271.78000      1.31600      3.30200
 913.2      5.07300      3.55600     35.81400      0.21200    206.41600    181.01700      1.47600      3.25100
 913.4     10.23400      3.93700     39.87800      0.21100    202.35201    125.98400      1.69000      3.20000
 913.6     12.19700      4.95300     42.16400      0.21000    204.38400     84.83600      1.89500      3.04800
 913.8      6.22500      6.35000     43.94200      0.20900    209.97200     71.12000      2.12400      3.15000
 914.0      4.57900      7.11200     43.68800      0.20900    216.06799     80.26400      1.89500      3.55600
 914.2      4.85500      7.87400     43.43400      0.21000    221.14799     92.45600      1.66700      3.55600
 914.4      4.99900      7.62000     48.00600      0.21000    224.19600    101.09200      1.46900      3.35300
 914.6      6.99800      7.49300     56.38800      0.21100    220.64000    101.09200      1.53700      3.25100
 914.8      9.65300      7.36600     64.51600      0.21100    214.03600     94.48800      1.69000      3.04800
 915.0     10.08600      8.25500     63.75400      0.21100    206.41600     85.85200      1.86500      2.54000
 915.2     13.91300     10.03300     57.65800      0.20900    201.33600     80.77200      1.98700      2.38800
 915.4     18.63900     11.93800     50.29200      0.20800    200.32001     81.78800      2.01700      2.54000
 915.6     15.63900     13.58900     45.97400      0.20800    202.86000     88.39200      1.96400      2.54000
 915.8     10.53800     14.73200     44.45000      0.20800    208.44800     98.04400      1.84200      2.38800
 916.0      4.44700     13.46200     46.73600      0.20800    215.56000    105.15600      1.73500      2.38800
 916.2      3.08600     11.55700     49.02200      0.20800    222.67200    115.82400      1.55300      2.64200
 916.4      2.20400      9.65200     51.30800      0.20800    226.73599    142.74800      1.40800      2.99700
 916.6      3.17700      7.62000     53.59400      0.20900    227.24400    167.13200      1.30900      3.35300
 916.8     12.55900      5.33400     45.97400      0.20700    225.21201    160.02000      1.23200      3.40400
 917.0     29.75900      8.76300     38.10000      0.20500    222.16400    115.31600      1.18700      3.30200
 917.2     33.45200     15.36700     30.48000      0.20300    219.62399     89.40800      1.17900      3.30200
 917.4     28.48200     20.95500     23.36800      0.20200    219.11600     76.20000      1.16400      3.40400
 917.6     25.33800     28.19400     22.60600      0.20100    218.60800     81.78800      1.15600      3.55600
 917.8     22.87300     32.51200     21.59000      0.20200    218.60800     91.94800      1.15600      3.60700
 918.0     21.26000     32.63900     21.59000      0.20200    218.10001    100.58400      1.15600      3.55600
 918.2     20.05200     32.25800     23.36800      0.20200    218.60800    104.64800      1.23200      3.30200
 918.4     20.05200     31.87700     25.65400      0.20200    219.11600    104.64800      1.30900      3.15000
 918.6     20.95200     31.24200     28.70200      0.20500    217.59200    100.58400      1.37000      2.94600
 918.8     24.60800     29.84500     33.27400      0.20700    214.54401     92.96400      1.49900      2.94600
 919.0     22.54100     27.55900     37.33800      0.21000    212.51199     84.32800      1.65200      3.15000
 919.2     10.53800     23.49500     43.18000      0.20900    213.02000     80.26400      1.74300      3.65800
 919.4      5.78600     16.76400     48.00600      0.20900    219.11600     84.83600      1.69000      4.31800
 919.6      3.52000     10.03300     43.18000      0.21100    229.27600    102.61600      1.49200      4.87700
 919.8      3.08600      4.95300     39.11600      0.21300    238.92799    122.42800      1.30100      4.67400
 920.0      2.82700      2.28600     35.30600      0.21400    248.07201    140.20799      1.20200      4.52100
 920.2      3.36900      2.66700     31.24200      0.21600    255.69200    159.00400      1.16400      4.01300
 920.4      3.67800      2.28600     28.44800      0.21700    258.23199    177.29201      1.09500      3.55600
 920.6      3.52000      2.28600     29.21000      0.21900    257.72400    195.19901      1.05000      3.09900
