~Version information
VERS.              2.00:   CWLS LOG ASCII STANDARD -VERSION 2.00
WRAP.                NO:   one line per depth step
~Well Information Block
#MNEM.UNIT     DATA         DESCRIPTION OF MNEMONIC
#--------  --------------   ------------------------
STRT.M                 1.00:START DEPTH
STOP.M              1051.00:STOP DEPTH
STEP.M                 0.20:STEP VALUE
NULL.           -9999.00000:NULL VALUE
COMP.        YDMYRTGEOLOGIA:COMPANY NAME
WELL.                 13015:WELL NAME
FLD .            VAYATSKAYA:FIELD NAME
CTRY.                RUSSIA:COUNTRY
DATE.              28.09.92:DATE
UWI .                 13015:UNIQUE WELL IDENTIFIER
SRVC.                  ????:???????? ????????? ???????? ???
SRVC_OC.                ???:???????? ????????? ????????-?????????
~Parameter Information Block
#MNEM.UNIT       Value     Description of mnemonic
#---------   -----------   ------------------------------------
EKB .M            182.45:   Elevation Kelly Bushing
TDL.M               1051:   Total Depth
SCD .M       -9999.00000:   Surface Casing Diameter
SCDP.M       -9999.00000:   Surface Casing Depth
CD  .M             0.230:   Casing Diameter
CDP .M               402:   Casing Depth
BS  .M             0.216:   Bit Size
                    CLAY:   Drill Fluid Type
DFD .G/CM3     1.24-1.25:   Drill Fluid Density
DFV .S           30-36.0:   Drill Fluid Viscosity
RMF.OHMM            0.07:   Mud Filtrate Resistivity
MT  .C             18.00:   Meas Temperature
                   DRST3:   Cartridge Gamma
TAU_GR.S            3.00:   GR Time Constant
K_GK         -9999.00000:   ????. ????????
SPEED.M/H    -9999.00000:   Speed M/Hour
                  NGK_60:   Probe NGR
USL_ED.IMP/MIN      6000:   1 ???.??.
OTN_KNL.GR/NGR         9:   ????????? ???????
TAU_NGR.S           3.00:   NGR Time Constant
SPEED.M/H    -9999.00000:   Speed M/Hour
                    AIKM:   Cartridge IK
                     6F1:   Probe IK
                     K_3:   Cartridge BK
             -9999.00000:   Probe BK
                     K_3:   Cartridge GZ3
       Lower  sonde 0.5M:   Probe BKZ
                SPEZSOND:   Cartridge SP
                   SKP-1:   Cartridge DS
                    USBA:   Cartridge DT
             -9999.00000:   Probe DT
~Curve Information Block
#MNEM.UNIT       API CODE     Curve Description
#---------    -------------   --------------------------------
DEPT.M                    :    1    DEPTH M
BK.OHMM                   :    2    LATEROLOG DEEP
PZ.OHMM                   :    3    SONDE BKZ 02.5M
SP.MV                     :    4    SPONTANEOUS POTENTIALS MVOLT
DS.M                      :    5    CALIPER
DT.MCS                    :    6    DELTA TIME INTERVAL TRANSIT TIME MCSEC/M
IK.MSM/M                  :    7    INDUCTION (CONDUCTIVITY) LOG DEEP MSM/M
NGR.UE                    :    8    NEUTRON GAMMA RAY
GR.MCR/H                  :    9    GAMMA RAY MICRO_ROENTGENS PER HOUR
~A DEPTH      BK            PZ         SP            DS           DT          IK           NGR          GR
# ...
 745.6  -9999.00000     26.41300     40.88900      0.21100  -9999.00000  -9999.00000      1.43800      5.33400
 745.8  -9999.00000     24.00000     42.92100      0.21100  -9999.00000  -9999.00000      1.68200      5.89300
 746.0  -9999.00000     21.71400     44.44400      0.21400  -9999.00000  -9999.00000      1.87300      5.53700
 746.2  -9999.00000     19.42900     45.96800      0.21700  -9999.00000  -9999.00000      2.02500      4.82600
 746.4  -9999.00000     17.14300     46.98400      0.21900  -9999.00000  -9999.00000      2.11600      4.11500
 746.6  -9999.00000     14.73000     44.95200      0.21900  -9999.00000  -9999.00000      2.17700      3.40400
 746.8  -9999.00000     13.07900     43.68300      0.21800  -9999.00000  -9999.00000      2.23800      2.69200
 747.0  -9999.00000     13.33300     43.17500      0.21400  -9999.00000  -9999.00000      2.28400      2.03200
 747.2  -9999.00000     12.95200     46.22200      0.21600  -9999.00000  -9999.00000      2.34500      1.77800
 747.4  -9999.00000     12.69800     50.03200      0.21700  -9999.00000  -9999.00000      2.31500      1.82900
 747.6  -9999.00000     12.31700     53.58700      0.21700  -9999.00000  -9999.00000      2.23800      1.82900
 747.8  -9999.00000     11.93700     57.14300      0.21800  -9999.00000  -9999.00000      2.17000      1.93000
 748.0  -9999.00000     11.81000     61.46000      0.21900  -9999.00000  -9999.00000      2.10900      2.33700
 748.2  -9999.00000     11.55600     64.50800      0.21800  -9999.00000  -9999.00000      2.06300      3.04800
 748.4  -9999.00000     11.30200     66.54000      0.21700  -9999.00000  -9999.00000      2.04000      4.47000
 748.6  -9999.00000     11.04800     67.55600      0.21600  -9999.00000  -9999.00000      2.04000      5.63900
 748.8  -9999.00000     10.66700     64.76200      0.21500  -9999.00000  -9999.00000      2.05500      6.09600
 749.0  -9999.00000     10.28600     59.17500      0.21500  -9999.00000  -9999.00000      1.94900      5.28300
 749.2  -9999.00000     10.92100     52.82500      0.21400  -9999.00000  -9999.00000      1.80400      4.67400
 749.4  -9999.00000     10.41300     45.96800      0.21400  -9999.00000  -9999.00000      1.68200      4.36900
 749.6  -9999.00000      9.90500     39.11100      0.21300  -9999.00000  -9999.00000      1.58300      4.21600
 749.8  -9999.00000      9.39700     36.31700      0.21400  -9999.00000  -9999.00000      1.62900      4.01300
 750.0  -9999.00000      8.63500     37.07900      0.21500  -9999.00000  -9999.00000      1.69000      3.86100
 750.2  -9999.00000      7.74600     40.12700      0.21700  -9999.00000  -9999.00000      1.70500      4.01300
 750.4  -9999.00000      7.11100     45.20600      0.21900  -9999.00000  -9999.00000      1.62900      4.47000
 750.6  -9999.00000      6.47600     52.06300      0.22100  -9999.00000  -9999.00000      1.47600      4.67400
 750.8  -9999.00000      6.09500     58.41300      0.22300  -9999.00000  -9999.00000      1.61300      4.52100
 751.0  -9999.00000      5.58700     65.01600      0.22400  -9999.00000  -9999.00000      1.78900      4.42000
 751.2  -9999.00000      6.34900     67.81000      0.22300  -9999.00000  -9999.00000      1.97900      4.16600
 751.4  -9999.00000      7.87300     69.58700      0.22200  -9999.00000  -9999.00000      2.25400      3.91200
 751.6  -9999.00000      9.52400     71.87300      0.22000  -9999.00000  -9999.00000      2.42900      4.06400
 751.8  -9999.00000     11.04800     74.41300      0.21900  -9999.00000  -9999.00000      2.37500      5.02900
 752.0  -9999.00000     12.95200     77.46000      0.21700  -9999.00000  -9999.00000      2.25400      6.29900
 752.2  -9999.00000     12.69800     81.52400      0.21700  -9999.00000  -9999.00000      2.06300      6.24800
 752.4  -9999.00000     12.19000     75.42900      0.21700  -9999.00000  -9999.00000      2.09400      4.92800
 752.6  -9999.00000     12.44400     68.31700      0.21600  -9999.00000  -9999.00000      2.17000      4.11500
 752.8  -9999.00000     12.69800     59.68300      0.21500  -9999.00000  -9999.00000      2.26100      4.52100
 753.0  -9999.00000     12.95200     51.81000      0.21500  -9999.00000  -9999.00000      2.11600      4.72400
 753.2  -9999.00000     12.95200     46.22200      0.21600  -9999.00000  -9999.00000      1.91100      4.82600
 753.4  -9999.00000     13.20600     41.65100      0.21800  -9999.00000  -9999.00000      1.89500      4.87700
 753.6  -9999.00000     13.84100     38.09500      0.21900  -9999.00000  -9999.00000      1.97900      4.87700
 753.8  -9999.00000     14.98400     36.31700      0.21700  -9999.00000  -9999.00000      1.95600      4.67400
 754.0  -9999.00000     17.14300     35.04800      0.21600  -9999.00000  -9999.00000      1.83400      3.96200
 754.2  -9999.00000     20.57100     33.77800      0.21300  -9999.00000  -9999.00000      1.66700      3.30200
 754.4  -9999.00000     24.88900     32.50800      0.21200  -9999.00000  -9999.00000      1.59100      2.64200
 754.6  -9999.00000     29.46000     30.73000      0.21000  -9999.00000  -9999.00000      1.49900      2.23500
 754.8  -9999.00000     33.65100     29.20600      0.21300  -9999.00000  -9999.00000      1.49200      2.18400
 755.0  -9999.00000     37.46000     27.68300      0.21500  -9999.00000  -9999.00000      1.45300      2.08300
 755.2  -9999.00000     37.96800     26.41300      0.21700  -9999.00000  -9999.00000      1.47600      2.23500
 755.4  -9999.00000     34.66700     26.41300      0.21700  -9999.00000  -9999.00000      1.52200      2.43800
 755.6  -9999.00000     31.23800     26.92100      0.21700  -9999.00000  -9999.00000      1.56000      2.54000
 755.8  -9999.00000     28.06300     27.42900      0.22100  -9999.00000  -9999.00000      1.51400      2.54000
 756.0  -9999.00000     25.77800     27.93700      0.22500  -9999.00000  -9999.00000      1.53700      2.38800
 756.2  -9999.00000     24.12700     29.20600      0.22600  -9999.00000  -9999.00000      1.62900      2.89600
 756.4  -9999.00000     22.22200     31.49200      0.22400  -9999.00000  -9999.00000      1.71300      3.75900
 756.6  -9999.00000     23.23800     33.52400      0.22000  -9999.00000  -9999.00000      1.84200      4.21600
 756.8  -9999.00000     26.41300     35.04800      0.21600  -9999.00000  -9999.00000      1.90300      3.81000
 757.0  -9999.00000     32.00000     33.77800      0.21300  -9999.00000  -9999.00000      1.93300      3.20000
 757.2  -9999.00000     37.20600     32.00000      0.21100  -9999.00000  -9999.00000      1.84200      2.54000
 757.4  -9999.00000     41.14300     29.71400      0.21100  -9999.00000  -9999.00000      1.69700      2.13400
 757.6  -9999.00000     44.95200     27.42900      0.21000  -9999.00000  -9999.00000      1.52200      1.88000
 757.8  -9999.00000     44.19000     25.39700      0.21000  -9999.00000  -9999.00000      1.42300      1.77800
 758.0  -9999.00000     35.17500     24.38100      0.21100  -9999.00000  -9999.00000      1.36200      1.72700
 758.2  -9999.00000     27.30200     23.61900      0.21100  -9999.00000  -9999.00000      1.33200      1.67600
 758.4  -9999.00000     25.14300     23.36500      0.21100  -9999.00000  -9999.00000      1.32400      1.72700
 758.6  -9999.00000     22.85700     24.12700      0.21100  -9999.00000  -9999.00000      1.33900      1.82900
 758.8  -9999.00000     20.31700     24.38100      0.21000  -9999.00000  -9999.00000      1.35400      1.77800
 759.0  -9999.00000     21.71400     24.63500      0.21100  -9999.00000  -9999.00000      1.34700      2.03200
 759.2  -9999.00000     25.77800     24.38100      0.21100  -9999.00000  -9999.00000      1.32400      2.13400
 759.4  -9999.00000     30.34900     24.88900      0.21000  -9999.00000  -9999.00000      1.40800      2.03200
 759.6  -9999.00000     34.41300     25.39700      0.21100  -9999.00000  -9999.00000      1.40800      1.93000
 759.8  -9999.00000     38.34900     24.63500      0.21100  -9999.00000  -9999.00000      1.42300      1.93000
 760.0  -9999.00000     40.12700     24.88900      0.21200  -9999.00000  -9999.00000      1.46100      1.82900
