~Version information
VERS.              2.00:   CWLS LOG ASCII STANDARD -VERSION 2.00
WRAP.                NO:   one line per depth step
~Well Information Block
#MNEM.UNIT     DATA         DESCRIPTION OF MNEMONIC
#--------  --------------   ------------------------
STRT.M                 1.00:START DEPTH
STOP.M              1051.00:STOP DEPTH
STEP.M                 0.20:STEP VALUE
NULL.           -9999.00000:NULL VALUE
COMP.        YDMYRTGEOLOGIA:COMPANY NAME
WELL.                 13015:WELL NAME
FLD .            VAYATSKAYA:FIELD NAME
CTRY.                RUSSIA:COUNTRY
DATE.              28.09.92:DATE
UWI .                 13015:UNIQUE WELL IDENTIFIER
SRVC.                  ????:???????? ????????? ???????? ???
SRVC_OC.                ???:???????? ????????? ????????-?????????
~Parameter Information Block
#MNEM.UNIT       Value     Description of mnemonic
#---------   -----------   ------------------------------------
EKB .M            182.45:   Elevation Kelly Bushing
TDL.M               1051:   Total Depth
SCD .M       -9999.00000:   Surface Casing Diameter
SCDP.M       -9999.00000:   Surface Casing Depth
CD  .M             0.230:   Casing Diameter
CDP .M               402:   Casing Depth
BS  .M             0.216:   Bit Size
                    CLAY:   Drill Fluid Type
DFD .G/CM3     1.24-1.25:   Drill Fluid Density
DFV .S           30-36.0:   Drill Fluid Viscosity
RMF.OHMM            0.07:   Mud Filtrate Resistivity
MT  .C             18.00:   Meas Temperature
                   DRST3:   Cartridge Gamma
TAU_GR.S            3.00:   GR Time Constant
K_GK         -9999.00000:   ????. ????????
SPEED.M/H    -9999.00000:   Speed M/Hour
                  NGK_60:   Probe NGR
USL_ED.IMP/MIN      6000:   1 ???.??.
OTN_KNL.GR/NGR         9:   ????????? ???????
TAU_NGR.S           3.00:   NGR Time Constant
SPEED.M/H    -9999.00000:   Speed M/Hour
                    AIKM:   Cartridge IK
                     6F1:   Probe IK
                     K_3:   Cartridge BK
             -9999.00000:   Probe BK
                     K_3:   Cartridge GZ3
       Lower  sonde 0.5M:   Probe BKZ
                SPEZSOND:   Cartridge SP
                   SKP-1:   Cartridge DS
                    USBA:   Cartridge DT
             -9999.00000:   Probe DT
~Curve Information Block
#MNEM.UNIT       API CODE     Curve Description
#---------    -------------   --------------------------------
DEPT.M                    :    1    DEPTH M
BK.OHMM                   :    2    LATEROLOG DEEP
PZ.OHMM                   :    3    SONDE BKZ 02.5M
SP.MV                     :    4    SPONTANEOUS POTENTIALS MVOLT
DS.M                      :    5    CALIPER
DT.MCS                    :    6    DELTA TIME INTERVAL TRANSIT TIME MCSEC/M
IK.MSM/M                  :    7    INDUCTION (CONDUCTIVITY) LOG DEEP MSM/M
NGR.UE                    :    8    NEUTRON GAMMA RAY
GR.MCR/H                  :    9    GAMMA RAY MICRO_ROENTGENS PER HOUR
~A DEPTH      BK            PZ         SP            DS           DT          IK           NGR          GR
# ...
 614.2  -9999.00000     52.07000     53.34000      0.21000  -9999.00000  -9999.00000      3.00000      1.98100
 614.4  -9999.00000     53.34000     54.35600      0.20900  -9999.00000  -9999.00000      2.94700      1.98100
 614.6  -9999.00000     53.34000     55.62600      0.20800  -9999.00000  -9999.00000      2.90100      2.08300
 614.8  -9999.00000     49.02200     56.64200      0.20800  -9999.00000  -9999.00000      2.73400      2.48900
 615.0  -9999.00000     44.19600     57.65800      0.20700  -9999.00000  -9999.00000      2.61200      2.99700
 615.2  -9999.00000     39.37000     59.18200      0.20600  -9999.00000  -9999.00000      2.49700      3.35300
 615.4  -9999.00000     34.54400     61.21400      0.20600  -9999.00000  -9999.00000      2.36800      3.09900
 615.6  -9999.00000     27.05100     63.50000      0.20600  -9999.00000  -9999.00000      2.26100      2.94600
 615.8  -9999.00000     20.95500     67.05600      0.20700  -9999.00000  -9999.00000      2.07800      3.30200
 616.0  -9999.00000     17.78000     71.37400      0.20800  -9999.00000  -9999.00000      1.91100      3.15000
 616.2  -9999.00000     15.11300     75.69200      0.20900  -9999.00000  -9999.00000      1.81200      2.69200
 616.4  -9999.00000     14.09700     75.43800      0.20800  -9999.00000  -9999.00000      1.74300      2.64200
 616.6  -9999.00000     13.84300     74.16800      0.20800  -9999.00000  -9999.00000      1.84200      2.69200
 616.8  -9999.00000     13.58900     70.61200      0.20700  -9999.00000  -9999.00000      1.88800      2.89600
 617.0  -9999.00000     14.09700     68.32600      0.20600  -9999.00000  -9999.00000      1.84200      3.04800
 617.2  -9999.00000     13.97000     67.81800      0.20600  -9999.00000  -9999.00000      1.74300      3.25100
 617.4  -9999.00000     13.33500     68.32600      0.20600  -9999.00000  -9999.00000      1.62100      3.55600
 617.6  -9999.00000     12.95400     68.07200      0.20800  -9999.00000  -9999.00000      1.55300      3.75900
 617.8  -9999.00000     13.33500     67.31000      0.20700  -9999.00000  -9999.00000      1.62100      4.31800
 618.0  -9999.00000     13.97000     65.78600      0.20600  -9999.00000  -9999.00000      1.72000      4.97800
 618.2  -9999.00000     15.11300     61.21400      0.20500  -9999.00000  -9999.00000      1.79600      5.13100
 618.4  -9999.00000     17.01800     57.40400      0.20500  -9999.00000  -9999.00000      1.71300      4.57200
 618.6  -9999.00000     20.44700     53.84800      0.20700  -9999.00000  -9999.00000      1.55300      4.06400
 618.8  -9999.00000     24.13000     52.57800      0.20800  -9999.00000  -9999.00000      1.31600      3.60700
 619.0  -9999.00000     26.41600     51.81600      0.20800  -9999.00000  -9999.00000      1.27800      3.09900
 619.2  -9999.00000     27.55900     50.54600      0.20800  -9999.00000  -9999.00000      1.37000      2.94600
 619.4  -9999.00000     25.40000     51.05400      0.20900  -9999.00000  -9999.00000      1.44600      3.20000
 619.6  -9999.00000     21.59000     51.81600      0.20900  -9999.00000  -9999.00000      1.44600      3.55600
 619.8  -9999.00000     17.27200     52.57800      0.20900  -9999.00000  -9999.00000      1.40800      3.65800
 620.0  -9999.00000     14.22400     53.08600      0.20900  -9999.00000  -9999.00000      1.36200      3.96200
 620.2  -9999.00000      9.65200     54.10200      0.20900  -9999.00000  -9999.00000      1.36200      4.21600
 620.4  -9999.00000      8.12800     55.62600      0.20900  -9999.00000  -9999.00000      1.37700      4.31800
 620.6  -9999.00000      7.49300     57.15000      0.21000  -9999.00000  -9999.00000      1.38500      4.11500
 620.8  -9999.00000      8.12800     56.89600      0.21000  -9999.00000  -9999.00000      1.38500      3.91200
 621.0  -9999.00000      9.14400     55.88000      0.21000  -9999.00000  -9999.00000      1.40800      3.91200
 621.2  -9999.00000     10.66800     54.61000      0.21000  -9999.00000  -9999.00000      1.48400      3.91200
 621.4  -9999.00000     13.20800     54.86400      0.21000  -9999.00000  -9999.00000      1.57500      4.06400
 621.6  -9999.00000     16.51000     56.38800      0.20900  -9999.00000  -9999.00000      1.72800      3.91200
 621.8  -9999.00000     19.68500     58.67400      0.21000  -9999.00000  -9999.00000      1.75800      2.79400
 622.0  -9999.00000     23.11400     59.69000      0.21000  -9999.00000  -9999.00000      1.71300      2.64200
 622.2  -9999.00000     24.51100     59.69000      0.21000  -9999.00000  -9999.00000      1.62100      3.09900
 622.4  -9999.00000     25.14600     59.69000      0.21000  -9999.00000  -9999.00000      1.58300      3.60700
 622.6  -9999.00000     25.01900     59.69000      0.21000  -9999.00000  -9999.00000      1.59800      3.86100
 622.8  -9999.00000     24.63800     58.92800      0.21000  -9999.00000  -9999.00000      1.68200      3.55600
 623.0  -9999.00000     24.13000     57.15000      0.20900  -9999.00000  -9999.00000      1.69700      3.15000
 623.2  -9999.00000     25.65400     56.64200      0.21000  -9999.00000  -9999.00000      1.62900      2.99700
 623.4  -9999.00000     27.05100     56.38800      0.21000  -9999.00000  -9999.00000      1.68200      2.84500
 623.6  -9999.00000     28.95600     55.88000      0.21000  -9999.00000  -9999.00000      1.80400      2.69200
 623.8  -9999.00000     30.86100     55.37200      0.20900  -9999.00000  -9999.00000      2.00200      2.74300
 624.0  -9999.00000     32.51200     54.61000      0.20900  -9999.00000  -9999.00000      2.17700      2.74300
 624.2  -9999.00000     33.27400     54.10200      0.20900  -9999.00000  -9999.00000      2.22300      2.64200
 624.4  -9999.00000     32.89300     54.35600      0.20900  -9999.00000  -9999.00000      2.20000      2.59100
 624.6  -9999.00000     31.24200     55.11800      0.20900  -9999.00000  -9999.00000      2.13900      2.43800
 624.8  -9999.00000     28.95600     57.15000      0.21100  -9999.00000  -9999.00000      1.99400      2.18400
 625.0  -9999.00000     26.92400     59.43600      0.21200  -9999.00000  -9999.00000      1.78900      1.98100
 625.2  -9999.00000     24.38400     61.72200      0.21200  -9999.00000  -9999.00000      1.78100      2.08300
 625.4  -9999.00000     22.60600     58.16600      0.21200  -9999.00000  -9999.00000      1.75800      2.13400
 625.6  -9999.00000     21.20900     53.59400      0.21200  -9999.00000  -9999.00000      1.78100      2.18400
 625.8  -9999.00000     20.32000     50.29200      0.21300  -9999.00000  -9999.00000      1.91800      2.08300
 626.0  -9999.00000     20.19300     49.78400      0.21200  -9999.00000  -9999.00000      1.96400      2.08300
 626.2  -9999.00000     19.93900     49.78400      0.21200  -9999.00000  -9999.00000      1.77300      2.18400
 626.4  -9999.00000     19.30400     49.53000      0.21200  -9999.00000  -9999.00000      1.62900      2.38800
 626.6  -9999.00000     18.41500     48.76800      0.21200  -9999.00000  -9999.00000      1.54500      2.48900
 626.8  -9999.00000     16.25600     45.97400      0.21200  -9999.00000  -9999.00000      1.42300      2.69200
 627.0  -9999.00000     13.58900     43.94200      0.21200  -9999.00000  -9999.00000      1.39200      2.89600
 627.2  -9999.00000      9.39800     41.65600      0.21300  -9999.00000  -9999.00000      1.43800      3.20000
 627.4  -9999.00000      8.12800     41.65600      0.21300  -9999.00000  -9999.00000      1.49900      3.35300
 627.6  -9999.00000      7.62000     42.67200      0.21300  -9999.00000  -9999.00000      1.53000      3.60700
 627.8  -9999.00000      7.11200     43.68800      0.21200  -9999.00000  -9999.00000      1.56000      3.55600
 628.0  -9999.00000      7.36600     44.95800      0.21200  -9999.00000  -9999.00000      1.59100      3.25100
 628.2  -9999.00000      8.12800     44.70400      0.21100  -9999.00000  -9999.00000      1.61300      3.09900
 628.4  -9999.00000      9.90600     44.70400      0.21100  -9999.00000  -9999.00000      1.53700      2.84500
 628.6  -9999.00000     12.57300     45.72000      0.21200  -9999.00000  -9999.00000      1.48400      2.94600
