~Version information
VERS.              2.00:   CWLS LOG ASCII STANDARD -VERSION 2.00
WRAP.                NO:   one line per depth step
~Well Information Block
#MNEM.UNIT     DATA         DESCRIPTION OF MNEMONIC
#--------  --------------   ------------------------
STRT.M                 1.00:START DEPTH
STOP.M              1051.00:STOP DEPTH
STEP.M                 0.20:STEP VALUE
NULL.           -9999.00000:NULL VALUE
COMP.        YDMYRTGEOLOGIA:COMPANY NAME
WELL.                 13015:WELL NAME
FLD .            VAYATSKAYA:FIELD NAME
CTRY.                RUSSIA:COUNTRY
DATE.              28.09.92:DATE
UWI .                 13015:UNIQUE WELL IDENTIFIER
SRVC.                  ????:???????? ????????? ???????? ???
SRVC_OC.                ???:???????? ????????? ????????-?????????
~Parameter Information Block
#MNEM.UNIT       Value     Description of mnemonic
#---------   -----------   ------------------------------------
EKB .M            182.45:   Elevation Kelly Bushing
TDL.M               1051:   Total Depth
SCD .M       -9999.00000:   Surface Casing Diameter
SCDP.M       -9999.00000:   Surface Casing Depth
CD  .M             0.230:   Casing Diameter
CDP .M               402:   Casing Depth
BS  .M             0.216:   Bit Size
                    CLAY:   Drill Fluid Type
DFD .G/CM3     1.24-1.25:   Drill Fluid Density
DFV .S           30-36.0:   Drill Fluid Viscosity
RMF.OHMM            0.07:   Mud Filtrate Resistivity
MT  .C             18.00:   Meas Temperature
                   DRST3:   Cartridge Gamma
TAU_GR.S            3.00:   GR Time Constant
K_GK         -9999.00000:   ????. ????????
SPEED.M/H    -9999.00000:   Speed M/Hour
                  NGK_60:   Probe NGR
USL_ED.IMP/MIN      6000:   1 ???.??.
OTN_KNL.GR/NGR         9:   ????????? ???????
TAU_NGR.S           3.00:   NGR Time Constant
SPEED.M/H    -9999.00000:   Speed M/Hour
                    AIKM:   Cartridge IK
                     6F1:   Probe IK
                     K_3:   Cartridge BK
             -9999.00000:   Probe BK
                     K_3:   Cartridge GZ3
       Lower  sonde 0.5M:   Probe BKZ
                SPEZSOND:   Cartridge SP
                   SKP-1:   Cartridge DS
                    USBA:   Cartridge DT
             -9999.00000:   Probe DT
~Curve Information Block
#MNEM.UNIT       API CODE     Curve Description
#---------    -------------   --------------------------------
DEPT.M                    :    1    DEPTH M
BK.OHMM                   :    2    LATEROLOG DEEP
PZ.OHMM                   :    3    SONDE BKZ 02.5M
SP.MV                     :    4    SPONTANEOUS POTENTIALS MVOLT
DS.M                      :    5    CALIPER
DT.MCS                    :    6    DELTA TIME INTERVAL TRANSIT TIME MCSEC/M
IK.MSM/M                  :    7    INDUCTION (CONDUCTIVITY) LOG DEEP MSM/M
NGR.UE                    :    8    NEUTRON GAMMA RAY
GR.MCR/H                  :    9    GAMMA RAY MICRO_ROENTGENS PER HOUR
~A DEPTH      BK            PZ         SP            DS           DT          IK           NGR          GR
# ...
 570.4  -9999.00000     35.17900     28.95600      0.20700  -9999.00000  -9999.00000      1.85700      3.04800
 570.6  -9999.00000     38.86200     29.21000      0.20400  -9999.00000  -9999.00000      1.87300      2.79400
 570.8  -9999.00000     42.54500     29.21000      0.20600  -9999.00000  -9999.00000      1.98700      2.84500
 571.0  -9999.00000     44.45000     29.97200      0.20800  -9999.00000  -9999.00000      2.04000      2.94600
 571.2  -9999.00000     43.18000     30.73400      0.20900  -9999.00000  -9999.00000      2.01000      2.99700
 571.4  -9999.00000     41.27500     31.49600      0.20900  -9999.00000  -9999.00000      1.84200      3.25100
 571.6  -9999.00000     40.64000     31.75000      0.20700  -9999.00000  -9999.00000      1.73500      3.30200
 571.8  -9999.00000     40.64000     31.75000      0.20600  -9999.00000  -9999.00000      1.65900      3.40400
 572.0  -9999.00000     44.45000     30.98800      0.20500  -9999.00000  -9999.00000      1.56800      3.40400
 572.2  -9999.00000     48.26000     29.97200      0.20500  -9999.00000  -9999.00000      1.82700      3.70800
 572.4  -9999.00000     51.43500     29.21000      0.20500  -9999.00000  -9999.00000      1.77300      4.31800
 572.6  -9999.00000     55.24500     28.95600      0.20500  -9999.00000  -9999.00000      1.63600      4.67400
 572.8  -9999.00000     58.42000     29.21000      0.20300  -9999.00000  -9999.00000      1.52200      4.82600
 573.0  -9999.00000     60.96000     29.21000      0.20200  -9999.00000  -9999.00000      1.56000      4.92800
 573.2  -9999.00000     65.40500     28.95600      0.20200  -9999.00000  -9999.00000      1.65200      3.96200
 573.4  -9999.00000     69.21500     28.95600      0.20300  -9999.00000  -9999.00000      1.73500      4.21600
 573.6  -9999.00000     72.39000     28.95600      0.20300  -9999.00000  -9999.00000      1.62100      4.47000
 573.8  -9999.00000     71.12000     28.95600      0.20300  -9999.00000  -9999.00000      1.57500      4.72400
 574.0  -9999.00000     66.04000     29.21000      0.20400  -9999.00000  -9999.00000      1.55300      5.02900
 574.2  -9999.00000     56.22500     29.21000      0.20400  -9999.00000  -9999.00000      1.49900      5.33400
 574.4  -9999.00000     50.56400     29.21000      0.20400  -9999.00000  -9999.00000      1.46900      5.58800
 574.6  -9999.00000     44.90400     28.95600      0.20300  -9999.00000  -9999.00000      1.43100      5.23200
 574.8  -9999.00000     39.24300     28.19400      0.20300  -9999.00000  -9999.00000      1.40000      4.87700
 575.0  -9999.00000     34.79800     27.43200      0.20300  -9999.00000  -9999.00000      1.46100      4.52100
 575.2  -9999.00000     34.16300     26.41600      0.20200  -9999.00000  -9999.00000      1.52200      4.11500
 575.4  -9999.00000     35.17900     25.65400      0.20200  -9999.00000  -9999.00000      1.52200      3.96200
 575.6  -9999.00000     37.71900     25.65400      0.20300  -9999.00000  -9999.00000      1.58300      3.91200
 575.8  -9999.00000     43.20500     25.90800      0.20300  -9999.00000  -9999.00000      1.67400      4.01300
 576.0  -9999.00000     48.69200     26.16200      0.20400  -9999.00000  -9999.00000      1.70500      3.60700
 576.2  -9999.00000     53.34000     25.90800      0.20200  -9999.00000  -9999.00000      1.71300      2.89600
 576.4  -9999.00000     59.69000     25.40000      0.20100  -9999.00000  -9999.00000      1.65900      2.48900
 576.6  -9999.00000     60.96000     25.40000      0.20100  -9999.00000  -9999.00000      1.63600      2.23500
 576.8  -9999.00000     61.59500     25.14600      0.20100  -9999.00000  -9999.00000      1.65900      2.03200
 577.0  -9999.00000     59.69000     24.89200      0.20100  -9999.00000  -9999.00000      1.67400      1.93000
 577.2  -9999.00000     57.78500     24.89200      0.20100  -9999.00000  -9999.00000      1.66700      2.13400
 577.4  -9999.00000     53.97500     24.63800      0.20100  -9999.00000  -9999.00000      1.59800      2.33700
 577.6  -9999.00000     49.53000     24.63800      0.20100  -9999.00000  -9999.00000      1.56800      2.48900
 577.8  -9999.00000     45.87900     23.87600      0.20100  -9999.00000  -9999.00000      1.49900      2.79400
 578.0  -9999.00000     42.22800     22.60600      0.20100  -9999.00000  -9999.00000      1.50700      3.35300
 578.2  -9999.00000     38.57600     22.09800      0.20100  -9999.00000  -9999.00000      1.57500      3.55600
 578.4  -9999.00000     34.92500     22.35200      0.20100  -9999.00000  -9999.00000      1.60600      3.35300
 578.6  -9999.00000     30.73400     22.60600      0.20100  -9999.00000  -9999.00000      1.63600      3.15000
 578.8  -9999.00000     28.57500     21.84400      0.20100  -9999.00000  -9999.00000      1.56000      3.09900
 579.0  -9999.00000     27.81300     21.08200      0.20100  -9999.00000  -9999.00000      1.46900      3.15000
 579.2  -9999.00000     27.68600     20.32000      0.20100  -9999.00000  -9999.00000      1.46100      3.20000
 579.4  -9999.00000     27.81300     20.32000      0.20100  -9999.00000  -9999.00000      1.48400      3.09900
 579.6  -9999.00000     31.11500     20.57400      0.20000  -9999.00000  -9999.00000      1.52200      3.20000
 579.8  -9999.00000     36.44900     20.82800      0.20100  -9999.00000  -9999.00000      1.50700      2.94600
 580.0  -9999.00000     40.69600     20.82800      0.20300  -9999.00000  -9999.00000      1.49900      2.64200
 580.2  -9999.00000     45.12700     20.82800      0.20400  -9999.00000  -9999.00000      1.49200      2.33700
 580.4  -9999.00000     49.55800     21.59000      0.20500  -9999.00000  -9999.00000      1.49200      2.43800
 580.6  -9999.00000     53.98900     22.60600      0.20600  -9999.00000  -9999.00000      1.49900      2.69200
 580.8  -9999.00000     58.42000     23.62200      0.20500  -9999.00000  -9999.00000      1.62900      2.74300
 581.0  -9999.00000     64.77000     23.11400      0.20400  -9999.00000  -9999.00000      1.69700      2.38800
 581.2  -9999.00000     75.56500     22.35200      0.20300  -9999.00000  -9999.00000      1.74300      2.38800
 581.4  -9999.00000     87.63000     22.09800      0.20200  -9999.00000  -9999.00000      1.71300      2.59100
 581.6  -9999.00000     99.69500     22.09800      0.20200  -9999.00000  -9999.00000      1.72800      2.89600
 581.8  -9999.00000    106.04500     21.59000      0.20300  -9999.00000  -9999.00000      1.70500      2.69200
 582.0  -9999.00000    111.12500     21.59000      0.20400  -9999.00000  -9999.00000      1.57500      2.43800
 582.2  -9999.00000    114.30000     21.84400      0.20400  -9999.00000  -9999.00000      1.53700      2.38800
 582.4  -9999.00000    116.84000     22.09800      0.20400  -9999.00000  -9999.00000      1.45300      2.38800
 582.6  -9999.00000    119.38000     21.33600      0.20300  -9999.00000  -9999.00000      1.43800      2.54000
 582.8  -9999.00000    123.82500     21.33600      0.20300  -9999.00000  -9999.00000      1.44600      2.69200
 583.0  -9999.00000    127.00000     20.82800      0.20300  -9999.00000  -9999.00000      1.51400      2.69200
 583.2  -9999.00000    130.17500     20.57400      0.20200  -9999.00000  -9999.00000      1.57500      2.59100
 583.4  -9999.00000    132.71500     20.32000      0.20200  -9999.00000  -9999.00000      1.59100      2.43800
 583.6  -9999.00000    133.35001     20.32000      0.20300  -9999.00000  -9999.00000      1.68200      2.23500
 583.8  -9999.00000    131.44501     19.55800      0.20200  -9999.00000  -9999.00000      1.77300      1.93000
 584.0  -9999.00000    128.27000     19.30400      0.20200  -9999.00000  -9999.00000      1.74300      1.82900
 584.2  -9999.00000    124.46000     19.81200      0.20200  -9999.00000  -9999.00000      1.68200      1.88000
 584.4  -9999.00000    121.28500     20.82800      0.20200  -9999.00000  -9999.00000      1.57500      1.98100
 584.6  -9999.00000    118.74500     21.84400      0.20300  -9999.00000  -9999.00000      1.59100      1.98100
 584.8  -9999.00000    118.11000     22.35200      0.20200  -9999.00000  -9999.00000      1.70500      1.98100
