~Version information
VERS.              2.00:   CWLS LOG ASCII STANDARD -VERSION 2.00
WRAP.                NO:   one line per depth step
~Well Information Block
#MNEM.UNIT     DATA         DESCRIPTION OF MNEMONIC
#--------  --------------   ------------------------
STRT.M                 1.00:START DEPTH
STOP.M              1051.00:STOP DEPTH
STEP.M                 0.20:STEP VALUE
NULL.           -9999.00000:NULL VALUE
COMP.        YDMYRTGEOLOGIA:COMPANY NAME
WELL.                 13015:WELL NAME
FLD .            VAYATSKAYA:FIELD NAME
CTRY.                RUSSIA:COUNTRY
DATE.              28.09.92:DATE
UWI .                 13015:UNIQUE WELL IDENTIFIER
SRVC.                  ????:???????? ????????? ???????? ???
SRVC_OC.                ???:???????? ????????? ????????-?????????
~Parameter Information Block
#MNEM.UNIT       Value     Description of mnemonic
#---------   -----------   ------------------------------------
EKB .M            182.45:   Elevation Kelly Bushing
TDL.M               1051:   Total Depth
SCD .M       -9999.00000:   Surface Casing Diameter
SCDP.M       -9999.00000:   Surface Casing Depth
CD  .M             0.230:   Casing Diameter
CDP .M               402:   Casing Depth
BS  .M             0.216:   Bit Size
                    CLAY:   Drill Fluid Type
DFD .G/CM3     1.24-1.25:   Drill Fluid Density
DFV .S           30-36.0:   Drill Fluid Viscosity
RMF.OHMM            0.07:   Mud Filtrate Resistivity
MT  .C             18.00:   Meas Temperature
                   DRST3:   Cartridge Gamma
TAU_GR.S            3.00:   GR Time Constant
K_GK         -9999.00000:   ????. ????????
SPEED.M/H    -9999.00000:   Speed M/Hour
                  NGK_60:   Probe NGR
USL_ED.IMP/MIN      6000:   1 ???.??.
OTN_KNL.GR/NGR         9:   ????????? ???????
TAU_NGR.S           3.00:   NGR Time Constant
SPEED.M/H    -9999.00000:   Speed M/Hour
                    AIKM:   Cartridge IK
                     6F1:   Probe IK
                     K_3:   Cartridge BK
             -9999.00000:   Probe BK
                     K_3:   Cartridge GZ3
       Lower  sonde 0.5M:   Probe BKZ
                SPEZSOND:   Cartridge SP
                   SKP-1:   Cartridge DS
                    USBA:   Cartridge DT
             -9999.00000:   Probe DT
~Curve Information Block
#MNEM.UNIT       API CODE     Curve Description
#---------    -------------   --------------------------------
DEPT.M                    :    1    DEPTH M
BK.OHMM                   :    2    LATEROLOG DEEP
PZ.OHMM                   :    3    SONDE BKZ 02.5M
SP.MV                     :    4    SPONTANEOUS POTENTIALS MVOLT
DS.M                      :    5    CALIPER
DT.MCS                    :    6    DELTA TIME INTERVAL TRANSIT TIME MCSEC/M
IK.MSM/M                  :    7    INDUCTION (CONDUCTIVITY) LOG DEEP MSM/M
NGR.UE                    :    8    NEUTRON GAMMA RAY
GR.MCR/H                  :    9    GAMMA RAY MICRO_ROENTGENS PER HOUR
~A DEPTH      BK            PZ         SP            DS           DT          IK           NGR          GR
# ...
 453.6  -9999.00000     21.20900     18.79600      0.21100  -9999.00000  -9999.00000      1.81900      1.21900
 453.8  -9999.00000     21.08200     19.30400      0.21100  -9999.00000  -9999.00000      1.78100      1.27000
 454.0  -9999.00000     21.71700     18.54200      0.21100  -9999.00000  -9999.00000      1.62900      1.16800
 454.2  -9999.00000     22.98700     17.78000      0.21100  -9999.00000  -9999.00000      1.50700      1.01600
 454.4  -9999.00000     26.92400     17.27200      0.21200  -9999.00000  -9999.00000      1.46100      0.91400
 454.6  -9999.00000     29.59100     16.76400      0.21200  -9999.00000  -9999.00000      1.46900      1.01600
 454.8  -9999.00000     31.49600     16.00200      0.21200  -9999.00000  -9999.00000      1.47600      1.21900
 455.0  -9999.00000     33.40100     15.24000      0.21200  -9999.00000  -9999.00000      1.50700      1.11800
 455.2  -9999.00000     35.94100     14.47800      0.21200  -9999.00000  -9999.00000      1.51400      1.06700
 455.4  -9999.00000     36.70300     14.73200      0.21100  -9999.00000  -9999.00000      1.60600      1.11800
 455.6  -9999.00000     35.94100     15.24000      0.21100  -9999.00000  -9999.00000      1.70500      1.21900
 455.8  -9999.00000     33.27400     15.49400      0.21100  -9999.00000  -9999.00000      1.81900      1.42200
 456.0  -9999.00000     28.70200     16.25600      0.21100  -9999.00000  -9999.00000      1.89500      1.52400
 456.2  -9999.00000     25.01900     16.51000      0.21100  -9999.00000  -9999.00000      1.93300      1.62600
 456.4  -9999.00000     23.11400     17.01800      0.21100  -9999.00000  -9999.00000      1.79600      1.72700
 456.6  -9999.00000     22.47900     17.78000      0.21100  -9999.00000  -9999.00000      1.75100      1.62600
 456.8  -9999.00000     21.20900     19.05000      0.21100  -9999.00000  -9999.00000      1.85700      1.32100
 457.0  -9999.00000     20.95500     19.55800      0.21000  -9999.00000  -9999.00000      1.97900      1.37200
 457.2  -9999.00000     21.59000     18.79600      0.21000  -9999.00000  -9999.00000      2.00200      1.42200
 457.4  -9999.00000     20.70100     17.01800      0.21000  -9999.00000  -9999.00000      1.94900      1.37200
 457.6  -9999.00000     19.68500     15.74800      0.21000  -9999.00000  -9999.00000      1.83400      1.27000
 457.8  -9999.00000     19.17700     15.49400      0.20900  -9999.00000  -9999.00000      1.79600      1.21900
 458.0  -9999.00000     19.43100     15.49400      0.20900  -9999.00000  -9999.00000      1.85000      1.27000
 458.2  -9999.00000     20.32000     15.49400      0.20900  -9999.00000  -9999.00000      1.81900      1.32100
 458.4  -9999.00000     20.82800     14.98600      0.20900  -9999.00000  -9999.00000      1.81200      1.42200
 458.6  -9999.00000     22.86000     14.73200      0.20800  -9999.00000  -9999.00000      1.79600      1.32100
 458.8  -9999.00000     27.55900     14.47800      0.20800  -9999.00000  -9999.00000      1.77300      1.21900
 459.0  -9999.00000     32.38500     14.22400      0.20700  -9999.00000  -9999.00000      1.72800      1.21900
 459.2  -9999.00000     37.08400     14.22400      0.20700  -9999.00000  -9999.00000      1.66700      1.37200
 459.4  -9999.00000     37.08400     14.73200      0.20600  -9999.00000  -9999.00000      1.54500      1.52400
 459.6  -9999.00000     34.79800     15.24000      0.20600  -9999.00000  -9999.00000      1.45300      1.82900
 459.8  -9999.00000     31.24200     15.24000      0.20600  -9999.00000  -9999.00000      1.27100      2.03200
 460.0  -9999.00000     26.92400     15.24000      0.20600  -9999.00000  -9999.00000      1.05700      2.13400
 460.2  -9999.00000     20.06600     15.74800      0.20600  -9999.00000  -9999.00000      1.08000      1.82900
 460.4  -9999.00000     14.85900     15.49400      0.20600  -9999.00000  -9999.00000      0.97300      1.82900
 460.6  -9999.00000     14.85900     15.24000      0.20600  -9999.00000  -9999.00000      0.91200      1.93000
 460.8  -9999.00000     13.58900     15.24000      0.20600  -9999.00000  -9999.00000      0.89000      1.93000
 461.0  -9999.00000     12.31900     14.73200      0.20600  -9999.00000  -9999.00000      0.87400      1.98100
 461.2  -9999.00000     12.95400     14.22400      0.20600  -9999.00000  -9999.00000      0.92800      1.98100
 461.4  -9999.00000     11.55700     14.22400      0.20600  -9999.00000  -9999.00000      0.98900      2.03200
 461.6  -9999.00000      9.77900     14.47800      0.20600  -9999.00000  -9999.00000      0.95800      2.03200
 461.8  -9999.00000      9.77900     14.47800      0.20600  -9999.00000  -9999.00000      0.93500      1.98100
 462.0  -9999.00000      8.76300     14.47800      0.20600  -9999.00000  -9999.00000      0.98100      1.88000
 462.2  -9999.00000      6.85800     14.47800      0.20700  -9999.00000  -9999.00000      1.00400      1.82900
 462.4  -9999.00000      6.73100     14.47800      0.20800  -9999.00000  -9999.00000      1.04200      1.72700
 462.6  -9999.00000      8.50900     14.73200      0.20700  -9999.00000  -9999.00000      1.05000      1.88000
 462.8  -9999.00000     12.06500     14.73200      0.20600  -9999.00000  -9999.00000      1.09500      2.28600
 463.0  -9999.00000     18.03400     14.98600      0.20600  -9999.00000  -9999.00000      1.21700      2.23500
 463.2  -9999.00000     25.01900     15.49400      0.20600  -9999.00000  -9999.00000      1.33200      2.23500
 463.4  -9999.00000     33.54900     16.00200      0.20600  -9999.00000  -9999.00000      1.48400      2.33700
 463.6  -9999.00000     41.46500     19.05000      0.20600  -9999.00000  -9999.00000      1.65200      2.43800
 463.8  -9999.00000     49.38200     18.54200      0.20600  -9999.00000  -9999.00000      1.83400      2.74300
 464.0  -9999.00000     55.24500     18.54200      0.20600  -9999.00000  -9999.00000      1.77300      3.25100
 464.2  -9999.00000     57.78500     18.03400      0.20600  -9999.00000  -9999.00000      1.65900      3.40400
 464.4  -9999.00000     60.32500     18.03400      0.20500  -9999.00000  -9999.00000      1.56000      3.50500
 464.6  -9999.00000     62.86500     17.78000      0.20500  -9999.00000  -9999.00000      1.59800      3.60700
 464.8  -9999.00000     64.77000     18.28800      0.20500  -9999.00000  -9999.00000      1.69700      3.65800
 465.0  -9999.00000     66.04000     19.30400      0.20500  -9999.00000  -9999.00000      1.94900      4.16600
 465.2  -9999.00000     66.04000     19.55800      0.20500  -9999.00000  -9999.00000      2.15400      4.72400
 465.4  -9999.00000     64.13500     19.30400      0.20500  -9999.00000  -9999.00000      2.43600      5.28300
 465.6  -9999.00000     61.59500     19.30400      0.20500  -9999.00000  -9999.00000      2.59600      6.14700
 465.8  -9999.00000     55.88000     18.54200      0.20500  -9999.00000  -9999.00000      2.69500      6.55300
 466.0  -9999.00000     46.99000     17.78000      0.20500  -9999.00000  -9999.00000      2.53500      6.90900
 466.2  -9999.00000     41.70700     17.78000      0.20500  -9999.00000  -9999.00000      2.36000      7.06100
 466.4  -9999.00000     36.42400     15.74800      0.20500  -9999.00000  -9999.00000      2.32200      6.96000
 466.6  -9999.00000     31.87700     14.22400      0.20500  -9999.00000  -9999.00000      2.36000      6.80700
 466.8  -9999.00000     33.65500     13.20800      0.20500  -9999.00000  -9999.00000      2.40600      7.77200
 467.0  -9999.00000     37.59200     12.44600      0.20500  -9999.00000  -9999.00000      2.33700      8.28000
 467.2  -9999.00000     39.62400     11.93800      0.20600  -9999.00000  -9999.00000      2.12400      6.90900
 467.4  -9999.00000     38.60800     11.68400      0.20600  -9999.00000  -9999.00000      1.91100      5.18200
 467.6  -9999.00000     34.79800     11.93800      0.20700  -9999.00000  -9999.00000      1.69700      5.23200
 467.8  -9999.00000     32.38500     11.93800      0.20800  -9999.00000  -9999.00000      1.61300      5.84200
 468.0  -9999.00000     29.97200     12.19200      0.20800  -9999.00000  -9999.00000      1.82700      6.75600
