~Version information
VERS.              2.00:   CWLS LOG ASCII STANDARD -VERSION 2.00
WRAP.                NO:   one line per depth step
~Well Information Block
#MNEM.UNIT     DATA         DESCRIPTION OF MNEMONIC
#--------  --------------   ------------------------
STRT.M                 1.00:START DEPTH
STOP.M              1051.00:STOP DEPTH
STEP.M                 0.20:STEP VALUE
NULL.           -9999.00000:NULL VALUE
COMP.        YDMYRTGEOLOGIA:COMPANY NAME
WELL.                 13015:WELL NAME
FLD .            VAYATSKAYA:FIELD NAME
CTRY.                RUSSIA:COUNTRY
DATE.              28.09.92:DATE
UWI .                 13015:UNIQUE WELL IDENTIFIER
SRVC.                  ????:???????? ????????? ???????? ???
SRVC_OC.                ???:???????? ????????? ????????-?????????
~Parameter Information Block
#MNEM.UNIT       Value     Description of mnemonic
#---------   -----------   ------------------------------------
EKB .M            182.45:   Elevation Kelly Bushing
TDL.M               1051:   Total Depth
SCD .M       -9999.00000:   Surface Casing Diameter
SCDP.M       -9999.00000:   Surface Casing Depth
CD  .M             0.230:   Casing Diameter
CDP .M               402:   Casing Depth
BS  .M             0.216:   Bit Size
                    CLAY:   Drill Fluid Type
DFD .G/CM3     1.24-1.25:   Drill Fluid Density
DFV .S           30-36.0:   Drill Fluid Viscosity
RMF.OHMM            0.07:   Mud Filtrate Resistivity
MT  .C             18.00:   Meas Temperature
                   DRST3:   Cartridge Gamma
TAU_GR.S            3.00:   GR Time Constant
K_GK         -9999.00000:   ????. ????????
SPEED.M/H    -9999.00000:   Speed M/Hour
                  NGK_60:   Probe NGR
USL_ED.IMP/MIN      6000:   1 ???.??.
OTN_KNL.GR/NGR         9:   ????????? ???????
TAU_NGR.S           3.00:   NGR Time Constant
SPEED.M/H    -9999.00000:   Speed M/Hour
                    AIKM:   Cartridge IK
                     6F1:   Probe IK
                     K_3:   Cartridge BK
             -9999.00000:   Probe BK
                     K_3:   Cartridge GZ3
       Lower  sonde 0.5M:   Probe BKZ
                SPEZSOND:   Cartridge SP
                   SKP-1:   Cartridge DS
                    USBA:   Cartridge DT
             -9999.00000:   Probe DT
~Curve Information Block
#MNEM.UNIT       API CODE     Curve Description
#---------    -------------   --------------------------------
DEPT.M                    :    1    DEPTH M
BK.OHMM                   :    2    LATEROLOG DEEP
PZ.OHMM                   :    3    SONDE BKZ 02.5M
SP.MV                     :    4    SPONTANEOUS POTENTIALS MVOLT
DS.M                      :    5    CALIPER
DT.MCS                    :    6    DELTA TIME INTERVAL TRANSIT TIME MCSEC/M
IK.MSM/M                  :    7    INDUCTION (CONDUCTIVITY) LOG DEEP MSM/M
NGR.UE                    :    8    NEUTRON GAMMA RAY
GR.MCR/H                  :    9    GAMMA RAY MICRO_ROENTGENS PER HOUR
~A DEPTH      BK            PZ         SP            DS           DT          IK           NGR          GR
# ...
 409.8  -9999.00000     72.17100     52.83200      0.21400  -9999.00000  -9999.00000      1.97200      1.11800
 410.0  -9999.00000     80.78400     52.83200      0.21500  -9999.00000  -9999.00000      2.32600      1.27000
 410.2  -9999.00000     93.34500     52.83200      0.21500  -9999.00000  -9999.00000      2.68000      1.11800
 410.4  -9999.00000    101.60000     52.83200      0.21500  -9999.00000  -9999.00000      2.77200      1.21900
 410.6  -9999.00000    106.04500     53.59400      0.21500  -9999.00000  -9999.00000      2.54200      1.42200
 410.8  -9999.00000    108.58500     52.57800      0.21500  -9999.00000  -9999.00000      2.31000      1.62600
 411.0  -9999.00000    107.95000     51.81600      0.21400  -9999.00000  -9999.00000      2.07800      1.57500
 411.2  -9999.00000    103.50500     50.80000      0.21400  -9999.00000  -9999.00000      1.97200      1.21900
 411.4  -9999.00000     93.98000     50.03800      0.21400  -9999.00000  -9999.00000      2.02500      1.27000
 411.6  -9999.00000     83.18500     49.78400      0.21300  -9999.00000  -9999.00000      1.74300      1.57500
 411.8  -9999.00000     73.02500     49.53000      0.21300  -9999.00000  -9999.00000      1.28600      1.77800
 412.0  -9999.00000     66.67500     49.27600      0.21200  -9999.00000  -9999.00000      1.06500      1.93000
 412.2  -9999.00000     62.23000     49.78400      0.21200  -9999.00000  -9999.00000      1.00400      2.03200
 412.4  -9999.00000     60.32500     50.29200      0.21100  -9999.00000  -9999.00000      1.00400      2.13400
 412.6  -9999.00000     60.32500     49.78400      0.21100  -9999.00000  -9999.00000      1.00400      2.13400
 412.8  -9999.00000     62.86500     48.76800      0.21100  -9999.00000  -9999.00000      1.08800      2.18400
 413.0  -9999.00000     66.67500     46.73600      0.21000  -9999.00000  -9999.00000      1.17900      1.98100
 413.2  -9999.00000     73.02500     45.21200      0.21000  -9999.00000  -9999.00000      1.25500      2.28600
 413.4  -9999.00000     78.74000     43.94200      0.21000  -9999.00000  -9999.00000      1.30100      2.48900
 413.6  -9999.00000     83.82000     43.18000      0.21000  -9999.00000  -9999.00000      1.29300      2.48900
 413.8  -9999.00000     86.99500     42.67200      0.21000  -9999.00000  -9999.00000      1.24000      2.48900
 414.0  -9999.00000     88.26500     41.40200      0.21000  -9999.00000  -9999.00000      1.21000      2.64200
 414.2  -9999.00000     86.36000     39.87800      0.21000  -9999.00000  -9999.00000      1.17900      2.59100
 414.4  -9999.00000     85.09000     38.60800      0.21000  -9999.00000  -9999.00000      1.14900      2.33700
 414.6  -9999.00000     82.55000     36.83000      0.21000  -9999.00000  -9999.00000      1.14900      2.33700
 414.8  -9999.00000     80.64500     33.78200      0.21000  -9999.00000  -9999.00000      1.16400      2.48900
 415.0  -9999.00000     79.37500     29.46400      0.21000  -9999.00000  -9999.00000      1.18700      2.43800
 415.2  -9999.00000     77.47000     25.40000      0.20900  -9999.00000  -9999.00000      1.23200      2.18400
 415.4  -9999.00000     76.20000     20.82800      0.20900  -9999.00000  -9999.00000      1.26300      2.08300
 415.6  -9999.00000     74.93000     16.51000      0.20900  -9999.00000  -9999.00000      1.17100      1.98100
 415.8  -9999.00000     74.29500     12.95400      0.21000  -9999.00000  -9999.00000      1.14900      1.98100
 416.0  -9999.00000     73.66000     11.17600      0.21000  -9999.00000  -9999.00000      1.15600      1.93000
 416.2  -9999.00000     73.02500      9.39800      0.21000  -9999.00000  -9999.00000      1.18700      1.82900
 416.4  -9999.00000     72.39000      8.12800      0.21000  -9999.00000  -9999.00000      1.21700      1.77800
 416.6  -9999.00000     71.12000      6.85800      0.21000  -9999.00000  -9999.00000      1.23200      1.62600
 416.8  -9999.00000     65.40500      5.84200      0.21000  -9999.00000  -9999.00000      1.21700      1.67600
 417.0  -9999.00000     56.32500      5.58800      0.21000  -9999.00000  -9999.00000      1.17900      2.18400
 417.2  -9999.00000     47.24400      5.58800      0.21000  -9999.00000  -9999.00000      1.20200      2.84500
 417.4  -9999.00000     38.16300      5.33400      0.21100  -9999.00000  -9999.00000      1.14100      3.09900
 417.6  -9999.00000     29.08300      4.57200      0.21100  -9999.00000  -9999.00000      1.08800      2.79400
 417.8  -9999.00000     25.90800      3.81000      0.21200  -9999.00000  -9999.00000      1.05000      2.69200
 418.0  -9999.00000     25.27300      3.04800      0.21200  -9999.00000  -9999.00000      1.10300      2.03200
 418.2  -9999.00000     26.16200      2.03200      0.21200  -9999.00000  -9999.00000      1.11100      1.57500
 418.4  -9999.00000     27.30500      1.27000      0.21200  -9999.00000  -9999.00000      1.12600      1.52400
 418.6  -9999.00000     28.70200      0.76200      0.21200  -9999.00000  -9999.00000      1.02700      1.52400
 418.8  -9999.00000     29.97200      0.50800      0.21100  -9999.00000  -9999.00000      1.03400      1.52400
 419.0  -9999.00000     30.98800      0.50800      0.21100  -9999.00000  -9999.00000      1.07200      1.62600
 419.2  -9999.00000     32.00400      1.01600      0.21200  -9999.00000  -9999.00000      1.13300      1.67600
 419.4  -9999.00000     32.38500      1.52400      0.21300  -9999.00000  -9999.00000      1.17100      1.67600
 419.6  -9999.00000     31.36900      2.28600      0.21300  -9999.00000  -9999.00000      1.12600      1.88000
 419.8  -9999.00000     28.06700      2.54000      0.21300  -9999.00000  -9999.00000      1.11800      2.08300
 420.0  -9999.00000     24.76500      2.54000      0.21200  -9999.00000  -9999.00000      1.04200      2.18400
 420.2  -9999.00000     21.33600      2.54000      0.21100  -9999.00000  -9999.00000      1.06500      2.18400
 420.4  -9999.00000     20.19300      2.79400      0.21100  -9999.00000  -9999.00000      1.04200      2.33700
 420.6  -9999.00000     18.79600      3.30200      0.21200  -9999.00000  -9999.00000      0.99600      2.43800
 420.8  -9999.00000     17.27200      4.82600      0.21300  -9999.00000  -9999.00000      0.98100      2.33700
 421.0  -9999.00000     16.51000      5.58800      0.21300  -9999.00000  -9999.00000      1.01100      2.23500
 421.2  -9999.00000     16.63700      5.08000      0.21300  -9999.00000  -9999.00000      1.04200      2.18400
 421.4  -9999.00000     18.54200      4.57200      0.21300  -9999.00000  -9999.00000      1.06500      2.08300
 421.6  -9999.00000     23.24100      4.06400      0.21200  -9999.00000  -9999.00000      1.11100      2.03200
 421.8  -9999.00000     28.70200      3.30200      0.21200  -9999.00000  -9999.00000      1.11100      1.93000
 422.0  -9999.00000     35.70500      2.54000      0.21200  -9999.00000  -9999.00000      1.13300      1.93000
 422.2  -9999.00000     42.85300      2.03200      0.21100  -9999.00000  -9999.00000      1.13300      1.77800
 422.4  -9999.00000     50.00200      2.03200      0.21100  -9999.00000  -9999.00000      1.14100      1.47300
 422.6  -9999.00000     57.15000      2.28600      0.21000  -9999.00000  -9999.00000      1.13300      1.62600
 422.8  -9999.00000     64.77000      2.79400      0.21000  -9999.00000  -9999.00000      1.17100      1.72700
 423.0  -9999.00000     67.31000      3.55600      0.20900  -9999.00000  -9999.00000      1.14900      1.82900
 423.2  -9999.00000     69.85000      5.08000      0.20900  -9999.00000  -9999.00000      1.14100      2.08300
 423.4  -9999.00000     71.12000      6.60400      0.20900  -9999.00000  -9999.00000      1.13300      2.03200
 423.6  -9999.00000     74.29500      8.12800      0.20800  -9999.00000  -9999.00000      1.14900      1.93000
 423.8  -9999.00000     76.83500      9.14400      0.20800  -9999.00000  -9999.00000      1.17900      2.03200
 424.0  -9999.00000     79.37500     10.41400      0.20800  -9999.00000  -9999.00000      1.19400      2.03200
 424.2  -9999.00000     79.37500     12.44600      0.20700  -9999.00000  -9999.00000      1.16400      1.82900
