~Version information
VERS.              2.00:   CWLS LOG ASCII STANDARD -VERSION 2.00
WRAP.                NO:   one line per depth step
~Well Information Block
#MNEM.UNIT     DATA         DESCRIPTION OF MNEMONIC
#--------  --------------   ------------------------
STRT.M                 1.00:START DEPTH
STOP.M              1051.00:STOP DEPTH
STEP.M                 0.20:STEP VALUE
NULL.           -9999.00000:NULL VALUE
COMP.        YDMYRTGEOLOGIA:COMPANY NAME
WELL.                 13015:WELL NAME
FLD .            VAYATSKAYA:FIELD NAME
CTRY.                RUSSIA:COUNTRY
DATE.              28.09.92:DATE
UWI .                 13015:UNIQUE WELL IDENTIFIER
SRVC.                  ????:???????? ????????? ???????? ???
SRVC_OC.                ???:???????? ????????? ????????-?????????
~Parameter Information Block
#MNEM.UNIT       Value     Description of mnemonic
#---------   -----------   ------------------------------------
EKB .M            182.45:   Elevation Kelly Bushing
TDL.M               1051:   Total Depth
SCD .M       -9999.00000:   Surface Casing Diameter
SCDP.M       -9999.00000:   Surface Casing Depth
CD  .M             0.230:   Casing Diameter
CDP .M               402:   Casing Depth
BS  .M             0.216:   Bit Size
                    CLAY:   Drill Fluid Type
DFD .G/CM3     1.24-1.25:   Drill Fluid Density
DFV .S           30-36.0:   Drill Fluid Viscosity
RMF.OHMM            0.07:   Mud Filtrate Resistivity
MT  .C             18.00:   Meas Temperature
                   DRST3:   Cartridge Gamma
TAU_GR.S            3.00:   GR Time Constant
K_GK         -9999.00000:   ????. ????????
SPEED.M/H    -9999.00000:   Speed M/Hour
                  NGK_60:   Probe NGR
USL_ED.IMP/MIN      6000:   1 ???.??.
OTN_KNL.GR/NGR         9:   ????????? ???????
TAU_NGR.S           3.00:   NGR Time Constant
SPEED.M/H    -9999.00000:   Speed M/Hour
                    AIKM:   Cartridge IK
                     6F1:   Probe IK
                     K_3:   Cartridge BK
             -9999.00000:   Probe BK
                     K_3:   Cartridge GZ3
       Lower  sonde 0.5M:   Probe BKZ
                SPEZSOND:   Cartridge SP
                   SKP-1:   Cartridge DS
                    USBA:   Cartridge DT
             -9999.00000:   Probe DT
~Curve Information Block
#MNEM.UNIT       API CODE     Curve Description
#---------    -------------   --------------------------------
DEPT.M                    :    1    DEPTH M
BK.OHMM                   :    2    LATEROLOG DEEP
PZ.OHMM                   :    3    SONDE BKZ 02.5M
SP.MV                     :    4    SPONTANEOUS POTENTIALS MVOLT
DS.M                      :    5    CALIPER
DT.MCS                    :    6    DELTA TIME INTERVAL TRANSIT TIME MCSEC/M
IK.MSM/M                  :    7    INDUCTION (CONDUCTIVITY) LOG DEEP MSM/M
NGR.UE                    :    8    NEUTRON GAMMA RAY
GR.MCR/H                  :    9    GAMMA RAY MICRO_ROENTGENS PER HOUR
~A DEPTH      BK            PZ         SP            DS           DT          IK           NGR          GR
# ...
 833.2  -9999.00000     12.44600     36.57600      0.21300  -9999.00000  -9999.00000      1.61300      3.20000
 833.4  -9999.00000     14.35100     37.08400      0.21400  -9999.00000  -9999.00000      1.67400      2.69200
 833.6  -9999.00000     15.87500     37.08400      0.21400  -9999.00000  -9999.00000      1.52200      2.48900
 833.8  -9999.00000     15.87500     37.59200      0.21400  -9999.00000  -9999.00000      1.49900      2.48900
 834.0  -9999.00000     14.73200     38.60800      0.21300  -9999.00000  -9999.00000      1.65200      2.64200
 834.2  -9999.00000     13.20800     39.62400      0.21300  -9999.00000  -9999.00000      1.70500      2.74300
 834.4  -9999.00000     13.20800     40.38600      0.21300  -9999.00000  -9999.00000      1.53000      2.74300
 834.6  -9999.00000     13.97000     40.13200      0.21300  -9999.00000  -9999.00000      1.47600      2.84500
 834.8  -9999.00000     14.73200     39.87800      0.21300  -9999.00000  -9999.00000      1.55300      3.04800
 835.0  -9999.00000     15.11300     39.37000      0.21200  -9999.00000  -9999.00000      1.62100      2.89600
 835.2  -9999.00000     14.47800     39.62400      0.21100  -9999.00000  -9999.00000      1.69700      2.48900
 835.4  -9999.00000     13.46200     39.11600      0.21100  -9999.00000  -9999.00000      1.67400      2.43800
 835.6  -9999.00000     12.57300     38.86200      0.21200  -9999.00000  -9999.00000      1.57500      2.43800
 835.8  -9999.00000     11.93800     39.87800      0.21300  -9999.00000  -9999.00000      1.49900      2.54000
 836.0  -9999.00000     11.93800     40.13200      0.21400  -9999.00000  -9999.00000      1.56000      2.59100
 836.2  -9999.00000     11.93800     40.13200      0.21500  -9999.00000  -9999.00000      1.61300      2.69200
 836.4  -9999.00000     11.93800     40.13200      0.21500  -9999.00000  -9999.00000      1.66700      2.69200
 836.6  -9999.00000     11.68400     40.13200      0.21700  -9999.00000  -9999.00000      1.59800      2.43800
 836.8  -9999.00000     11.55700     40.64000      0.21800  -9999.00000  -9999.00000      1.54500      2.18400
 837.0  -9999.00000     12.57300     40.64000      0.21900  -9999.00000  -9999.00000      1.55300      2.28600
 837.2  -9999.00000     13.46200     41.65600      0.21800  -9999.00000  -9999.00000      1.69000      2.59100
 837.4  -9999.00000     13.58900     42.41800      0.21600  -9999.00000  -9999.00000      1.77300      3.15000
 837.6  -9999.00000     10.92200     42.92600      0.21500  -9999.00000  -9999.00000      1.80400      3.55600
 837.8  -9999.00000      8.38200     42.92600      0.21500  -9999.00000  -9999.00000      1.75800      3.75900
 838.0  -9999.00000      6.22300     43.18000      0.21400  -9999.00000  -9999.00000      1.72000      3.75900
 838.2  -9999.00000      4.95300     44.19600      0.21300  -9999.00000  -9999.00000      1.75800      3.60700
 838.4  -9999.00000      4.19100     45.21200      0.21300  -9999.00000  -9999.00000      1.83400      3.45400
 838.6  -9999.00000      3.81000     46.22800      0.21300  -9999.00000  -9999.00000      1.91100      3.25100
 838.8  -9999.00000      3.55600     47.24400      0.21400  -9999.00000  -9999.00000      1.97200      2.99700
 839.0  -9999.00000      3.55600     48.51400      0.21400  -9999.00000  -9999.00000      1.91100      2.69200
 839.2  -9999.00000      3.68300     49.78400      0.21500  -9999.00000  -9999.00000      1.84200      2.94600
 839.4  -9999.00000      3.81000     50.54600      0.21500  -9999.00000  -9999.00000      1.91800      3.04800
 839.6  -9999.00000      3.93700     51.81600      0.21600  -9999.00000  -9999.00000      2.03300      2.79400
 839.8  -9999.00000      4.19100     52.83200      0.21600  -9999.00000  -9999.00000      1.94100      2.69200
 840.0  -9999.00000      4.44500     54.61000      0.21700  -9999.00000  -9999.00000      1.85700      2.69200
 840.2  -9999.00000      4.95300     56.38800      0.21800  -9999.00000  -9999.00000      1.92600      2.74300
 840.4  -9999.00000      5.84200     58.67400      0.21800  -9999.00000  -9999.00000      2.01700      2.43800
 840.6  -9999.00000      7.11200     59.94400      0.21900  -9999.00000  -9999.00000      2.10100      2.03200
 840.8  -9999.00000      9.52500     61.46800      0.21900  -9999.00000  -9999.00000      2.18500      2.18400
 841.0  -9999.00000     11.93800     61.21400      0.21900  -9999.00000  -9999.00000      2.05500      1.88000
 841.2  -9999.00000     14.60500     60.70600      0.22000  -9999.00000  -9999.00000      1.91100      1.57500
 841.4  -9999.00000     17.52600     61.21400      0.21900  -9999.00000  -9999.00000      1.75800      1.57500
 841.6  -9999.00000     20.32000     62.73800      0.21900  -9999.00000  -9999.00000      1.61300      1.72700
 841.8  -9999.00000     22.35200     63.50000      0.21800  -9999.00000  -9999.00000      1.59100      1.88000
 842.0  -9999.00000     24.38400     64.77000      0.21900  -9999.00000  -9999.00000      1.62900      2.13400
 842.2  -9999.00000     22.47900     65.27800      0.22100  -9999.00000  -9999.00000      1.65900      2.54000
 842.4  -9999.00000     17.01800     64.51600      0.22300  -9999.00000  -9999.00000      1.49900      3.40400
 842.6  -9999.00000     11.68400     62.23000      0.22100  -9999.00000  -9999.00000      1.40800      4.21600
 842.8  -9999.00000      8.12800     58.67400      0.21700  -9999.00000  -9999.00000      1.45300      4.92800
 843.0  -9999.00000      6.98500     53.59400      0.21400  -9999.00000  -9999.00000      1.49200      4.11500
 843.2  -9999.00000      8.25500     50.03800      0.21300  -9999.00000  -9999.00000      1.51400      3.45400
 843.4  -9999.00000     11.55700     46.48200      0.21300  -9999.00000  -9999.00000      1.46100      2.94600
 843.6  -9999.00000     14.35100     44.45000      0.21300  -9999.00000  -9999.00000      1.40800      2.54000
 843.8  -9999.00000     17.01800     42.92600      0.21400  -9999.00000  -9999.00000      1.35400      2.13400
 844.0  -9999.00000     18.66900     42.67200      0.21400  -9999.00000  -9999.00000      1.30900      2.03200
 844.2  -9999.00000     18.28800     43.94200      0.21400  -9999.00000  -9999.00000      1.28600      2.18400
 844.4  -9999.00000     17.14500     45.46600      0.21500  -9999.00000  -9999.00000      1.27800      2.38800
 844.6  -9999.00000     15.24000     46.73600      0.21400  -9999.00000  -9999.00000      1.29300      2.48900
 844.8  -9999.00000     13.08100     48.26000      0.21500  -9999.00000  -9999.00000      1.27800      2.59100
 845.0  -9999.00000     10.16000     49.27600      0.21500  -9999.00000  -9999.00000      1.28600      2.79400
 845.2  -9999.00000      8.25500     50.29200      0.21500  -9999.00000  -9999.00000      1.33200      3.20000
 845.4  -9999.00000      6.85800     50.54600      0.21400  -9999.00000  -9999.00000      1.33200      3.65800
 845.6  -9999.00000      6.35000     49.78400      0.21400  -9999.00000  -9999.00000      1.31600      3.75900
 845.8  -9999.00000      7.87400     44.95800      0.21300  -9999.00000  -9999.00000      1.30100      3.25100
 846.0  -9999.00000     10.16000     40.38600      0.21400  -9999.00000  -9999.00000      1.28600      2.43800
 846.2  -9999.00000     12.95400     37.33800      0.21400  -9999.00000  -9999.00000      1.28600      2.08300
 846.4  -9999.00000     15.36700     35.56000      0.21500  -9999.00000  -9999.00000      1.32400      2.03200
 846.6  -9999.00000     16.12900     34.54400      0.21500  -9999.00000  -9999.00000      1.35400      2.03200
 846.8  -9999.00000     16.25600     33.78200      0.21500  -9999.00000  -9999.00000      1.34700      1.98100
 847.0  -9999.00000     15.36700     33.52800      0.21500  -9999.00000  -9999.00000      1.33900      1.93000
 847.2  -9999.00000     16.25600     33.27400      0.21500  -9999.00000  -9999.00000      1.32400      2.08300
 847.4  -9999.00000     17.65300     32.76600      0.21400  -9999.00000  -9999.00000      1.30100      2.18400
 847.6  -9999.00000     20.44700     34.79800      0.21300  -9999.00000  -9999.00000      1.32400      2.13400
