~Version information
VERS.              2.00:   CWLS LOG ASCII STANDARD -VERSION 2.00
WRAP.                NO:   one line per depth step
~Well Information Block
#MNEM.UNIT     DATA         DESCRIPTION OF MNEMONIC
#--------  --------------   ------------------------
STRT.M                 4.40:START DEPTH
STOP.M              1087.60:STOP DEPTH
STEP.M                 0.20:STEP VALUE
NULL.           -9999.00000:NULL VALUE
WELL.                 13416:WELL NAME
FLD .             VYATSKAYA:FIELD NAME
CTRY.                RUSSIA:COUNTRY
DATE.            13.12.1988:DATE
UWI .                 13416:UNIQUE WELL IDENTIFIER
SRVC.         ÄêãÄçëäÄü èÉä:çÄáÇÄçàÖ ëÖêÇàëçéâ äéåèÄçàà Éàë
SRVC_OC.                ààí:çÄáÇÄçàÖ ëÖêÇàëçéâ äéåèÄçàà-éñàîêéÇäÄ
~Parameter Information Block
#MNEM.UNIT       Value     Description of mnemonic
#---------   -----------   ------------------------------------
EKB .M               157.98: Elevation Kelly Bushing
TDL.M                  1087: Total Depth
SCD .M          -9999.00000: Surface Casing Diameter
SCDP.M          -9999.00000: Surface Casing Depth
CD  .M                0.228: Casing Diameter
CDP .M                  412: Casing Depth
BS  .M                0.216: Bit Size
                       CLAY: Drill Fluid Type
DFD .G/CM3        1.07-1.09: Drill Fluid Density
DFV .S                22-24: Drill Fluid Viscosity
RMF.OHMM               0.07: Mud Filtrate Resistivity
MT  .C                   18: Meas Temperature
                      DRST3: Cartridge Gamma
TAU_GR.S              1.5;3: GR Time Constant
K_GK                   1580: äéùî. èÖêÖïéÑÄ
SPEED.M/H               890: Speed M/Hour
                     NGK_60: Probe NGR
USL_ED.IMP/MIN         5500: 1 ìëã.ÖÑ.
OTN_KNL.GR/NGR            9: éíçéòÖçàÖ äÄçÄãéÇ
TAU_NGR.S             1.5;3: NGR Time Constant
SPEED.M/H               890: Speed M/Hour
                        K_3: Cartridge BK
                       BK_3: Probe BK
                       USBA: Cartridge DT
                 Sonde 1.4M: Probe DT
                      SKP_1: Cartridge DS
~Curve Information Block
#MNEM.UNIT       API CODE     Curve Description
#---------    -------------   --------------------------------
DEPT.M                    :    1    DEPTH M
BK.OHMM                   :    2    LATEROLOG DEEP
DS.M                      :    3    CALIPER
DT.MCS                    :    4    DELTA TIME INTERVAL TRANSIT TIME MCSEC/M
GR.MCR/H                  :    5    GAMMA RAY MICRO_ROENTGENS PER HOUR
NGR.UE                    :    6    NEUTRON GAMMA RAY
~A DEPT.M       BK           DS           DT           GR           NGR          
# ...
   670.00        1.49100      0.21800  -9999.00000      4.07500      1.73900
   670.20        1.60200      0.21900  -9999.00000      3.97500      1.73100
   670.40        1.69600      0.22000  -9999.00000      3.92500      1.72200
   670.60        1.77100      0.22000  -9999.00000      3.87600      1.62900
   670.80        1.87500      0.22000  -9999.00000      3.77600      1.53200
   671.00        1.82200      0.22000  -9999.00000      3.92500      1.55400
   671.20        1.72100      0.21900  -9999.00000      4.07500      1.59100
   671.40        1.60200      0.21900  -9999.00000      4.32300      1.63600
   671.60        1.46900      0.21800  -9999.00000      4.52200      1.60600
   671.80        1.36800      0.21800  -9999.00000      4.77000      1.58400
   672.00        1.25500      0.21900  -9999.00000      4.91900      1.56100
   672.20        1.31000      0.21900  -9999.00000      5.02300      1.55400
   672.40        1.40800      0.22100  -9999.00000      5.02300      1.58400
   672.60        1.55600      0.22000  -9999.00000      5.02300      1.60600
   672.80        1.67200      0.22000  -9999.00000      5.02300      1.62900
   673.00        1.79600      0.21900  -9999.00000      5.06800      1.50200
   673.20        1.84900      0.21800  -9999.00000      5.16800      1.53200
   673.40        1.90200      0.21600  -9999.00000      5.31700      1.63600
   673.60        1.79600      0.21800  -9999.00000      5.21700      1.71800
   673.80        1.69600      0.22000  -9999.00000      5.06800      1.83000
   674.00        1.82200      0.21800  -9999.00000      4.82000      1.72500
   674.20        2.07300      0.21800  -9999.00000      4.57100      1.64300
   674.40        1.74600      0.21600  -9999.00000      4.37300      1.58400
   674.60        1.46900      0.21800  -9999.00000      4.22400      1.57600
   674.80        1.13500      0.21900  -9999.00000      4.07500      1.45700
   675.00        1.20200      0.22000  -9999.00000      3.97500      1.58400
   675.20        1.49100      0.21900  -9999.00000      4.27300      1.65100
   675.40        1.90200      0.21900  -9999.00000      4.47200      1.68800
   675.60        2.64600      0.22000  -9999.00000      4.67100      1.71100
   675.80        3.32900      0.22100  -9999.00000      5.01900      1.72500
   676.00        2.46300      0.22000  -9999.00000      4.77000      1.72500
   676.20        2.07300      0.21900  -9999.00000      4.42200      1.74800
   676.40        1.77100      0.21900  -9999.00000      3.97500      1.71800
   676.60        1.87500      0.21800  -9999.00000      4.12400      1.70300
   676.80        1.95800      0.21800  -9999.00000      4.27300      1.68100
   677.00        2.04400      0.21800  -9999.00000      4.32300      1.65100
   677.20        1.84900      0.21800  -9999.00000      4.37300      1.60600
   677.40        1.60200      0.21900  -9999.00000      4.37300      1.56100
   677.60        1.40800      0.21900  -9999.00000      4.47200      1.53900
   677.80        1.25500      0.21900  -9999.00000      4.57100      1.47200
   678.00        1.15100      0.21900  -9999.00000      4.62100      1.48000
   678.20        1.21900      0.21900  -9999.00000      4.32300      1.53200
   678.40        1.38800      0.21800  -9999.00000      4.12400      1.56100
   678.60        1.57900      0.21900  -9999.00000      3.97500      1.58400
   678.80        1.79600      0.22100  -9999.00000      3.82600      1.59900
   679.00        1.98600      0.22100  -9999.00000      3.72700      1.62900
   679.20        2.22800      0.22000  -9999.00000      3.67700      1.66600
   679.40        2.35900      0.21900  -9999.00000      3.57800      1.69600
   679.60        2.04400      0.21900  -9999.00000      3.47800      1.72600
   679.80        1.82200      0.21900  -9999.00000      3.37900      1.70600
   680.00        1.57900      0.21900  -9999.00000      3.37900      1.68100
   680.20        1.36800      0.21900  -9999.00000      3.42900      1.65700
   680.40        1.64800      0.21800  -9999.00000      3.87600      1.65300
   680.60        1.93000      0.21900  -9999.00000      3.97500      1.63200
   680.80        2.32600      0.21900  -9999.00000      3.72700      1.68100
   681.00        2.88400      0.21900  -9999.00000      3.67700      1.75500
   681.20        3.62800      0.21900  -9999.00000      3.71000      1.83700
   681.40        4.76500      0.21900  -9999.00000      3.76400      1.91200
   681.60        8.63200      0.21900  -9999.00000      3.95600      1.97900
   681.80        9.14400      0.21900  -9999.00000      5.48800      2.03900
   682.00        9.52800      0.21900  -9999.00000      5.48800      2.09800
   682.20       10.48900      0.21800  -9999.00000      5.11800      2.04600
   682.40        8.10200      0.21700  -9999.00000      4.72000      1.97900
   682.60        6.82100      0.21800  -9999.00000      4.22400      1.91900
   682.80        5.66000      0.21900  -9999.00000      3.77600      1.85200
   683.00        4.83400      0.21900  -9999.00000      3.47800      1.80000
   683.20        3.84200      0.21800  -9999.00000      3.23000      1.87500
   683.40        4.56400      0.21800  -9999.00000      3.13000      1.89700
   683.60        5.11900      0.21800  -9999.00000      3.28000      1.95700
   683.80        5.74200      0.21800  -9999.00000      3.37900      2.02400
   684.00        6.34900      0.21900  -9999.00000      3.52800      1.96400
   684.20        7.12100      0.22000  -9999.00000      3.67700      1.91200
   684.40        8.10200      0.21900  -9999.00000      3.82600      2.06800
   684.60        9.08800      0.21800  -9999.00000      3.82600      2.12000
   684.80       10.64100      0.21700  -9999.00000      3.84600      2.18600
   685.00       10.34000      0.21700  -9999.00000      3.81900      2.18600
   685.20       10.04800      0.21700  -9999.00000      4.27300      2.16200
   685.40       11.76500      0.21600  -9999.00000      4.52200      2.09100
   685.60       15.99700      0.21600  -9999.00000      4.37300      2.02400
   685.80       15.86600      0.21600  -9999.00000      4.22400      1.98600
   686.00        6.26300      0.21600  -9999.00000      4.17400      1.95700
   686.20        5.49100      0.21600  -9999.00000      4.07500      1.92700
   686.40        4.32600      0.21700  -9999.00000      3.97500      1.94900
   686.60        4.83400      0.21900  -9999.00000      3.82600      1.96400
   686.80        4.97500      0.22100  -9999.00000      3.62700      1.99400
   687.00        4.31000      0.21800  -9999.00000      3.47800      1.96400
   687.20        3.84200      0.21400  -9999.00000      3.62700      1.93400
   687.40        3.37700      0.21300  -9999.00000      3.67700      1.90400
   687.60        2.96800      0.21500  -9999.00000      3.72700      1.87500
   687.80        2.49900      0.21600  -9999.00000      3.77600      1.84500
   688.00        2.96800      0.21700  -9999.00000      3.82600      1.89700
   688.20        4.35700      0.21800  -9999.00000      3.82600      2.00900
   688.40        5.65000      0.21800  -9999.00000      3.97500      1.96400
   688.60        6.21000      0.21800  -9999.00000      3.82600      1.91900
   688.80        7.80400      0.21800  -9999.00000      3.72700      1.85200
   689.00        8.85200      0.21800  -9999.00000      3.62700      1.86700
   689.20        9.62400      0.21600  -9999.00000      3.77600      1.88900
   689.40       10.64100      0.21700  -9999.00000      3.87600      1.91200
   689.60       11.59800      0.21700  -9999.00000      4.07500      1.90400
   689.80       11.76500      0.21800  -9999.00000      4.27300      1.88200
   690.00       10.19300      0.21900  -9999.00000      4.47200      1.88900
   690.20        8.83000      0.21800  -9999.00000      4.67100      1.91200
   690.40        8.21900      0.21500  -9999.00000      4.87000      1.93400
   690.60       10.04800      0.21500  -9999.00000      5.06800      1.97100
