~Version information
VERS.              2.00:   CWLS LOG ASCII STANDARD -VERSION 2.00
WRAP.                NO:   one line per depth step
~Well Information Block
#MNEM.UNIT     DATA         DESCRIPTION OF MNEMONIC
#--------  --------------   ------------------------
STRT.M                 4.40:START DEPTH
STOP.M              1112.80:STOP DEPTH
STEP.M                 0.20:STEP VALUE
NULL.           -9999.00000:NULL VALUE
WELL.                 13419:WELL NAME
FLD .             VYATSKAYA:FIELD NAME
CTRY.                RUSSIA:COUNTRY
DATE.            01.12.1988:DATE
UWI .                 13419:UNIQUE WELL IDENTIFIER
SRVC.         ÄêãÄçëäÄü èÉä:çÄáÇÄçàÖ ëÖêÇàëçéâ äéåèÄçàà Éàë
SRVC_OC.                ààí:çÄáÇÄçàÖ ëÖêÇàëçéâ äéåèÄçàà-éñàîêéÇäÄ
~Parameter Information Block
#MNEM.UNIT       Value     Description of mnemonic
#---------   -----------   ------------------------------------
EKB .M               158.08: Elevation Kelly Bushing
TDL.M                  1114: Total Depth
SCD .M          -9999.00000: Surface Casing Diameter
SCDP.M          -9999.00000: Surface Casing Depth
CD  .M                0.228: Casing Diameter
CDP .M                  412: Casing Depth
BS  .M                0.216: Bit Size
                       CLAY: Drill Fluid Type
DFD .G/CM3      -9999.00000: Drill Fluid Density
DFV .S          -9999.00000: Drill Fluid Viscosity
RMF.OHMM               0.07: Mud Filtrate Resistivity
MT  .C                   18: Meas Temperature
                      DRST3: Cartridge Gamma
TAU_GR.S              1.5;3: GR Time Constant
K_GK                   1580: äéùî. èÖêÖïéÑÄ
SPEED.M/H           420;780: Speed M/Hour
                     NGK_60: Probe NGR
USL_ED.IMP/MIN         5500: 1 ìëã.ÖÑ.
OTN_KNL.GR/NGR            9: éíçéòÖçàÖ äÄçÄãéÇ
TAU_NGR.S             1.5;3: NGR Time Constant
SPEED.M/H           420;780: Speed M/Hour
                        K_3: Cartridge BK
                       BK_3: Probe BK
                       USBA: Cartridge DT
                 Sonde 1.4M: Probe DT
                      SKP_1: Cartridge DS
~Curve Information Block
#MNEM.UNIT       API CODE     Curve Description
#---------    -------------   --------------------------------
DEPT.M                    :    1    DEPTH M
BK.OHMM                   :    2    LATEROLOG DEEP
DS.M                      :    3    CALIPER
DT.MCS                    :    4    DELTA TIME INTERVAL TRANSIT TIME MCSEC/M
GR.MCR/H                  :    5    GAMMA RAY MICRO_ROENTGENS PER HOUR
NGR.UE                    :    6    NEUTRON GAMMA RAY
~A DEPT.M       BK           DS           DT           GR           NGR          
# ...
   586.80       28.10900      0.21500  -9999.00000      2.23500      1.80400
   587.00       23.96900      0.21600  -9999.00000      2.26500      1.84200
   587.20       19.01200      0.21700  -9999.00000      2.36500      1.88700
   587.40       14.02700      0.21800  -9999.00000      2.78600      1.91000
   587.60       10.49800      0.21700  -9999.00000      2.57700      1.82600
   587.80        7.41700      0.21600  -9999.00000      2.39800      1.82600
   588.00        9.08400      0.21800  -9999.00000      2.30900      1.87900
   588.20       13.62600      0.21900  -9999.00000      2.36700      1.90200
   588.40       19.85600      0.22000  -9999.00000      2.42600      1.91000
   588.60       28.52500      0.21900  -9999.00000      2.57200      1.94000
   588.80       48.73400      0.21700  -9999.00000      2.63300      1.89500
   589.00       54.72100      0.21600  -9999.00000      2.66400      1.93200
   589.20       37.01200      0.21800  -9999.00000      2.72500      1.94000
   589.40       29.68300      0.21900  -9999.00000      2.71700      1.89500
   589.60       29.68300      0.21700  -9999.00000      2.86800      1.86400
   589.80       29.68300      0.21700  -9999.00000      3.01900      1.81900
   590.00       56.32900      0.21700  -9999.00000      3.22000      1.82600
   590.20       88.24700      0.21700  -9999.00000      2.96900      1.80400
   590.40      119.61300      0.21700  -9999.00000      2.46500      1.79600
   590.60      106.52200      0.21400  -9999.00000      2.01300      1.76600
   590.80       88.24700      0.21400  -9999.00000      1.71100      1.73600
   591.00       53.15800      0.21400  -9999.00000      1.46900      1.68300
   591.20       45.33000      0.21500  -9999.00000      1.51500      1.59900
   591.40       37.55100      0.21600  -9999.00000      1.62200      1.61500
   591.60       34.42600      0.21700  -9999.00000      1.60600      1.63000
   591.80       32.96300      0.21700  -9999.00000      1.54500      1.64500
   592.00       45.99200      0.21700  -9999.00000      1.46900      1.66000
   592.20       57.98400      0.21700  -9999.00000      1.40700      1.66800
   592.40       67.99700      0.21700  -9999.00000      1.34600      1.60700
   592.60       41.55400      0.21600  -9999.00000      1.28500      1.59900
   592.80       27.30600      0.21600  -9999.00000      1.28500      1.54600
   593.00       28.51900      0.21400  -9999.00000      1.33100      1.52400
   593.20       34.92900      0.21400  -9999.00000      1.33100      1.59900
   593.40       35.43800      0.21400  -9999.00000      1.30000      1.66800
   593.60       20.73600      0.21500  -9999.00000      1.30000      1.66000
   593.80       15.52300      0.21500  -9999.00000      1.34600      1.64500
   594.00       12.49200      0.21600  -9999.00000      1.42300      1.71300
   594.20       10.65300      0.21600  -9999.00000      1.45300      1.77400
   594.40        9.08400      0.21800  -9999.00000      1.51500      1.82600
   594.60        6.32500      0.21800  -9999.00000      1.56000      1.82600
   594.80        7.74600      0.21600  -9999.00000      1.62200      1.81900
   595.00       13.82500      0.21600  -9999.00000      1.91200      1.87900
   595.20       26.52700      0.21800  -9999.00000      2.16400      1.92500
   595.40       27.70500      0.21700  -9999.00000      2.78600      1.97000
   595.60       28.52000      0.21700  -9999.00000      2.78600      2.00100
   595.80       31.10800      0.21700  -9999.00000      2.21400      2.06100
   596.00       34.92900      0.21700  -9999.00000      1.91200      2.02300
   596.20       44.67900      0.21700  -9999.00000      1.71100      1.97800
   596.40       34.92900      0.21700  -9999.00000      1.60600      1.94800
   596.60       25.03200      0.21800  -9999.00000      1.66800      1.92500
   596.80       18.73900      0.21800  -9999.00000      1.68300      1.91000
   597.00       14.23100      0.21700  -9999.00000      1.68300      1.89500
   597.20       10.96600      0.21600  -9999.00000      1.68300      1.88700
   597.40        9.62600      0.21400  -9999.00000      1.68300      1.87200
   597.60        8.57300      0.21500  -9999.00000      1.68300      1.84900
   597.80        8.09000      0.21600  -9999.00000      2.11300      1.80400
   598.00        9.76600      0.21800  -9999.00000      2.60200      1.75800
   598.20       11.78900      0.22000  -9999.00000      2.66400      1.72100
   598.40       14.86300      0.21900  -9999.00000      2.66400      1.78100
   598.60       18.74000      0.21800  -9999.00000      2.63300      1.82600
   598.80       23.62500      0.21500  -9999.00000      2.35000      1.87200
   599.00       29.35700      0.21500  -9999.00000      2.34200      1.98500
   599.20       44.03600      0.21700  -9999.00000      2.52600      1.95500
   599.40       28.10900      0.21700  -9999.00000      2.63300      1.91000
   599.60        7.41700      0.21600  -9999.00000      2.46500      1.66000
   599.80        8.44900      0.21500  -9999.00000      2.40300      1.64500
   600.00       11.12600      0.21500  -9999.00000      2.25000      1.66800
   600.20       14.86300      0.21500  -9999.00000      2.17300      1.68300
   600.40       22.95000      0.21500  -9999.00000      2.17300      1.75800
   600.60       44.69600      0.21700  -9999.00000      2.17300      1.81900
   600.80       99.08700      0.22100  -9999.00000      2.17300      1.87200
   601.00      132.37400      0.21800  -9999.00000      2.15800      1.93200
   601.20      132.37400      0.21600  -9999.00000      2.02000      1.94800
   601.40       49.44500      0.21400  -9999.00000      1.71400      1.89500
   601.60       39.78800      0.21600  -9999.00000      1.62200      1.83400
   601.80       29.78500      0.21700  -9999.00000      1.60600      1.78100
   602.00       20.14600      0.21500  -9999.00000      1.59100      1.72800
   602.20       14.64900      0.21500  -9999.00000      1.63700      1.68300
   602.40       11.96100      0.21400  -9999.00000      1.82100      1.64500
   602.60       11.28800      0.21500  -9999.00000      1.82100      1.62200
   602.80       10.65300      0.21500  -9999.00000      1.76000      1.59900
   603.00       10.96600      0.21700  -9999.00000      1.65200      1.58400
   603.20       11.62000      0.21900  -9999.00000      1.60600      1.62200
   603.40       12.85900      0.22100  -9999.00000      1.54500      1.65200
   603.60       14.86400      0.21900  -9999.00000      1.54500      1.67500
   603.80       18.73900      0.21800  -9999.00000      1.75000      1.73600
   604.00       10.49900      0.21600  -9999.00000      1.85500      1.69000
   604.20        5.88300      0.21800  -9999.00000      1.90700      1.59900
   604.40        3.86500      0.21800  -9999.00000      1.97400      1.61500
   604.60        4.09600      0.21800  -9999.00000      1.92800      1.68300
   604.80        4.46800      0.21700  -9999.00000      1.85900      1.71300
   605.00        5.01700      0.21700  -9999.00000      1.82100      1.64500
   605.20        5.79800      0.21700  -9999.00000      1.86700      1.58400
   605.40        7.20500      0.21800  -9999.00000      2.08100      1.69800
   605.60        9.21700      0.21800  -9999.00000      2.28100      1.84900
   605.80       11.78900      0.21900  -9999.00000      2.46400      2.02300
   606.00       14.64900      0.21900  -9999.00000      2.52600      1.94800
   606.20       19.57100      0.21800  -9999.00000      2.38800      1.83400
   606.40       16.44900      0.21800  -9999.00000      2.21900      1.90200
   606.60       13.23600      0.22000  -9999.00000      2.20400      2.01600
   606.80       10.34800      0.22100  -9999.00000      2.39300      2.10700
   607.00       10.05300      0.21800  -9999.00000      2.46400      1.94800
   607.20       11.45200      0.21600  -9999.00000      2.61600      1.91000
   607.40       11.96100      0.21500  -9999.00000      3.31900      1.83400
