~Version information
VERS.              2.00:   CWLS LOG ASCII STANDARD -VERSION 2.00
WRAP.                NO:   one line per depth step
~Well Information Block
#MNEM.UNIT     DATA         DESCRIPTION OF MNEMONIC
#--------  --------------   ------------------------
STRT.M                 4.40:START DEPTH
STOP.M              1112.80:STOP DEPTH
STEP.M                 0.20:STEP VALUE
NULL.           -9999.00000:NULL VALUE
WELL.                 13419:WELL NAME
FLD .             VYATSKAYA:FIELD NAME
CTRY.                RUSSIA:COUNTRY
DATE.            01.12.1988:DATE
UWI .                 13419:UNIQUE WELL IDENTIFIER
SRVC.         ÄêãÄçëäÄü èÉä:çÄáÇÄçàÖ ëÖêÇàëçéâ äéåèÄçàà Éàë
SRVC_OC.                ààí:çÄáÇÄçàÖ ëÖêÇàëçéâ äéåèÄçàà-éñàîêéÇäÄ
~Parameter Information Block
#MNEM.UNIT       Value     Description of mnemonic
#---------   -----------   ------------------------------------
EKB .M               158.08: Elevation Kelly Bushing
TDL.M                  1114: Total Depth
SCD .M          -9999.00000: Surface Casing Diameter
SCDP.M          -9999.00000: Surface Casing Depth
CD  .M                0.228: Casing Diameter
CDP .M                  412: Casing Depth
BS  .M                0.216: Bit Size
                       CLAY: Drill Fluid Type
DFD .G/CM3      -9999.00000: Drill Fluid Density
DFV .S          -9999.00000: Drill Fluid Viscosity
RMF.OHMM               0.07: Mud Filtrate Resistivity
MT  .C                   18: Meas Temperature
                      DRST3: Cartridge Gamma
TAU_GR.S              1.5;3: GR Time Constant
K_GK                   1580: äéùî. èÖêÖïéÑÄ
SPEED.M/H           420;780: Speed M/Hour
                     NGK_60: Probe NGR
USL_ED.IMP/MIN         5500: 1 ìëã.ÖÑ.
OTN_KNL.GR/NGR            9: éíçéòÖçàÖ äÄçÄãéÇ
TAU_NGR.S             1.5;3: NGR Time Constant
SPEED.M/H           420;780: Speed M/Hour
                        K_3: Cartridge BK
                       BK_3: Probe BK
                       USBA: Cartridge DT
                 Sonde 1.4M: Probe DT
                      SKP_1: Cartridge DS
~Curve Information Block
#MNEM.UNIT       API CODE     Curve Description
#---------    -------------   --------------------------------
DEPT.M                    :    1    DEPTH M
BK.OHMM                   :    2    LATEROLOG DEEP
DS.M                      :    3    CALIPER
DT.MCS                    :    4    DELTA TIME INTERVAL TRANSIT TIME MCSEC/M
GR.MCR/H                  :    5    GAMMA RAY MICRO_ROENTGENS PER HOUR
NGR.UE                    :    6    NEUTRON GAMMA RAY
~A DEPT.M       BK           DS           DT           GR           NGR          
# ...
   482.80        4.66600      0.21600  -9999.00000      1.91100      1.61500
   483.00        3.92200      0.21700  -9999.00000      1.88000      1.58800
   483.20        3.29600      0.21700  -9999.00000      1.88000      1.58800
   483.40        4.34000      0.21900  -9999.00000      1.97800      1.68300
   483.60        5.71500      0.21900  -9999.00000      2.07500      1.75800
   483.80        6.99900      0.21800  -9999.00000      2.27000      1.85700
   484.00        5.55200      0.21700  -9999.00000      2.36700      1.88700
   484.20        4.21600      0.21600  -9999.00000      2.56200      1.90200
   484.40        4.87300      0.21600  -9999.00000      2.65900      1.91700
   484.60        5.71500      0.21500  -9999.00000      2.21400      1.92500
   484.80        6.70200      0.21400  -9999.00000      2.01300      1.93200
   485.00        7.52500      0.21600  -9999.00000      2.14000      1.74300
   485.20        8.69800      0.21700  -9999.00000      2.18600      1.65700
   485.40        9.62600      0.21800  -9999.00000      2.18600      1.65500
   485.60        7.97400      0.21900  -9999.00000      1.95700      1.64600
   485.80        6.60500      0.22000  -9999.00000      1.88000      1.64300
   486.00        7.20500      0.21900  -9999.00000      1.81000      1.72100
   486.20        7.85900      0.21900  -9999.00000      1.86100      1.77400
   486.40        8.44900      0.21800  -9999.00000      1.96400      1.82600
   486.60        8.57300      0.21600  -9999.00000      2.01600      1.91000
   486.80        7.20500      0.21600  -9999.00000      2.16600      1.91700
   487.00        5.88300      0.21500  -9999.00000      2.24700      1.79600
   487.20        4.94400      0.21500  -9999.00000      2.28800      1.74300
   487.40        4.27800      0.21600  -9999.00000      2.36900      1.71300
   487.60        3.92200      0.21700  -9999.00000      2.62900      1.69800
   487.80        3.49300      0.21800  -9999.00000      2.82700      1.66800
   488.00        3.86500      0.21900  -9999.00000      2.70200      1.63700
   488.20        3.49300      0.21500  -9999.00000      2.54100      1.57700
   488.40        3.11100      0.21500  -9999.00000      2.59900      1.41400
   488.60        2.54000      0.21600  -9999.00000      2.66800      1.41100
   488.80        2.29500      0.21700  -9999.00000      2.80500      1.45000
   489.00        2.89300      0.21500  -9999.00000      2.87400      1.46900
   489.20        3.44300      0.21500  -9999.00000      2.87400      1.50100
   489.40        3.97900      0.21600  -9999.00000      2.87400      1.56900
   489.60        4.46800      0.21700  -9999.00000      2.75200      1.61500
   489.80        4.87300      0.21700  -9999.00000      2.67500      1.69800
   490.00        5.23900      0.21800  -9999.00000      2.55300      1.65200
   490.20        5.88300      0.21900  -9999.00000      2.46100      1.60700
   490.40        6.89900      0.21900  -9999.00000      2.46100      1.56900
   490.60        8.95300      0.22000  -9999.00000      2.49100      1.47800
   490.80       10.65200      0.22000  -9999.00000      2.59900      1.50900
   491.00        5.16400      0.21800  -9999.00000      2.73700      1.56900
   491.20        2.13500      0.21600  -9999.00000      2.55100      1.63700
   491.40        2.13500      0.21500  -9999.00000      2.42600      1.69000
   491.60        3.49300      0.21600  -9999.00000      2.36300      1.73600
   491.80        4.87300      0.21800  -9999.00000      2.23700      1.81700
   492.00        6.80000      0.21900  -9999.00000      2.11100      1.80400
   492.20       10.34800      0.22000  -9999.00000      2.04900      1.75200
   492.40       12.67400      0.22100  -9999.00000      1.98600      1.77800
   492.60       14.02700      0.21900  -9999.00000      1.98600      1.79200
   492.80       15.30000      0.21800  -9999.00000      1.98600      1.75800
   493.00       12.31200      0.21800  -9999.00000      1.98600      1.73600
   493.20       10.20000      0.21800  -9999.00000      1.98600      1.69000
   493.40        8.57300      0.21900  -9999.00000      1.98600      1.59900
   493.60        7.20500      0.22000  -9999.00000      2.00100      1.50900
   493.80        6.05600      0.22000  -9999.00000      2.15400      1.35700
   494.00        5.09000      0.21900  -9999.00000      2.21600      1.32700
   494.20        4.15600      0.21800  -9999.00000      2.27700      1.32900
   494.40        3.59500      0.21800  -9999.00000      2.30800      1.34000
   494.60        3.29600      0.21700  -9999.00000      2.41500      1.43300
   494.80        2.93600      0.21600  -9999.00000      2.66000      1.53100
   495.00        3.44300      0.21600  -9999.00000      2.86800      1.63700
   495.20        4.21600      0.21600  -9999.00000      3.17000      1.74300
   495.40        5.23900      0.21600  -9999.00000      3.42100      1.83400
   495.60        6.32500      0.21600  -9999.00000      3.76300      1.89500
   495.80        7.31000      0.21600  -9999.00000      3.76300      1.97800
   496.00        8.69800      0.21700  -9999.00000      3.70200      1.91700
   496.20        8.20800      0.21800  -9999.00000      3.68600      1.84200
   496.40        6.89900      0.21900  -9999.00000      4.02500      1.89500
   496.60        5.47200      0.21800  -9999.00000      4.32700      1.94000
   496.80        3.70100      0.21500  -9999.00000      4.67900      2.03500
   497.00        5.01700      0.21500  -9999.00000      5.24900      2.03500
   497.20        6.60500      0.21500  -9999.00000      5.26400      2.03500
   497.40        8.44900      0.21600  -9999.00000      5.26400      2.02300
   497.60        6.99900      0.21600  -9999.00000      5.26400      2.03800
   497.80        6.23400      0.21900  -9999.00000      4.78000      2.06100
   498.00        5.71500      0.21900  -9999.00000      4.57900      2.10700
   498.20        5.55200      0.21900  -9999.00000      4.32700      2.16000
   498.40        5.31600      0.21800  -9999.00000      4.17700      2.08400
   498.60        4.87300      0.21700  -9999.00000      4.27700      2.03100
   498.80        4.46800      0.21600  -9999.00000      4.52800      1.97800
   499.00        4.09600      0.21700  -9999.00000      5.11100      1.91700
   499.20        3.54400      0.21700  -9999.00000      4.72800      1.87900
   499.40        3.44300      0.21800  -9999.00000      4.54400      1.97000
   499.60        4.27800      0.21800  -9999.00000      4.17700      2.03100
   499.80        4.53300      0.21800  -9999.00000      4.03900      2.17500
   500.00        5.55200      0.21600  -9999.00000      4.00800      2.11400
   500.20        5.39300      0.21900  -9999.00000      4.32700      2.07900
   500.40        4.34000      0.21900  -9999.00000      4.62900      2.06200
   500.60        4.94400      0.21800  -9999.00000      4.93100      2.06900
   500.80        5.47200      0.21600  -9999.00000      5.63500      2.10700
   501.00        6.23400      0.21600  -9999.00000      6.39000      2.06900
   501.20        7.74600      0.21500  -9999.00000      6.28900      2.03800
   501.40        8.57300      0.21400  -9999.00000      5.98700      2.03100
   501.60        5.71500      0.21500  -9999.00000      5.21900      1.99300
   501.80        4.27800      0.21500  -9999.00000      4.98100      2.00800
   502.00        3.39300      0.21500  -9999.00000      4.42800      2.03800
   502.20        3.59500      0.21600  -9999.00000      4.22300      2.06900
   502.40        4.03700      0.21600  -9999.00000      4.19200      2.10700
   502.60        4.46800      0.21500  -9999.00000      4.02300      2.12200
   502.80        5.01700      0.21400  -9999.00000      3.85500      2.02300
   503.00        5.39300      0.21400  -9999.00000      3.70200      1.99300
   503.20        5.88300      0.21500  -9999.00000      3.67100      1.94800
   503.40        5.96900      0.21600  -9999.00000      3.67100      1.88700
