~Version information
VERS.              2.00:   CWLS LOG ASCII STANDARD -VERSION 2.00
WRAP.                NO:   one line per depth step
~Well Information Block
#MNEM.UNIT     DATA         DESCRIPTION OF MNEMONIC
#--------  --------------   ------------------------
STRT.M                 4.40:START DEPTH
STOP.M              1112.80:STOP DEPTH
STEP.M                 0.20:STEP VALUE
NULL.           -9999.00000:NULL VALUE
WELL.                 13419:WELL NAME
FLD .             VYATSKAYA:FIELD NAME
CTRY.                RUSSIA:COUNTRY
DATE.            01.12.1988:DATE
UWI .                 13419:UNIQUE WELL IDENTIFIER
SRVC.         ÄêãÄçëäÄü èÉä:çÄáÇÄçàÖ ëÖêÇàëçéâ äéåèÄçàà Éàë
SRVC_OC.                ààí:çÄáÇÄçàÖ ëÖêÇàëçéâ äéåèÄçàà-éñàîêéÇäÄ
~Parameter Information Block
#MNEM.UNIT       Value     Description of mnemonic
#---------   -----------   ------------------------------------
EKB .M               158.08: Elevation Kelly Bushing
TDL.M                  1114: Total Depth
SCD .M          -9999.00000: Surface Casing Diameter
SCDP.M          -9999.00000: Surface Casing Depth
CD  .M                0.228: Casing Diameter
CDP .M                  412: Casing Depth
BS  .M                0.216: Bit Size
                       CLAY: Drill Fluid Type
DFD .G/CM3      -9999.00000: Drill Fluid Density
DFV .S          -9999.00000: Drill Fluid Viscosity
RMF.OHMM               0.07: Mud Filtrate Resistivity
MT  .C                   18: Meas Temperature
                      DRST3: Cartridge Gamma
TAU_GR.S              1.5;3: GR Time Constant
K_GK                   1580: äéùî. èÖêÖïéÑÄ
SPEED.M/H           420;780: Speed M/Hour
                     NGK_60: Probe NGR
USL_ED.IMP/MIN         5500: 1 ìëã.ÖÑ.
OTN_KNL.GR/NGR            9: éíçéòÖçàÖ äÄçÄãéÇ
TAU_NGR.S             1.5;3: NGR Time Constant
SPEED.M/H           420;780: Speed M/Hour
                        K_3: Cartridge BK
                       BK_3: Probe BK
                       USBA: Cartridge DT
                 Sonde 1.4M: Probe DT
                      SKP_1: Cartridge DS
~Curve Information Block
#MNEM.UNIT       API CODE     Curve Description
#---------    -------------   --------------------------------
DEPT.M                    :    1    DEPTH M
BK.OHMM                   :    2    LATEROLOG DEEP
DS.M                      :    3    CALIPER
DT.MCS                    :    4    DELTA TIME INTERVAL TRANSIT TIME MCSEC/M
GR.MCR/H                  :    5    GAMMA RAY MICRO_ROENTGENS PER HOUR
NGR.UE                    :    6    NEUTRON GAMMA RAY
~A DEPT.M       BK           DS           DT           GR           NGR          
# ...
   940.40        3.40700      0.19800    206.91600      2.43500      2.28400
   940.60        5.99400      0.20100    200.93500      2.48400      2.47100
   940.80       13.79500      0.20000    193.95600      2.68300      2.63500
   941.00       21.07500      0.19600    187.97500      2.43500      2.82100
   941.20       33.12000      0.19900    183.98800      2.18600      3.05200
   941.40       18.55900      0.19700    187.47700      2.08700      2.92400
   941.60       11.97700      0.19700    192.46100      1.88800      2.79700
   941.80       11.48000      0.19700    197.94400      2.18600      2.65000
   942.00       10.69800      0.20200    203.88000      2.83200      2.56800
   942.20       10.11000      0.19700    204.15400      3.47800      2.66500
   942.40        9.03000      0.20000    203.42700      4.02500      2.72400
   942.60        7.84000      0.19900    202.92800      3.82600      2.54500
   942.80        7.30500      0.19700    199.43900      3.42900      2.57500
   943.00        8.65500      0.19500    195.45200      3.03100      2.63500
   943.20        9.69000      0.19800    193.45800      2.63400      3.03700
   943.40       10.40000      0.19500    192.96000      2.53400      2.92500
   943.60       10.69800      0.19700    194.95300      2.58400      2.72400
   943.80       10.69800      0.19600    196.94700      2.73300      2.65000
   944.00       10.85000      0.19500    197.94400      2.93200      2.73900
   944.20       12.14800      0.19700    197.94400      3.13000      2.70200
   944.40       14.26000      0.19600    198.94100      3.13000      2.57500
   944.60        9.38800      0.19600    199.43900      3.43300      2.52000
   944.80       10.25400      0.19500    198.66400      3.59800      2.44100
   945.00       11.31900      0.20000    198.66400      3.72700      2.65000
   945.20        9.28800      0.19600    199.93800      4.02500      2.59000
   945.40        7.30500      0.19900    201.43300      3.82600      2.50100
   945.60        5.66500      0.20000    206.90000      3.23000      2.42600
   945.80        5.99400      0.19600    207.17400      2.73300      2.32900
   946.00        6.34300      0.19400    209.90700      2.53400      2.27700
   946.20        5.13200      0.19500    211.90000      2.28600      2.22500
   946.40        4.91900      0.19700    213.39600      2.13700      2.17300
   946.60        5.20500      0.20000    212.39900      2.23600      2.23200
   946.80        5.35400      0.19600    211.40200      2.48400      2.25500
   947.00        6.34300      0.19900    209.40800      2.78300      2.26200
   947.20        8.53300      0.19600    207.91300      2.93200      2.29900
   947.40       10.40000      0.19800    206.41700      3.18000      2.35900
   947.60       11.80900      0.20000    204.42400      3.47800      2.42600
   947.80       13.60100      0.19800    203.42700      3.92500      2.51600
   948.00       15.67700      0.19600    201.93100      4.21900      2.59000
   948.20       15.16100      0.19600    200.93500      4.12400      2.63500
   948.40        9.82800      0.19700    208.41100      4.17400      2.50800
   948.60       10.40000      0.19700    214.03700      4.07500      2.41900
   948.80       11.80900      0.19800    214.03700      3.67700      2.33700
   949.00        9.28400      0.19900    216.88500      3.18000      2.44100
   949.20        9.03000      0.20000    209.40800      2.78300      2.48600
   949.40        9.28800      0.19900    205.91900      2.48400      2.51600
   949.60        9.82800      0.19900    203.42700      2.18600      2.50800
   949.80        9.03000      0.20000    200.43600      2.28600      2.47100
   950.00       10.11000      0.19900    198.44200      2.38500      2.48600
   950.20       11.64400      0.19700    197.94400      2.63400      2.50800
   950.40        9.42000      0.19700    196.94700      2.38500      2.59000
   950.60       16.81100      0.19700    195.45200      2.23600      2.48600
   950.80       27.17700      0.19500    193.45800      2.23600      2.44100
   951.00       45.19200      0.19700    191.46400      2.43500      2.53000
   951.20       65.24800      0.19400    190.96600      2.68800      2.65700
   951.40       25.32300      0.19700    191.80100      2.62400      2.82100
   951.60       21.07500      0.19900    193.45800      2.63400      2.89600
   951.80       14.80400      0.20100    195.95000      2.93200      2.70900
   952.00       12.32100      0.20200    197.94400      3.52800      2.56800
   952.20        6.07900      0.20000    200.43600      4.17400      2.50100
   952.40        6.04500      0.20200    202.43000      5.01900      2.45600
   952.60        8.06500      0.20000    205.42100      4.67100      2.47800
   952.80        8.53300      0.19700    203.42700      4.12400      2.48600
   953.00        7.95100      0.19500    201.43300      3.62700      2.40900
   953.20        5.74600      0.19700    197.44500      3.23000      2.38400
   953.40        3.17400      0.19700    191.46400      2.93200      2.35200
   953.60        4.85000      0.19600    176.97600      2.73300      2.37400
   953.80        7.62200      0.19700    186.31000      2.43500      2.35900
   954.00       11.16100      0.19800    198.38900      1.98800      2.61200
   954.20        9.03000      0.19600    207.41400      1.39100      2.53000
   954.40        4.21100      0.19900    221.86900      1.14300      2.33700
   954.60        2.16800      0.20000    234.90100      1.04300      2.08300
   954.80        1.85600      0.19600    237.81900      1.04300      1.91800
   955.00        2.26200      0.20000    226.85400      1.24200      1.94200
   955.20        2.79500      0.19600    225.35800      1.44100      2.00100
   955.40        3.13000      0.19100    224.86000      1.54000      2.03900
   955.60        2.36000      0.19500    225.01800      1.64000      1.97900
   955.80        2.19900      0.20100    226.85400      1.78900      1.90200
   956.00        2.46200      0.20500    229.34600      1.93800      1.90400
   956.20        2.67900      0.19900    230.34300      1.98800      1.82200
   956.40        2.96400      0.19800    231.83800      2.08700      1.68000
   956.60        2.93100      0.19800    232.33600      2.23600      1.77400
   956.80        2.19000      0.19800    231.34000      2.23600      1.82000
   957.00        1.68100      0.19800    230.34300      2.23600      1.83000
   957.20        2.10700      0.19800    227.85000      2.13700      1.82200
   957.40        2.64200      0.20000    223.86300      2.18600      1.83000
   957.60        3.22000      0.20200    219.37700      2.33500      1.86700
   957.80        3.65600      0.19600    213.89400      2.63400      1.91900
   958.00        4.33200      0.19900    207.41400      3.13000      1.96600
   958.20        3.65200      0.19900    201.43300      3.42900      1.97000
   958.40        3.40700      0.19800    195.45200      3.57800      1.91200
   958.60        6.16600      0.19800    190.46700      3.77600      1.97600
   958.80        8.53300      0.19600    186.97800      3.97500      1.99400
   959.00        6.25400      0.19900    185.98100      4.17400      1.93400
   959.20        3.60500      0.19600    187.47700      4.62100      1.87500
   959.40        2.83500      0.19500    191.96300      4.32300      1.77800
   959.60        3.08600      0.19900    196.44900      3.77600      1.64300
   959.80        3.76700      0.20000    201.43300      3.37900      1.57600
   960.00        5.13200      0.19400    204.70300      2.98100      1.54700
   960.20        6.08000      0.19400    204.92200      3.13000      1.62900
   960.40        4.85000      0.19600    199.43900      3.03100      1.66600
   960.60        3.26500      0.19800    195.45200      2.83200      1.73300
   960.80        3.76100      0.19500    193.45800      2.63400      1.64300
   961.00        4.45600      0.19900    193.99700      3.03100      1.72500
