~Version information
VERS.              2.00:   CWLS LOG ASCII STANDARD -VERSION 2.00
WRAP.                NO:   one line per depth step
~Well Information Block
#MNEM.UNIT     DATA         DESCRIPTION OF MNEMONIC
#--------  --------------   ------------------------
STRT.M                 4.40:START DEPTH
STOP.M              1087.60:STOP DEPTH
STEP.M                 0.20:STEP VALUE
NULL.           -9999.00000:NULL VALUE
WELL.                 13416:WELL NAME
FLD .             VYATSKAYA:FIELD NAME
CTRY.                RUSSIA:COUNTRY
DATE.            13.12.1988:DATE
UWI .                 13416:UNIQUE WELL IDENTIFIER
SRVC.         ÄêãÄçëäÄü èÉä:çÄáÇÄçàÖ ëÖêÇàëçéâ äéåèÄçàà Éàë
SRVC_OC.                ààí:çÄáÇÄçàÖ ëÖêÇàëçéâ äéåèÄçàà-éñàîêéÇäÄ
~Parameter Information Block
#MNEM.UNIT       Value     Description of mnemonic
#---------   -----------   ------------------------------------
EKB .M               157.98: Elevation Kelly Bushing
TDL.M                  1087: Total Depth
SCD .M          -9999.00000: Surface Casing Diameter
SCDP.M          -9999.00000: Surface Casing Depth
CD  .M                0.228: Casing Diameter
CDP .M                  412: Casing Depth
BS  .M                0.216: Bit Size
                       CLAY: Drill Fluid Type
DFD .G/CM3        1.07-1.09: Drill Fluid Density
DFV .S                22-24: Drill Fluid Viscosity
RMF.OHMM               0.07: Mud Filtrate Resistivity
MT  .C                   18: Meas Temperature
                      DRST3: Cartridge Gamma
TAU_GR.S              1.5;3: GR Time Constant
K_GK                   1580: äéùî. èÖêÖïéÑÄ
SPEED.M/H               890: Speed M/Hour
                     NGK_60: Probe NGR
USL_ED.IMP/MIN         5500: 1 ìëã.ÖÑ.
OTN_KNL.GR/NGR            9: éíçéòÖçàÖ äÄçÄãéÇ
TAU_NGR.S             1.5;3: NGR Time Constant
SPEED.M/H               890: Speed M/Hour
                        K_3: Cartridge BK
                       BK_3: Probe BK
                       USBA: Cartridge DT
                 Sonde 1.4M: Probe DT
                      SKP_1: Cartridge DS
~Curve Information Block
#MNEM.UNIT       API CODE     Curve Description
#---------    -------------   --------------------------------
DEPT.M                    :    1    DEPTH M
BK.OHMM                   :    2    LATEROLOG DEEP
DS.M                      :    3    CALIPER
DT.MCS                    :    4    DELTA TIME INTERVAL TRANSIT TIME MCSEC/M
GR.MCR/H                  :    5    GAMMA RAY MICRO_ROENTGENS PER HOUR
NGR.UE                    :    6    NEUTRON GAMMA RAY
~A DEPT.M       BK           DS           DT           GR           NGR          
# ...
   878.00        1.20200      0.21900  -9999.00000      2.33500      2.00100
   878.20        1.10300      0.21900  -9999.00000      2.28600      1.90400
   878.40        2.01500      0.21800  -9999.00000      2.13700      1.96700
   878.60        2.88400      0.21800  -9999.00000      2.08700      2.04100
   878.80        4.01100      0.21800  -9999.00000      2.23600      2.08200
   879.00        5.19300      0.21800  -9999.00000      2.43500      2.05700
   879.20        7.43400      0.21900  -9999.00000      2.68300      1.99400
   879.40        5.99500      0.22000  -9999.00000      2.98100      1.91900
   879.60        4.56400      0.22000  -9999.00000      3.37900      1.81900
   879.80        3.14300      0.22000  -9999.00000      3.71800      1.79800
   880.00        3.01100      0.21900  -9999.00000      3.77300      1.75300
   880.20        2.76300      0.21800  -9999.00000      3.47800      1.75300
   880.40        2.46300      0.21700  -9999.00000      3.08100      1.82200
   880.60        2.19600      0.21600  -9999.00000      2.83200      1.72500
   880.80        2.04400      0.21400  -9999.00000      2.53400      1.66600
   881.00        1.93000      0.21400  -9999.00000      2.18600      1.62900
   881.20        1.82200      0.21600  -9999.00000      2.08700      1.59100
   881.40        2.04400      0.21700  -9999.00000      1.98800      1.56100
   881.60        2.29200      0.21700  -9999.00000      2.13700      1.49400
   881.80        3.01100      0.21800  -9999.00000      2.23600      1.53900
   882.00        2.05500      0.21900  -9999.00000      2.38500      1.58400
   882.20        1.27600      0.22000  -9999.00000      2.48400      1.65100
   882.40        1.28600      0.22100  -9999.00000      2.58400      1.70300
   882.60        1.51200      0.22000  -9999.00000      2.38500      1.75500
   882.80        1.72100      0.21900  -9999.00000      2.18600      1.80000
   883.00        1.95800      0.21800  -9999.00000      2.13700      1.83000
   883.20        2.35900      0.21700  -9999.00000      2.68300      1.89700
   883.40        2.07300      0.21500  -9999.00000      3.08100      1.83700
   883.60        1.79600      0.21600  -9999.00000      3.42900      1.78500
   883.80        1.60200      0.21700  -9999.00000      4.12400      1.72500
   884.00        1.42800      0.21700  -9999.00000      4.02500      1.68800
   884.20        1.32900      0.21800  -9999.00000      3.42900      1.60600
   884.40        1.23700      0.21900  -9999.00000      3.08100      1.59900
   884.60        1.15100      0.22000  -9999.00000      2.78300      1.69600
   884.80        1.09200      0.21800  -9999.00000      2.98100      1.71100
   885.00        1.12700      0.21800  -9999.00000      3.03100      1.67300
   885.20        1.21900      0.21700  -9999.00000      2.63400      1.66600
   885.40        1.29900      0.21600  -9999.00000      2.33500      1.66600
   885.60        1.35100      0.21600  -9999.00000      2.08700      1.76300
   885.80        1.36200      0.21600  -9999.00000      1.93800      1.80000
   886.00        1.51200      0.21500  -9999.00000      1.73900      1.79300
   886.20        1.40800      0.21600  -9999.00000      1.64000      1.82200
   886.40        1.32900      0.21700  -9999.00000      1.39100      1.80000
   886.60        1.23700      0.21700  -9999.00000      1.49100      1.77800
   886.80        1.11900      0.21900  -9999.00000      1.64000      1.80000
   887.00        1.21000      0.21900  -9999.00000      1.78900      1.81500
   887.20        1.27800      0.21900  -9999.00000      1.83900      1.82200
   887.40        1.30900      0.21900  -9999.00000      1.98800      1.83700
   887.60        1.35100      0.21900  -9999.00000      2.08700      1.85200
   887.80        1.36200      0.21800  -9999.00000      2.28600      1.87500
   888.00        1.93000      0.21900  -9999.00000      2.53400      1.91900
   888.20        3.18900      0.21900  -9999.00000      2.73300      1.94200
   888.40        2.07300      0.21900  -9999.00000      2.93200      1.86700
   888.60        1.11900      0.21900  -9999.00000      3.13000      1.78500
   888.80        1.07200      0.21800  -9999.00000      3.18000      1.68800
   889.00        1.06700      0.21800  -9999.00000      3.18000      1.68100
   889.20        1.10900      0.21700  -9999.00000      3.08100      1.67300
   889.40        1.14500      0.21500  -9999.00000      2.98100      1.67300
   889.60        1.27800      0.21700  -9999.00000      2.88200      1.68100
   889.80        2.10300      0.22000  -9999.00000      2.78300      1.68800
   890.00        3.01100      0.21800  -9999.00000      2.63400      1.88900
   890.20        4.31000      0.21800  -9999.00000      2.53400      2.04600
   890.40        5.99500      0.21600  -9999.00000      2.63400      2.13500
   890.60        7.43400      0.21700  -9999.00000      2.93200      2.24700
   890.80        8.95800      0.21900  -9999.00000      3.13000      2.33700
   891.00        7.43400      0.21900  -9999.00000      3.47800      2.44100
   891.20        6.34900      0.21600  -9999.00000      3.23000      2.36600
   891.40        5.58000      0.21300  -9999.00000      2.98100      2.31400
   891.60        4.97500      0.21600  -9999.00000      3.18000      2.24700
   891.80        4.24800      0.21700  -9999.00000      3.37900      2.22500
   892.00        4.69700      0.21800  -9999.00000      3.62700      2.34400
   892.20        5.58000      0.21900  -9999.00000      3.82600      2.37400
   892.40        3.42600      0.21900  -9999.00000      4.07500      2.22500
   892.60        2.35900      0.21800  -9999.00000      3.87600      2.17300
   892.80        1.53400      0.21700  -9999.00000      3.57800      2.04600
   893.00        1.79600      0.21700  -9999.00000      3.32900      2.06100
   893.20        2.01500      0.21600  -9999.00000      3.03100      2.09100
   893.40        2.29200      0.21600  -9999.00000      2.58400      2.03100
   893.60        2.57100      0.21700  -9999.00000      3.03100      1.97900
   893.80        2.80200      0.21700  -9999.00000      3.42900      1.93400
   894.00        3.05400      0.21800  -9999.00000      3.72700      1.89700
   894.20        2.88400      0.21800  -9999.00000      3.92500      1.83000
   894.40        2.76300      0.21800  -9999.00000      3.97500      1.87500
   894.60        2.96800      0.21900  -9999.00000      3.62700      1.91900
   894.80        3.05400      0.21900  -9999.00000      3.32900      1.96400
   895.00        2.84300      0.21900  -9999.00000      3.13000      2.02400
   895.20        2.57100      0.21900  -9999.00000      2.98100      2.08300
   895.40        2.16500      0.21900  -9999.00000      2.73300      2.00900
   895.60        1.74600      0.21900  -9999.00000      3.47800      1.79300
   895.80        1.49100      0.21900  -9999.00000      4.32300      1.85200
   896.00        1.25500      0.21800  -9999.00000      5.01900      1.88900
   896.20        1.41300      0.21600  -9999.00000      3.07900      1.93700
   896.40        1.67800      0.21600  -9999.00000      2.57400      2.01300
   896.60        1.58400      0.21700  -9999.00000      2.72600      1.81500
   896.80        1.41300      0.21900  -9999.00000      3.12900      1.87600
   897.00        1.33400      0.22000  -9999.00000      2.87700      1.80000
   897.20        1.49600      0.22200  -9999.00000      2.37200      1.93700
   897.40        1.80300      0.21900  -9999.00000      2.01900      1.88400
   897.60        1.63100      0.21700  -9999.00000      2.27100      1.81500
   897.80        1.37300      0.21900  -9999.00000      2.57400      1.86100
   898.00        1.18900      0.22000  -9999.00000      2.72600      1.95900
   898.20        1.10700      0.22100  -9999.00000      2.57400      2.07300
   898.40        1.31500      0.22000    241.72800      2.47300      1.85300
   898.60        1.56200      0.21800    236.79000      2.32200      1.97500
