~Version information
VERS.              2.00:   CWLS LOG ASCII STANDARD -VERSION 2.00
WRAP.                NO:   one line per depth step
~Well Information Block
#MNEM.UNIT     DATA         DESCRIPTION OF MNEMONIC
#--------  --------------   ------------------------
STRT.M                 4.40:START DEPTH
STOP.M              1112.80:STOP DEPTH
STEP.M                 0.20:STEP VALUE
NULL.           -9999.00000:NULL VALUE
WELL.                 13419:WELL NAME
FLD .             VYATSKAYA:FIELD NAME
CTRY.                RUSSIA:COUNTRY
DATE.            01.12.1988:DATE
UWI .                 13419:UNIQUE WELL IDENTIFIER
SRVC.         ÄêãÄçëäÄü èÉä:çÄáÇÄçàÖ ëÖêÇàëçéâ äéåèÄçàà Éàë
SRVC_OC.                ààí:çÄáÇÄçàÖ ëÖêÇàëçéâ äéåèÄçàà-éñàîêéÇäÄ
~Parameter Information Block
#MNEM.UNIT       Value     Description of mnemonic
#---------   -----------   ------------------------------------
EKB .M               158.08: Elevation Kelly Bushing
TDL.M                  1114: Total Depth
SCD .M          -9999.00000: Surface Casing Diameter
SCDP.M          -9999.00000: Surface Casing Depth
CD  .M                0.228: Casing Diameter
CDP .M                  412: Casing Depth
BS  .M                0.216: Bit Size
                       CLAY: Drill Fluid Type
DFD .G/CM3      -9999.00000: Drill Fluid Density
DFV .S          -9999.00000: Drill Fluid Viscosity
RMF.OHMM               0.07: Mud Filtrate Resistivity
MT  .C                   18: Meas Temperature
                      DRST3: Cartridge Gamma
TAU_GR.S              1.5;3: GR Time Constant
K_GK                   1580: äéùî. èÖêÖïéÑÄ
SPEED.M/H           420;780: Speed M/Hour
                     NGK_60: Probe NGR
USL_ED.IMP/MIN         5500: 1 ìëã.ÖÑ.
OTN_KNL.GR/NGR            9: éíçéòÖçàÖ äÄçÄãéÇ
TAU_NGR.S             1.5;3: NGR Time Constant
SPEED.M/H           420;780: Speed M/Hour
                        K_3: Cartridge BK
                       BK_3: Probe BK
                       USBA: Cartridge DT
                 Sonde 1.4M: Probe DT
                      SKP_1: Cartridge DS
~Curve Information Block
#MNEM.UNIT       API CODE     Curve Description
#---------    -------------   --------------------------------
DEPT.M                    :    1    DEPTH M
BK.OHMM                   :    2    LATEROLOG DEEP
DS.M                      :    3    CALIPER
DT.MCS                    :    4    DELTA TIME INTERVAL TRANSIT TIME MCSEC/M
GR.MCR/H                  :    5    GAMMA RAY MICRO_ROENTGENS PER HOUR
NGR.UE                    :    6    NEUTRON GAMMA RAY
~A DEPT.M       BK           DS           DT           GR           NGR          
# ...
   898.80       10.80800      0.22000  -9999.00000      4.63900      2.61800
   899.00       11.12600      0.21900  -9999.00000      4.70100      2.61300
   899.20       13.04700      0.21700  -9999.00000      4.73000      2.56100
   899.40       13.62600      0.21600  -9999.00000      4.93100      2.44000
   899.60        7.74500      0.21700  -9999.00000      6.08800      2.26600
   899.80        5.01700      0.21700  -9999.00000      7.19500      2.26600
   900.00        4.53300      0.21800  -9999.00000      6.84300      2.26600
   900.20        4.27800      0.21900  -9999.00000      6.18900      2.26600
   900.40        4.15600      0.21900  -9999.00000      5.23300      2.26600
   900.60        3.92200      0.21800  -9999.00000      3.87400      2.25800
   900.80        3.86500      0.21800  -9999.00000      3.47200      2.22800
   901.00        4.15600      0.21700  -9999.00000      3.11900      2.19000
   901.20        4.53300      0.21700  -9999.00000      3.57200      2.12900
   901.40        4.03700      0.21800  -9999.00000      4.02500      2.07600
   901.60        3.59500      0.21900  -9999.00000      3.72300      2.02300
   901.80        3.34400      0.21900  -9999.00000      3.17000      1.97000
   902.00        2.97800      0.21800  -9999.00000      2.81800      1.94000
   902.20        3.06600      0.21500  -9999.00000      2.56600      1.88700
   902.40        3.15600      0.21600  -9999.00000      2.31400      1.92500
   902.60        2.89300      0.21800  -9999.00000      2.61600      1.97000
   902.80        2.57700      0.21900  -9999.00000      2.71700      1.98500
   903.00        2.29500      0.21900  -9999.00000      2.91800      1.90200
   903.20        2.04400      0.21900  -9999.00000      3.17000      1.82600
   903.40        1.79400      0.21900  -9999.00000      3.47200      1.81100
   903.60        1.66900      0.21900  -9999.00000      3.11900      1.87200
   903.80        1.53000      0.21800  -9999.00000      2.86800      1.92500
   904.00        1.64500      0.21700  -9999.00000      2.61600      1.96300
   904.20        1.87400      0.21800  -9999.00000      2.71700      2.06100
   904.40        1.79400      0.21800  -9999.00000      2.76700      1.97800
   904.60        1.74300      0.21800  -9999.00000      2.46500      1.91000
   904.80        1.64500      0.21800  -9999.00000      2.31400      1.84900
   905.00        1.62100      0.21800  -9999.00000      2.16400      1.80400
   905.20        1.66900      0.21800  -9999.00000      2.01300      1.77400
   905.40        1.66900      0.21800  -9999.00000      1.86200      1.68300
   905.60        1.69300      0.21800  -9999.00000      1.81100      1.66000
   905.80        1.59800      0.21600  -9999.00000      1.91200      1.66000
   906.00        1.50800      0.21800  -9999.00000      1.96200      1.75800
   906.20        1.36300      0.21900  -9999.00000      2.11300      1.78100
   906.40        1.21400      0.21800  -9999.00000      2.21400      1.80400
   906.60        1.87400      0.21700  -9999.00000      2.31400      1.82600
   906.80        2.29500      0.21600  -9999.00000      2.41500      1.85700
   907.00        2.32800      0.21500  -9999.00000      2.46500      1.88700
   907.20        2.22900      0.21800  -9999.00000      2.51600      1.92500
   907.40        2.43200      0.22000  -9999.00000      2.21400      1.97000
   907.60        2.69100      0.21800  -9999.00000      2.06300      2.01600
   907.80        3.02200      0.21600  -9999.00000      1.91200      2.06900
   908.00        3.49300      0.21600  -9999.00000      1.71100      2.13700
   908.20        3.97900      0.21700  -9999.00000      1.81100      2.18200
   908.40        4.46800      0.21800  -9999.00000      1.91200      2.24300
   908.60        5.23900      0.21800  -9999.00000      2.06300      2.35600
   908.80        5.71500      0.21800  -9999.00000      2.11300      2.49300
   909.00        3.59500      0.21900  -9999.00000      2.21400      2.31900
   909.20        2.73100      0.21900  -9999.00000      2.11300      2.23500
   909.40        2.16600      0.21900  -9999.00000      2.01300      2.24300
   909.60        2.50300      0.21800  -9999.00000      2.36500      2.26600
   909.80        2.65300      0.21800  -9999.00000      2.71700      2.29600
   910.00        2.29500      0.21800  -9999.00000      2.91800      2.34100
   910.20        2.01500      0.21600  -9999.00000      2.61600      2.20500
   910.40        1.84700      0.21500  -9999.00000      2.51600      2.08400
   910.60        1.79400      0.21600  -9999.00000      2.46500      1.97800
   910.80        1.92900      0.21700  -9999.00000      2.36500      1.82600
   911.00        2.26200      0.21800  -9999.00000      2.36500      1.87900
   911.20        2.97800      0.21900  -9999.00000      2.56600      1.91700
   911.40        2.93600      0.22000  -9999.00000      2.76700      1.95500
   911.60        2.57700      0.22100  -9999.00000      3.11900      1.98500
   911.80        2.16600      0.22200  -9999.00000      3.57200      1.95500
   912.00        2.29500      0.22000  -9999.00000      3.92500      1.91700
   912.20        2.57700      0.21600  -9999.00000      2.81800      1.87200
   912.40        2.22900      0.21600  -9999.00000      1.75000      1.82600
   912.60        1.92900      0.21700  -9999.00000      1.71900      1.78900
   912.80        1.71800      0.21900  -9999.00000      1.73400      1.71300
   913.00        1.59800      0.21900  -9999.00000      1.86200      1.72100
   913.20        1.46500      0.21900  -9999.00000      1.96200      1.78100
   913.40        1.46500      0.22000  -9999.00000      2.17300      1.81100
   913.60        1.57500      0.22000  -9999.00000      2.01300      1.84200
   913.80        1.66900      0.22000  -9999.00000      1.91200      1.88700
   914.00        1.74300      0.22100  -9999.00000      1.85000      1.95500
   914.20        1.82000      0.22200  -9999.00000      1.85000      2.05400
   914.40        2.07400      0.22300  -9999.00000      1.85000      2.16700
   914.60        2.43200      0.22200  -9999.00000      1.86500      2.27300
   914.80        2.97800      0.22100  -9999.00000      1.96200      2.29600
   915.00        3.59500      0.22000  -9999.00000      2.16400      2.25000
   915.20        4.59900      0.21900  -9999.00000      2.36500      2.20500
   915.40        4.94400      0.21700  -9999.00000      2.72600      2.13700
   915.60        3.97900      0.22000  -9999.00000      2.72600      2.09100
   915.80        3.34400      0.22200  -9999.00000      2.54100      2.00800
   916.00        3.49300      0.22200  -9999.00000      2.54100      2.07600
   916.20        4.03700      0.21800  -9999.00000      2.54100      2.16000
   916.40        4.53300      0.21600  -9999.00000      2.57200      2.28100
   916.60        5.23900      0.21600  -9999.00000      2.71700      2.44700
   916.80        5.88300      0.21600  -9999.00000      2.86800      2.77900
   917.00        7.63500      0.21700  -9999.00000      3.01900      2.77700
   917.20        9.76600      0.21800  -9999.00000      3.17000      2.54600
   917.40       11.28800      0.21900  -9999.00000      3.32100      2.37200
   917.60        4.15600      0.22000  -9999.00000      3.22000      2.17500
   917.80        3.44300      0.21900  -9999.00000      3.06900      1.99300
   918.00        3.02200      0.21800  -9999.00000      2.86800      1.92500
   918.20        2.32800      0.21800  -9999.00000      2.66700      1.80400
   918.40        2.69100      0.21700  -9999.00000      2.51600      1.78900
   918.60        3.49300      0.21700  -9999.00000      2.41500      1.91700
   918.80        4.87300      0.21700  -9999.00000      2.31400      1.98500
   919.00        4.46800      0.21600  -9999.00000      2.16400      2.03100
   919.20        4.09600      0.21400  -9999.00000      2.11300      1.98500
   919.40        3.76000      0.21400  -9999.00000      2.01300      1.94000
