~Version information
VERS.              2.00:   CWLS LOG ASCII STANDARD -VERSION 2.00
WRAP.                NO:   one line per depth step
~Well Information Block
#MNEM.UNIT     DATA         DESCRIPTION OF MNEMONIC
#--------  --------------   ------------------------
STRT.M                 4.40:START DEPTH
STOP.M              1112.80:STOP DEPTH
STEP.M                 0.20:STEP VALUE
NULL.           -9999.00000:NULL VALUE
WELL.                 13419:WELL NAME
FLD .             VYATSKAYA:FIELD NAME
CTRY.                RUSSIA:COUNTRY
DATE.            01.12.1988:DATE
UWI .                 13419:UNIQUE WELL IDENTIFIER
SRVC.         ÄêãÄçëäÄü èÉä:çÄáÇÄçàÖ ëÖêÇàëçéâ äéåèÄçàà Éàë
SRVC_OC.                ààí:çÄáÇÄçàÖ ëÖêÇàëçéâ äéåèÄçàà-éñàîêéÇäÄ
~Parameter Information Block
#MNEM.UNIT       Value     Description of mnemonic
#---------   -----------   ------------------------------------
EKB .M               158.08: Elevation Kelly Bushing
TDL.M                  1114: Total Depth
SCD .M          -9999.00000: Surface Casing Diameter
SCDP.M          -9999.00000: Surface Casing Depth
CD  .M                0.228: Casing Diameter
CDP .M                  412: Casing Depth
BS  .M                0.216: Bit Size
                       CLAY: Drill Fluid Type
DFD .G/CM3      -9999.00000: Drill Fluid Density
DFV .S          -9999.00000: Drill Fluid Viscosity
RMF.OHMM               0.07: Mud Filtrate Resistivity
MT  .C                   18: Meas Temperature
                      DRST3: Cartridge Gamma
TAU_GR.S              1.5;3: GR Time Constant
K_GK                   1580: äéùî. èÖêÖïéÑÄ
SPEED.M/H           420;780: Speed M/Hour
                     NGK_60: Probe NGR
USL_ED.IMP/MIN         5500: 1 ìëã.ÖÑ.
OTN_KNL.GR/NGR            9: éíçéòÖçàÖ äÄçÄãéÇ
TAU_NGR.S             1.5;3: NGR Time Constant
SPEED.M/H           420;780: Speed M/Hour
                        K_3: Cartridge BK
                       BK_3: Probe BK
                       USBA: Cartridge DT
                 Sonde 1.4M: Probe DT
                      SKP_1: Cartridge DS
~Curve Information Block
#MNEM.UNIT       API CODE     Curve Description
#---------    -------------   --------------------------------
DEPT.M                    :    1    DEPTH M
BK.OHMM                   :    2    LATEROLOG DEEP
DS.M                      :    3    CALIPER
DT.MCS                    :    4    DELTA TIME INTERVAL TRANSIT TIME MCSEC/M
GR.MCR/H                  :    5    GAMMA RAY MICRO_ROENTGENS PER HOUR
NGR.UE                    :    6    NEUTRON GAMMA RAY
~A DEPT.M       BK           DS           DT           GR           NGR          
# ...
   711.60       20.73800      0.21400  -9999.00000      3.92500      2.16000
   711.80       21.97500      0.21500  -9999.00000      4.32700      1.92500
   712.00       22.95000      0.21500  -9999.00000      4.78000      1.94800
   712.20       24.31900      0.21400  -9999.00000      5.73600      1.97000
   712.40       24.67400      0.21400  -9999.00000      5.73600      1.99300
   712.60       23.62600      0.21400  -9999.00000      4.67900      2.02300
   712.80       26.14500      0.21400  -9999.00000      4.27700      2.05400
   713.00       53.15800      0.21400  -9999.00000      3.97500      2.09100
   713.20       49.44500      0.21400  -9999.00000      3.82400      2.12200
   713.40       44.67900      0.21500  -9999.00000      3.72300      2.15200
   713.60       38.65700      0.21600  -9999.00000      3.82400      2.17500
   713.80       44.03600      0.21700  -9999.00000      3.92500      2.12900
   714.00       52.39400      0.21600  -9999.00000      3.67300      2.08400
   714.20       72.05200      0.21500  -9999.00000      3.42100      2.03800
   714.40       45.33000      0.21500  -9999.00000      3.27000      1.98500
   714.60       26.52400      0.21300  -9999.00000      3.17000      1.92500
   714.80       17.17900      0.21300  -9999.00000      3.06900      1.84900
   715.00       12.31200      0.21400  -9999.00000      3.29900      1.77400
   715.20        7.85900      0.21400  -9999.00000      3.37800      1.68300
   715.40        7.74600      0.21400  -9999.00000      3.53700      1.75800
   715.60       11.62100      0.21600  -9999.00000      3.52200      1.81900
   715.80       14.43900      0.21600  -9999.00000      3.46100      1.87900
   716.00       18.73900      0.21800  -9999.00000      3.17000      1.93200
   716.20       24.31900      0.22000  -9999.00000      2.96900      1.98500
   716.40       12.49200      0.21800  -9999.00000      2.81800      2.03800
   716.60        7.63400      0.21600  -9999.00000      2.66700      2.08400
   716.80        4.59900      0.21400  -9999.00000      2.51600      2.13700
   717.00        5.79800      0.21500  -9999.00000      2.61600      2.19700
   717.20        8.95300      0.21500  -9999.00000      2.81800      2.27300
   717.40       11.62000      0.21500  -9999.00000      3.27000      2.36400
   717.60       16.21400      0.21500  -9999.00000      3.92500      2.47000
   717.80       22.29500      0.21500  -9999.00000      4.73000      2.54600
   718.00       31.10800      0.21500  -9999.00000      5.53500      2.60600
   718.20       39.79100      0.21400  -9999.00000      6.34000      2.67400
   718.40       31.56100      0.21400  -9999.00000      7.09400      2.60600
   718.60       25.76800      0.21500  -9999.00000      6.54100      2.56100
   718.80       22.72800      0.21500  -9999.00000      5.98700      2.51500
   719.00       22.72800      0.21500  -9999.00000      5.58500      2.48500
   719.20       22.72800      0.21600  -9999.00000      5.23300      2.41700
   719.40       22.72800      0.21600  -9999.00000      5.03100      2.50000
   719.60       67.02900      0.21700  -9999.00000      4.88100      2.61400
   719.80       96.25800      0.21700  -9999.00000      4.83000      2.69000
   720.00      138.25200      0.21800  -9999.00000      4.78000      2.93200
   720.20      179.42400      0.21800  -9999.00000      4.67900      2.92400
   720.40      108.08200      0.21800  -9999.00000      4.47800      2.65900
   720.60       59.68000      0.21900  -9999.00000      4.22600      2.39400
   720.80       32.02200      0.21900  -9999.00000      4.02500      2.14400
   721.00       22.29500      0.21900  -9999.00000      3.77400      2.09100
   721.20       12.13500      0.21900  -9999.00000      3.92500      2.03100
   721.40       14.02700      0.21800  -9999.00000      4.12600      1.96300
   721.60       17.94300      0.21900  -9999.00000      3.92500      1.91700
   721.80       21.65900      0.21900  -9999.00000      3.59800      1.96300
   722.00       26.91400      0.21800  -9999.00000      3.64400      2.00800
   722.20       34.92900      0.21600  -9999.00000      3.73600      2.06100
   722.40       45.99200      0.21700  -9999.00000      3.78200      2.10700
   722.60       68.00200      0.21700  -9999.00000      3.67300      2.16000
   722.80       85.72800      0.21800  -9999.00000      3.67300      2.10700
   723.00       43.40300      0.21900  -9999.00000      3.57200      2.06100
   723.20       29.35700      0.21900  -9999.00000      3.52200      2.01600
   723.40       21.97500      0.21900  -9999.00000      3.42100      2.06900
   723.60       24.31900      0.21900  -9999.00000      3.82400      2.16700
   723.80       24.67400      0.21900  -9999.00000      4.40800      2.15200
   724.00       19.28900      0.21900  -9999.00000      4.37700      2.13700
   724.20       16.93200      0.21900  -9999.00000      4.22600      2.11400
   724.40       15.52300      0.21800  -9999.00000      3.92500      2.06100
   724.60       14.43800      0.21700  -9999.00000      3.47200      1.91000
   724.80       11.62000      0.21500  -9999.00000      3.01900      1.81900
   725.00        8.95300      0.21400  -9999.00000      2.66700      1.77400
   725.20        6.05600      0.21300  -9999.00000      2.46500      1.70500
   725.40        6.99900      0.21500  -9999.00000      2.21400      1.70500
   725.60        9.62600      0.21700  -9999.00000      2.41500      1.75100
   725.80        9.76600      0.21900  -9999.00000      2.66700      1.75100
   726.00        5.88300      0.21900  -9999.00000      2.76700      1.72800
   726.20        3.59500      0.21800  -9999.00000      2.51600      1.70500
   726.40        4.53300      0.21800  -9999.00000      2.46500      1.80400
   726.60        5.39300      0.21700  -9999.00000      2.76700      1.94000
   726.80        6.89900      0.21700  -9999.00000      2.96900      2.06100
   727.00        6.70200      0.21800  -9999.00000      3.17000      2.26500
   727.20        6.23400      0.21800  -9999.00000      2.91800      2.26500
   727.40        6.80000      0.21800  -9999.00000      2.76700      2.26400
   727.60        7.85900      0.21900  -9999.00000      2.66700      2.26300
   727.80        9.48700      0.21900  -9999.00000      2.46500      2.34900
   728.00       12.13500      0.21900  -9999.00000      2.71700      2.44700
   728.20       15.30000      0.21800  -9999.00000      2.86800      2.54600
   728.40       18.73900      0.21700  -9999.00000      3.01900      2.76400
   728.60       22.29600      0.21700  -9999.00000      3.17000      2.79800
   728.80       25.03400      0.21500  -9999.00000      3.32100      2.80300
   729.00       27.30400      0.21500  -9999.00000      3.37100      2.81100
   729.20       27.00300      0.21300  -9999.00000      3.27000      2.78700
   729.40       27.07800      0.21500  -9999.00000      3.17000      2.80800
   729.60       29.35700      0.21800  -9999.00000      3.37100      2.80800
   729.80       30.21900      0.22000  -9999.00000      3.42100      2.69700
   730.00       28.93500      0.21800  -9999.00000      3.72300      2.61400
   730.20       26.52700      0.21600  -9999.00000      3.42100      2.56800
   730.40       25.39900      0.21800  -9999.00000      3.57200      2.69700
   730.60       32.96400      0.21900  -9999.00000      3.77400      2.78000
   730.80       35.95500      0.22000  -9999.00000      4.07500      2.87100
   731.00       38.09900      0.21700  -9999.00000      4.47800      2.93200
   731.20       38.09900      0.21600  -9999.00000      5.03100      2.97700
   731.40       18.46900      0.21600  -9999.00000      5.63500      2.65900
   731.60       11.96000      0.21600  -9999.00000      6.23900      2.37900
   731.80        7.85900      0.21600  -9999.00000      7.29600      2.05400
   732.00        8.09000      0.21600  -9999.00000      6.69200      1.96300
   732.20        8.32800      0.21600  -9999.00000      5.73600      1.86400
