~Version information
VERS.              2.00:   CWLS LOG ASCII STANDARD -VERSION 2.00
WRAP.                NO:   one line per depth step
~Well Information Block
#MNEM.UNIT     DATA         DESCRIPTION OF MNEMONIC
#--------  --------------   ------------------------
STRT.M                 4.40:START DEPTH
STOP.M              1087.60:STOP DEPTH
STEP.M                 0.20:STEP VALUE
NULL.           -9999.00000:NULL VALUE
WELL.                 13416:WELL NAME
FLD .             VYATSKAYA:FIELD NAME
CTRY.                RUSSIA:COUNTRY
DATE.            13.12.1988:DATE
UWI .                 13416:UNIQUE WELL IDENTIFIER
SRVC.         ÄêãÄçëäÄü èÉä:çÄáÇÄçàÖ ëÖêÇàëçéâ äéåèÄçàà Éàë
SRVC_OC.                ààí:çÄáÇÄçàÖ ëÖêÇàëçéâ äéåèÄçàà-éñàîêéÇäÄ
~Parameter Information Block
#MNEM.UNIT       Value     Description of mnemonic
#---------   -----------   ------------------------------------
EKB .M               157.98: Elevation Kelly Bushing
TDL.M                  1087: Total Depth
SCD .M          -9999.00000: Surface Casing Diameter
SCDP.M          -9999.00000: Surface Casing Depth
CD  .M                0.228: Casing Diameter
CDP .M                  412: Casing Depth
BS  .M                0.216: Bit Size
                       CLAY: Drill Fluid Type
DFD .G/CM3        1.07-1.09: Drill Fluid Density
DFV .S                22-24: Drill Fluid Viscosity
RMF.OHMM               0.07: Mud Filtrate Resistivity
MT  .C                   18: Meas Temperature
                      DRST3: Cartridge Gamma
TAU_GR.S              1.5;3: GR Time Constant
K_GK                   1580: äéùî. èÖêÖïéÑÄ
SPEED.M/H               890: Speed M/Hour
                     NGK_60: Probe NGR
USL_ED.IMP/MIN         5500: 1 ìëã.ÖÑ.
OTN_KNL.GR/NGR            9: éíçéòÖçàÖ äÄçÄãéÇ
TAU_NGR.S             1.5;3: NGR Time Constant
SPEED.M/H               890: Speed M/Hour
                        K_3: Cartridge BK
                       BK_3: Probe BK
                       USBA: Cartridge DT
                 Sonde 1.4M: Probe DT
                      SKP_1: Cartridge DS
~Curve Information Block
#MNEM.UNIT       API CODE     Curve Description
#---------    -------------   --------------------------------
DEPT.M                    :    1    DEPTH M
BK.OHMM                   :    2    LATEROLOG DEEP
DS.M                      :    3    CALIPER
DT.MCS                    :    4    DELTA TIME INTERVAL TRANSIT TIME MCSEC/M
GR.MCR/H                  :    5    GAMMA RAY MICRO_ROENTGENS PER HOUR
NGR.UE                    :    6    NEUTRON GAMMA RAY
~A DEPT.M       BK           DS           DT           GR           NGR          
# ...
   794.80       13.00800      0.21700  -9999.00000      3.57800      2.29200
   795.00       16.60100      0.21800  -9999.00000      3.87600      2.52400
   795.20       13.38700      0.21900  -9999.00000      4.22400      2.51600
   795.40       11.59800      0.22000  -9999.00000      4.52200      2.50400
   795.60       10.19300      0.21800  -9999.00000      3.49000      2.43400
   795.80        8.70500      0.21700  -9999.00000      3.38100      2.33700
   796.00        8.83000      0.21600  -9999.00000      3.13500      2.27000
   796.20        9.35200      0.21700  -9999.00000      2.99800      2.20200
   796.40       10.04800      0.21900  -9999.00000      3.08100      2.13500
   796.60       10.95100      0.21900  -9999.00000      3.28000      2.07600
   796.80       12.46000      0.21800  -9999.00000      3.42900      2.04600
   797.00       12.46000      0.21700  -9999.00000      3.67700      2.00100
   797.20       10.48900      0.21700  -9999.00000      3.97500      1.94900
   797.40        9.62400      0.21700  -9999.00000      4.17400      1.87500
   797.60       10.64100      0.21800  -9999.00000      4.32300      1.82200
   797.80       11.76500      0.21900  -9999.00000      4.47200      1.71800
   798.00       13.58000      0.22000  -9999.00000      4.62100      1.76300
   798.20       16.84100      0.21800  -9999.00000      4.77000      1.81500
   798.40       10.19300      0.21800  -9999.00000      5.06800      1.85200
   798.60        3.89900      0.21600  -9999.00000      5.36600      1.89700
   798.80        7.43400      0.21900  -9999.00000      5.86300      1.94900
   799.00       18.62000      0.21700  -9999.00000      6.01200      2.03100
   799.20       38.70200      0.21600  -9999.00000      5.46600      2.12000
   799.40       39.82900      0.21500  -9999.00000      5.26700      2.20200
   799.60       25.52600      0.21600  -9999.00000      5.01900      2.26200
   799.80       11.59800      0.21700  -9999.00000      5.11800      2.32200
   800.00       13.77600      0.21800  -9999.00000      5.06800      2.39300
   800.20       16.36400      0.21800  -9999.00000      5.11800      2.39300
   800.40       14.59000      0.21800  -9999.00000      4.07500      2.37200
   800.60        9.90300      0.21900  -9999.00000      3.57800      2.19500
   800.80        6.91900      0.21900  -9999.00000      3.18000      2.08300
   801.00        5.19300      0.22000  -9999.00000      2.88200      2.00100
   801.20        3.32900      0.22000  -9999.00000      2.68300      1.89700
   801.40        2.53500      0.22000  -9999.00000      2.43500      1.98600
   801.60        3.57600      0.22000  -9999.00000      2.78300      2.06100
   801.80        4.31000      0.22000  -9999.00000      3.18000      2.15000
   802.00        5.19300      0.22000  -9999.00000      3.67700      2.21700
   802.20        4.83400      0.21900  -9999.00000      4.32300      2.27800
   802.40        4.43500      0.21900  -9999.00000      5.01900      2.26600
   802.60        4.06900      0.21900  -9999.00000      3.97500      2.19500
   802.80        3.78800      0.21900  -9999.00000      2.43300      2.09800
   803.00        3.62800      0.21900  -9999.00000      2.13200      2.03100
   803.20        3.52600      0.22000  -9999.00000      2.10500      1.90400
   803.40        4.01100      0.22000  -9999.00000      2.10500      2.03100
   803.60        4.56400      0.22000  -9999.00000      2.10500      2.18400
   803.80        4.97500      0.22000  -9999.00000      2.10500      2.16300
   804.00        5.74200      0.22000  -9999.00000      2.13200      2.13400
   804.20        5.19300      0.22000  -9999.00000      2.37900      2.12600
   804.40        4.63000      0.21900  -9999.00000      2.68300      2.12600
   804.60        5.82500      0.21800  -9999.00000      2.88200      2.10200
   804.80        6.62800      0.21800  -9999.00000      3.03100      2.08500
   805.00        7.76100      0.21700  -9999.00000      3.23000      2.06000
   805.20        7.87300      0.21800  -9999.00000      3.08100      2.05200
   805.40        7.12100      0.21900  -9999.00000      2.88200      2.11800
   805.60        6.53300      0.21900  -9999.00000      3.03100      2.23300
   805.80        5.90900      0.22000  -9999.00000      3.23000      2.23300
   806.00        5.34500      0.22000  -9999.00000      3.17200      2.22100
   806.20        4.69700      0.22100  -9999.00000      2.95300      2.18400
   806.40        4.18800      0.22100  -9999.00000      2.87100      2.16300
   806.60        3.73400      0.22000  -9999.00000      2.81700      2.07600
   806.80        3.52600      0.21900  -9999.00000      2.78900      1.99400
   807.00        3.28200      0.21900  -9999.00000      2.83200      2.05300
   807.20        3.42600      0.21900  -9999.00000      2.68300      2.09100
   807.40        3.23500      0.21900  -9999.00000      2.58400      2.15500
   807.60        3.14300      0.21900  -9999.00000      2.43500      2.15900
   807.80        2.96800      0.21900  -9999.00000      2.53400      2.15100
   808.00        3.18900      0.21900  -9999.00000      2.48400      2.12200
   808.20        3.42600      0.21900  -9999.00000      2.38500      2.04400
   808.40        3.57600      0.21700  -9999.00000      2.43500      2.02800
   808.60        3.05400      0.21600  -9999.00000      2.48400      2.00700
   808.80        2.96800      0.21500  -9999.00000      2.48400      2.00900
   809.00        3.62800      0.21300  -9999.00000      2.48400      2.03900
   809.20        4.24800      0.21500  -9999.00000      2.48400      2.08300
   809.40        4.76500      0.21600  -9999.00000      2.53400      2.03100
   809.60        2.60800      0.21600  -9999.00000      2.58400      2.07600
   809.80        3.01100      0.21800  -9999.00000      2.73300      2.11300
   810.00        4.76500      0.21700  -9999.00000      2.83200      2.21700
   810.20        5.90900      0.21700  -9999.00000      2.93200      2.26200
   810.40        5.90900      0.21400  -9999.00000      3.03100      2.26200
   810.60        5.58000      0.21600  -9999.00000      3.13000      2.09100
   810.80        4.90400      0.21700  -9999.00000      3.28000      2.02400
   811.00        4.24800      0.21800  -9999.00000      3.08100      1.96400
   811.20        3.78800      0.21700  -9999.00000      2.88200      1.91900
   811.40        3.37700      0.21700  -9999.00000      2.73300      1.83700
   811.60        3.05400      0.21600  -9999.00000      2.58400      1.92700
   811.80        2.60800      0.21700  -9999.00000      2.43500      1.99400
   812.00        3.14300      0.21800  -9999.00000      2.38500      2.05300
   812.20        3.62800      0.21800  -9999.00000      2.58400      2.11300
   812.40        4.24800      0.21900  -9999.00000      2.73300      2.16000
   812.60        5.11900      0.21900  -9999.00000      2.88200      2.13100
   812.80        6.25800      0.22000  -9999.00000      2.78300      2.11100
   813.00        7.76100      0.21900  -9999.00000      2.73300      2.00100
   813.20        9.76300      0.21900  -9999.00000      2.68300      1.93400
   813.40       11.93500      0.21800  -9999.00000      2.83200      1.89700
   813.60       13.97600      0.21600  -9999.00000      2.88200      1.84500
   813.80       16.36400      0.21800  -9999.00000      3.03100      1.89700
   814.00       17.33100      0.21800  -9999.00000      3.23000      1.96400
   814.20       13.00800      0.21700  -9999.00000      3.42900      2.03100
   814.40       10.34000      0.21500  -9999.00000      3.72700      2.10600
   814.60        5.39700      0.21600  -9999.00000      3.87600      2.16500
   814.80        5.39700      0.21600  -9999.00000      3.67700      2.22500
   815.00        5.44000      0.21700  -9999.00000      3.42900      2.30700
   815.20        5.88600      0.21700  -9999.00000      3.62700      2.39600
   815.40        6.91900      0.21700  -9999.00000      3.92500      2.49300
