~Version information
VERS.              2.00:   CWLS LOG ASCII STANDARD -VERSION 2.00
WRAP.                NO:   one line per depth step
~Well Information Block
#MNEM.UNIT     DATA         DESCRIPTION OF MNEMONIC
#--------  --------------   ------------------------
STRT.M                 4.40:START DEPTH
STOP.M              1087.60:STOP DEPTH
STEP.M                 0.20:STEP VALUE
NULL.           -9999.00000:NULL VALUE
WELL.                 13416:WELL NAME
FLD .             VYATSKAYA:FIELD NAME
CTRY.                RUSSIA:COUNTRY
DATE.            13.12.1988:DATE
UWI .                 13416:UNIQUE WELL IDENTIFIER
SRVC.         ÄêãÄçëäÄü èÉä:çÄáÇÄçàÖ ëÖêÇàëçéâ äéåèÄçàà Éàë
SRVC_OC.                ààí:çÄáÇÄçàÖ ëÖêÇàëçéâ äéåèÄçàà-éñàîêéÇäÄ
~Parameter Information Block
#MNEM.UNIT       Value     Description of mnemonic
#---------   -----------   ------------------------------------
EKB .M               157.98: Elevation Kelly Bushing
TDL.M                  1087: Total Depth
SCD .M          -9999.00000: Surface Casing Diameter
SCDP.M          -9999.00000: Surface Casing Depth
CD  .M                0.228: Casing Diameter
CDP .M                  412: Casing Depth
BS  .M                0.216: Bit Size
                       CLAY: Drill Fluid Type
DFD .G/CM3        1.07-1.09: Drill Fluid Density
DFV .S                22-24: Drill Fluid Viscosity
RMF.OHMM               0.07: Mud Filtrate Resistivity
MT  .C                   18: Meas Temperature
                      DRST3: Cartridge Gamma
TAU_GR.S              1.5;3: GR Time Constant
K_GK                   1580: äéùî. èÖêÖïéÑÄ
SPEED.M/H               890: Speed M/Hour
                     NGK_60: Probe NGR
USL_ED.IMP/MIN         5500: 1 ìëã.ÖÑ.
OTN_KNL.GR/NGR            9: éíçéòÖçàÖ äÄçÄãéÇ
TAU_NGR.S             1.5;3: NGR Time Constant
SPEED.M/H               890: Speed M/Hour
                        K_3: Cartridge BK
                       BK_3: Probe BK
                       USBA: Cartridge DT
                 Sonde 1.4M: Probe DT
                      SKP_1: Cartridge DS
~Curve Information Block
#MNEM.UNIT       API CODE     Curve Description
#---------    -------------   --------------------------------
DEPT.M                    :    1    DEPTH M
BK.OHMM                   :    2    LATEROLOG DEEP
DS.M                      :    3    CALIPER
DT.MCS                    :    4    DELTA TIME INTERVAL TRANSIT TIME MCSEC/M
GR.MCR/H                  :    5    GAMMA RAY MICRO_ROENTGENS PER HOUR
NGR.UE                    :    6    NEUTRON GAMMA RAY
~A DEPT.M       BK           DS           DT           GR           NGR          
# ...
   399.60    -9999.00000  -9999.00000  -9999.00000      1.34200      1.15000
   399.80    -9999.00000  -9999.00000  -9999.00000      1.49100      1.14600
   400.00    -9999.00000  -9999.00000  -9999.00000      1.59000      1.14200
   400.20    -9999.00000  -9999.00000  -9999.00000      1.68900      1.16200
   400.40    -9999.00000  -9999.00000  -9999.00000      1.68900      1.19100
   400.60    -9999.00000  -9999.00000  -9999.00000      1.78900      1.23200
   400.80    -9999.00000  -9999.00000  -9999.00000      1.88800      1.25700
   401.00    -9999.00000  -9999.00000  -9999.00000      1.98800      1.29300
   401.20    -9999.00000  -9999.00000  -9999.00000      2.03700      1.26300
   401.40    -9999.00000  -9999.00000  -9999.00000      2.12200      1.25600
   401.60    -9999.00000  -9999.00000  -9999.00000      2.12200      1.22600
   401.80    -9999.00000  -9999.00000  -9999.00000      2.12200      1.25600
   402.00    -9999.00000  -9999.00000  -9999.00000      2.12200      1.27800
   402.20    -9999.00000  -9999.00000  -9999.00000      2.12200      1.32300
   402.40    -9999.00000  -9999.00000  -9999.00000      2.08700      1.34500
   402.60    -9999.00000  -9999.00000  -9999.00000      1.93800      1.26300
   402.80    -9999.00000  -9999.00000  -9999.00000      1.68900      1.23400
   403.00    -9999.00000  -9999.00000  -9999.00000      1.64000      1.21100
   403.20    -9999.00000  -9999.00000  -9999.00000      2.08700      1.19600
   403.40    -9999.00000  -9999.00000  -9999.00000      2.63400      1.19600
   403.60    -9999.00000  -9999.00000  -9999.00000      2.58400      1.17400
   403.80    -9999.00000  -9999.00000  -9999.00000      2.28600      1.20400
   404.00    -9999.00000  -9999.00000  -9999.00000      2.08700      1.19600
   404.20    -9999.00000  -9999.00000  -9999.00000      1.93800      1.17400
   404.40    -9999.00000  -9999.00000  -9999.00000      1.83900      1.18900
   404.60    -9999.00000  -9999.00000  -9999.00000      1.68900      1.19600
   404.80    -9999.00000  -9999.00000  -9999.00000      1.27400      1.19600
   405.00    -9999.00000  -9999.00000  -9999.00000      1.24600      1.16600
   405.20    -9999.00000  -9999.00000  -9999.00000      1.43800      1.13700
   405.40    -9999.00000  -9999.00000  -9999.00000      1.39100      1.12200
   405.60    -9999.00000  -9999.00000  -9999.00000      1.39100      1.10700
   405.80    -9999.00000  -9999.00000  -9999.00000      1.49100      1.09200
   406.00    -9999.00000  -9999.00000  -9999.00000      1.39100      1.07000
   406.20    -9999.00000  -9999.00000  -9999.00000      1.34200      1.03200
   406.40    -9999.00000      0.22200  -9999.00000      1.24200      0.99500
   406.60    -9999.00000      0.22200  -9999.00000      1.19300      1.04000
   406.80    -9999.00000      0.22300  -9999.00000      1.19300      1.08400
   407.00    -9999.00000      0.22500  -9999.00000      1.24200      1.14400
   407.20    -9999.00000      0.22500  -9999.00000      1.34200      1.21900
   407.40    -9999.00000      0.22400  -9999.00000      1.24200      1.29300
   407.60    -9999.00000      0.22300  -9999.00000      1.14300      1.33800
   407.80       15.92100      0.22200  -9999.00000      1.04300      1.45700
   408.00       15.92100      0.22200  -9999.00000      0.84500      1.38300
   408.20       15.92100      0.22200  -9999.00000      1.04300      1.32300
   408.40       15.92100      0.22300  -9999.00000      1.24200      1.25600
   408.60       15.92100      0.22300  -9999.00000      1.39100      1.21900
   408.80       15.92100      0.22400  -9999.00000      1.54000      1.13700
   409.00       15.92100      0.22400  -9999.00000      1.78900      1.18900
   409.20    -9999.00000      0.22400  -9999.00000      1.59000      1.24100
   409.40    -9999.00000      0.22400  -9999.00000      1.49100      1.28600
   409.60    -9999.00000      0.22400  -9999.00000      1.29200      1.13700
   409.80    -9999.00000      0.22300  -9999.00000      1.34200      1.09200
   410.00    -9999.00000      0.22300  -9999.00000      1.44100      1.14400
   410.20    -9999.00000      0.22200  -9999.00000      1.54000      1.10700
   410.40    -9999.00000      0.22200  -9999.00000      1.59000      1.08400
   410.60    -9999.00000      0.22200  -9999.00000      1.68900      1.06200
   410.80    -9999.00000      0.22200  -9999.00000      1.73900      1.00200
   411.00    -9999.00000      0.22200  -9999.00000      1.78900      1.00200
   411.20    -9999.00000      0.22200  -9999.00000      1.83900      1.09900
   411.40    -9999.00000      0.22200  -9999.00000      1.88800      1.13700
   411.60    -9999.00000      0.22200  -9999.00000      1.93800      1.18100
   411.80    -9999.00000      0.22200  -9999.00000      1.83900      1.24100
   412.00       13.77600      0.22400  -9999.00000      1.73900      1.30800
   412.20       58.67100      0.22500  -9999.00000      1.73900      1.36800
   412.40       79.29800      0.22600  -9999.00000      1.68900      1.47200
   412.60       78.93900      0.22300  -9999.00000      1.68900      1.33000
   412.80       77.01300      0.22100  -9999.00000      1.68900      1.33000
   413.00       65.87200      0.22000  -9999.00000      1.68900      1.33000
   413.20       13.00800      0.21900  -9999.00000      1.68900      1.40500
   413.40       19.72000      0.21800  -9999.00000      1.78900      1.48700
   413.60       14.38200      0.21900  -9999.00000      1.88800      1.42700
   413.80       10.64000      0.22000  -9999.00000      1.78900      1.39000
   414.00        6.16900      0.22100  -9999.00000      1.88800      1.33800
   414.20        5.34500      0.22000  -9999.00000      1.78900      1.36000
   414.40        5.42200      0.21900  -9999.00000      1.73900      1.38300
   414.60        5.34500      0.22000  -9999.00000      1.64000      1.40500
   414.80        5.66000      0.22100  -9999.00000      1.68900      1.42000
   415.00        6.25800      0.22200  -9999.00000      1.73900      1.43500
   415.20        7.12100      0.22100  -9999.00000      1.73900      1.44200
   415.40        8.21900      0.22100  -9999.00000      1.73900      1.43500
   415.60        7.12100      0.22000  -9999.00000      1.93800      1.41200
   415.80        6.53300      0.22000  -9999.00000      2.08700      1.39800
   416.00        6.25800      0.21900  -9999.00000      2.28600      1.37500
   416.20        5.90900      0.21900  -9999.00000      2.38500      1.35300
   416.40        8.21900      0.22000  -9999.00000      2.48400      1.34500
   416.60       14.17700      0.22100  -9999.00000      2.38500      1.33000
   416.80       23.09400      0.22100  -9999.00000      2.28600      1.33000
   417.00       41.58000      0.22100  -9999.00000      2.18600      1.32300
   417.20       61.25100      0.22100  -9999.00000      2.03700      1.27800
   417.40       42.18100      0.22000  -9999.00000      1.98800      1.32300
   417.60       26.65300      0.22000  -9999.00000      1.83900      1.36000
   417.80       16.60000      0.22000  -9999.00000      1.73900      1.44600
   418.00       11.26900      0.22100  -9999.00000      1.54000      1.45400
   418.20        8.83000      0.22100  -9999.00000      1.68900      1.45800
   418.40        6.82100      0.22100  -9999.00000      1.93800      1.45800
   418.60        6.91900      0.22100  -9999.00000      2.18600      1.45800
   418.80        7.43400      0.22000  -9999.00000      2.48400      1.44600
   419.00        7.76100      0.22000  -9999.00000      2.68300      1.43300
   419.20        8.33800      0.22000  -9999.00000      2.98100      1.42100
   419.40        9.21900      0.22000  -9999.00000      2.73300      1.41700
   419.60       10.19300      0.22000  -9999.00000      2.53400      1.41300
   419.80       10.95100      0.21900  -9999.00000      2.33500      1.40900
   420.00       11.93500      0.21900  -9999.00000      1.98800      1.39000
   420.20       13.38700      0.21900  -9999.00000      2.13700      1.36800
