~Version information
VERS.              2.00:   CWLS LOG ASCII STANDARD -VERSION 2.00
WRAP.                NO:   one line per depth step
~Well Information Block
#MNEM.UNIT     DATA         DESCRIPTION OF MNEMONIC
#--------  --------------   ------------------------
STRT.M                 4.40:START DEPTH
STOP.M              1087.60:STOP DEPTH
STEP.M                 0.20:STEP VALUE
NULL.           -9999.00000:NULL VALUE
WELL.                 13416:WELL NAME
FLD .             VYATSKAYA:FIELD NAME
CTRY.                RUSSIA:COUNTRY
DATE.            13.12.1988:DATE
UWI .                 13416:UNIQUE WELL IDENTIFIER
SRVC.         ÄêãÄçëäÄü èÉä:çÄáÇÄçàÖ ëÖêÇàëçéâ äéåèÄçàà Éàë
SRVC_OC.                ààí:çÄáÇÄçàÖ ëÖêÇàëçéâ äéåèÄçàà-éñàîêéÇäÄ
~Parameter Information Block
#MNEM.UNIT       Value     Description of mnemonic
#---------   -----------   ------------------------------------
EKB .M               157.98: Elevation Kelly Bushing
TDL.M                  1087: Total Depth
SCD .M          -9999.00000: Surface Casing Diameter
SCDP.M          -9999.00000: Surface Casing Depth
CD  .M                0.228: Casing Diameter
CDP .M                  412: Casing Depth
BS  .M                0.216: Bit Size
                       CLAY: Drill Fluid Type
DFD .G/CM3        1.07-1.09: Drill Fluid Density
DFV .S                22-24: Drill Fluid Viscosity
RMF.OHMM               0.07: Mud Filtrate Resistivity
MT  .C                   18: Meas Temperature
                      DRST3: Cartridge Gamma
TAU_GR.S              1.5;3: GR Time Constant
K_GK                   1580: äéùî. èÖêÖïéÑÄ
SPEED.M/H               890: Speed M/Hour
                     NGK_60: Probe NGR
USL_ED.IMP/MIN         5500: 1 ìëã.ÖÑ.
OTN_KNL.GR/NGR            9: éíçéòÖçàÖ äÄçÄãéÇ
TAU_NGR.S             1.5;3: NGR Time Constant
SPEED.M/H               890: Speed M/Hour
                        K_3: Cartridge BK
                       BK_3: Probe BK
                       USBA: Cartridge DT
                 Sonde 1.4M: Probe DT
                      SKP_1: Cartridge DS
~Curve Information Block
#MNEM.UNIT       API CODE     Curve Description
#---------    -------------   --------------------------------
DEPT.M                    :    1    DEPTH M
BK.OHMM                   :    2    LATEROLOG DEEP
DS.M                      :    3    CALIPER
DT.MCS                    :    4    DELTA TIME INTERVAL TRANSIT TIME MCSEC/M
GR.MCR/H                  :    5    GAMMA RAY MICRO_ROENTGENS PER HOUR
NGR.UE                    :    6    NEUTRON GAMMA RAY
~A DEPT.M       BK           DS           DT           GR           NGR          
# ...
   753.20       13.38700      0.21700  -9999.00000      3.32900      2.19500
   753.40        9.48700      0.21600  -9999.00000      3.28000      2.34400
   753.60        4.06900      0.21700  -9999.00000      3.23000      2.50100
   753.80        4.86400      0.21800  -9999.00000      3.13000      2.65700
   754.00        5.51800      0.21900  -9999.00000      2.93200      3.01200
   754.20        7.32700      0.21900  -9999.00000      2.78300      3.02800
   754.40       12.28300      0.21800  -9999.00000      2.63400      3.09000
   754.60       19.72200      0.21900  -9999.00000      2.53400      3.10200
   754.80       27.03800      0.22000  -9999.00000      2.58400      3.11100
   755.00       31.20900      0.21900  -9999.00000      2.58400      3.05700
   755.20       28.63500      0.21900  -9999.00000      2.58400      2.96300
   755.40       25.53000      0.21800  -9999.00000      2.48400      2.93300
   755.60       22.43600      0.21800  -9999.00000      2.43500      2.89600
   755.80       20.00400      0.21800  -9999.00000      2.28600      2.85800
   756.00       23.42400      0.21800  -9999.00000      2.28600      2.82100
   756.20       27.82500      0.21800  -9999.00000      2.28600      2.75300
   756.40       20.88400      0.21800  -9999.00000      2.38500      2.53600
   756.60       14.80000      0.21800  -9999.00000      2.58400      1.97100
   756.80       10.64100      0.21900  -9999.00000      2.88200      1.87500
   757.00        8.58100      0.21900  -9999.00000      3.23000      1.84500
   757.20    -9999.00000      0.22000  -9999.00000      3.67700      1.71100
   757.40        7.22400      0.22000  -9999.00000      4.07500      1.86700
   757.60        6.91900      0.22000  -9999.00000      4.57100      2.09800
   757.80        7.22400      0.22000  -9999.00000      4.91900      2.32900
   758.00        7.76100      0.22000  -9999.00000      5.41600      2.59800
   758.20        8.33800      0.22000  -9999.00000      5.11800      2.88800
   758.40       11.26900      0.22000  -9999.00000      4.82000      3.05200
   758.60       30.33600      0.21900  -9999.00000      4.32300      3.17900
   758.80       62.25800      0.21800  -9999.00000      3.82600      3.36100
   759.00       64.87200      0.21700  -9999.00000      3.42900      3.34900
   759.20       63.94500      0.21600  -9999.00000      3.18000      3.05200
   759.40       18.35500      0.21500  -9999.00000      2.98100      2.76900
   759.60        9.08700      0.21500  -9999.00000      3.87700      2.31400
   759.80        6.44000      0.21300  -9999.00000      5.86300      2.32200
   760.00        5.50000      0.21400  -9999.00000      5.81400      2.32900
   760.20        4.83400      0.21500  -9999.00000      5.76400      2.37400
   760.40        4.43500      0.21700  -9999.00000      5.61500      2.41100
   760.60        4.12800      0.21800  -9999.00000      5.21700      2.44100
   760.80        4.69700      0.21900  -9999.00000      4.82000      2.47800
   761.00        5.82500      0.22000  -9999.00000      4.37300      2.49900
   761.20        7.01900      0.22000  -9999.00000      4.57100      2.47800
   761.40        9.62400      0.22000  -9999.00000      4.82000      2.45000
   761.60        7.43400      0.21900  -9999.00000      5.31700      2.27700
   761.80        5.82500      0.21900  -9999.00000      5.96300      2.18800
   762.00        4.49900      0.21800  -9999.00000      6.55900      2.09100
   762.20        3.14300      0.21800  -9999.00000      5.11800      2.05300
   762.40        2.88400      0.21800  -9999.00000      3.40900      2.03900
   762.60        3.62800      0.21900  -9999.00000      2.88900      2.03100
   762.80        4.06900      0.21900  -9999.00000      2.61500      2.17300
   763.00        4.63000      0.21900  -9999.00000      2.23600      2.15000
   763.20        4.01100      0.22000  -9999.00000      2.38500      2.07600
   763.40        4.37200      0.22100  -9999.00000      2.63400      2.12800
   763.60        4.97500      0.22000  -9999.00000      2.48400      2.18800
   763.80        5.99500      0.21700  -9999.00000      2.38500      2.20000
   764.00        7.76100      0.21600  -9999.00000      2.18600      2.20000
   764.20       11.76500      0.21800  -9999.00000      2.33500      2.17100
   764.40       11.76500      0.21900  -9999.00000      2.48400      2.11300
   764.60       11.43200      0.21800  -9999.00000      2.63400      2.05300
   764.80       10.04800      0.21700  -9999.00000      2.78300      2.00100
   765.00        5.34500      0.21700  -9999.00000      2.88200      1.94200
   765.20        2.40600      0.21600  -9999.00000      3.08100      1.89700
   765.40        2.19800      0.21700  -9999.00000      3.23000      1.83000
   765.60        2.18000      0.21800  -9999.00000      3.37900      1.88200
   765.80        1.93000      0.21900  -9999.00000      3.42900      1.92700
   766.00        2.01500      0.22000  -9999.00000      3.47800      1.97100
   766.20        2.16500      0.22100  -9999.00000      3.52800      1.97400
   766.40        2.35900      0.22200  -9999.00000      3.57800      1.96600
   766.60        2.13400      0.22000  -9999.00000      3.77600      1.93700
   766.80        2.01500      0.21900  -9999.00000      4.07500      1.80600
   767.00        1.87500      0.21900  -9999.00000      4.27300      1.80200
   767.20        1.77100      0.21800  -9999.00000      4.32300      1.80700
   767.40        1.67200      0.21700  -9999.00000      4.37300      1.76300
   767.60        1.55600      0.21700  -9999.00000      4.47200      1.68800
   767.80        1.29100      0.21600  -9999.00000      4.52200      1.65100
   768.00        1.62500      0.21800  -9999.00000      4.67100      1.78500
   768.20        1.98600      0.21800  -9999.00000      4.52200      1.92700
   768.40        2.04400      0.21900  -9999.00000      4.42200      2.05300
   768.60        2.46300      0.21900  -9999.00000      4.27300      2.19500
   768.80        3.01100      0.21900  -9999.00000      4.12400      2.33700
   769.00        3.84200      0.21900  -9999.00000      3.97500      2.49300
   769.20        5.26800      0.21900  -9999.00000      4.42200      2.67200
   769.40        8.95800      0.21900  -9999.00000      4.96900      2.90600
   769.60       25.52900      0.21900  -9999.00000      5.76400      2.92700
   769.80       23.42400      0.21900  -9999.00000      6.50900      2.93100
   770.00       20.58700      0.21800  -9999.00000      7.56800      2.89800
   770.20       17.83500      0.21700  -9999.00000      7.59600      2.77600
   770.40       15.67500      0.21600  -9999.00000      7.65000      2.57500
   770.60       12.63900      0.21500  -9999.00000      6.95700      2.41900
   770.80        9.62400      0.21500  -9999.00000      6.06200      2.28400
   771.00        7.32800      0.21600  -9999.00000      5.21700      2.17300
   771.20        5.58000      0.21600  -9999.00000      4.37300      2.08300
   771.40        4.31000      0.21700  -9999.00000      3.57800      1.99400
   771.60        3.32900      0.21800  -9999.00000      3.03100      1.93400
   771.80        2.64600      0.22000  -9999.00000      2.58400      1.88900
   772.00        2.29200      0.22200  -9999.00000      1.93800      1.83700
   772.20        2.04400      0.22000  -9999.00000      2.03700      1.86700
   772.40        1.98600      0.21900  -9999.00000      2.18600      1.90400
   772.60        2.46300      0.21800  -9999.00000      2.33500      1.96400
   772.80        2.80200      0.22000  -9999.00000      2.48400      2.03900
   773.00        3.14300      0.22200  -9999.00000      2.63400      2.11300
   773.20        3.57600      0.22100  -9999.00000      2.78300      2.18800
   773.40        4.37200      0.22000  -9999.00000      2.93200      2.25500
   773.60        5.58100      0.21900  -9999.00000      3.03100      2.31500
   773.80        7.43400      0.21800  -9999.00000      2.88200      2.31900
