~Version information
VERS.              2.00:   CWLS LOG ASCII STANDARD -VERSION 2.00
WRAP.                NO:   one line per depth step
~Well Information Block
#MNEM.UNIT     DATA         DESCRIPTION OF MNEMONIC
#--------  --------------   ------------------------
STRT.M                 4.40:START DEPTH
STOP.M              1112.80:STOP DEPTH
STEP.M                 0.20:STEP VALUE
NULL.           -9999.00000:NULL VALUE
WELL.                 13419:WELL NAME
FLD .             VYATSKAYA:FIELD NAME
CTRY.                RUSSIA:COUNTRY
DATE.            01.12.1988:DATE
UWI .                 13419:UNIQUE WELL IDENTIFIER
SRVC.         ÄêãÄçëäÄü èÉä:çÄáÇÄçàÖ ëÖêÇàëçéâ äéåèÄçàà Éàë
SRVC_OC.                ààí:çÄáÇÄçàÖ ëÖêÇàëçéâ äéåèÄçàà-éñàîêéÇäÄ
~Parameter Information Block
#MNEM.UNIT       Value     Description of mnemonic
#---------   -----------   ------------------------------------
EKB .M               158.08: Elevation Kelly Bushing
TDL.M                  1114: Total Depth
SCD .M          -9999.00000: Surface Casing Diameter
SCDP.M          -9999.00000: Surface Casing Depth
CD  .M                0.228: Casing Diameter
CDP .M                  412: Casing Depth
BS  .M                0.216: Bit Size
                       CLAY: Drill Fluid Type
DFD .G/CM3      -9999.00000: Drill Fluid Density
DFV .S          -9999.00000: Drill Fluid Viscosity
RMF.OHMM               0.07: Mud Filtrate Resistivity
MT  .C                   18: Meas Temperature
                      DRST3: Cartridge Gamma
TAU_GR.S              1.5;3: GR Time Constant
K_GK                   1580: äéùî. èÖêÖïéÑÄ
SPEED.M/H           420;780: Speed M/Hour
                     NGK_60: Probe NGR
USL_ED.IMP/MIN         5500: 1 ìëã.ÖÑ.
OTN_KNL.GR/NGR            9: éíçéòÖçàÖ äÄçÄãéÇ
TAU_NGR.S             1.5;3: NGR Time Constant
SPEED.M/H           420;780: Speed M/Hour
                        K_3: Cartridge BK
                       BK_3: Probe BK
                       USBA: Cartridge DT
                 Sonde 1.4M: Probe DT
                      SKP_1: Cartridge DS
~Curve Information Block
#MNEM.UNIT       API CODE     Curve Description
#---------    -------------   --------------------------------
DEPT.M                    :    1    DEPTH M
BK.OHMM                   :    2    LATEROLOG DEEP
DS.M                      :    3    CALIPER
DT.MCS                    :    4    DELTA TIME INTERVAL TRANSIT TIME MCSEC/M
GR.MCR/H                  :    5    GAMMA RAY MICRO_ROENTGENS PER HOUR
NGR.UE                    :    6    NEUTRON GAMMA RAY
~A DEPT.M       BK           DS           DT           GR           NGR          
# ...
   1002.80       2.56800      0.19800    219.87500      1.59000      1.76300
   1003.00       2.42700      0.19700    218.87900      1.54000      1.70100
   1003.20       2.53200      0.19800    215.88800      1.78400      1.70100
   1003.40       3.04300      0.20000    217.38300      1.87700      1.69600
   1003.60       3.65600      0.20000    219.37700      1.89900      1.65100
   1003.80       4.09400      0.20000    220.37400      2.13700      1.54700
   1004.00       5.58600      0.19800    214.89100      2.43500      1.62100
   1004.20       8.06500      0.19600    214.59900      2.73300      1.62100
   1004.40      11.72200      0.19900    216.33800      2.53400      1.74400
   1004.60       9.07100      0.19800    218.53400      2.28600      1.69900
   1004.80       9.02100      0.19800    220.73000      2.03700      1.58400
   1005.00       9.12200      0.19800    222.37700      1.93800      1.50200
   1005.20       8.48400      0.19800    223.36400      1.88800      1.46500
   1005.40       5.91000      0.19600    223.36400      1.98800      1.49700
   1005.60       4.22700      0.19900    223.86300      2.08700      1.55500
   1005.80       5.16600      0.19500    225.85700      2.13700      1.53800
   1006.00       7.95100      0.19900    229.34600      2.08700      1.45700
   1006.20      10.85000      0.19400    232.83500      1.98800      1.45000
   1006.40      14.32600      0.19800    237.81900      1.88800      1.46500
   1006.60      14.80400      0.19200    241.80700      1.64000      1.51800
   1006.80      11.31900      0.19700    238.31800      1.65700      1.51400
   1007.00       7.00200      0.19300    234.82900      1.68700      1.43500
   1007.20       4.33200      0.19600    231.34000      1.72600      1.41100
   1007.40       3.45500      0.20200    229.34600      1.85600      1.44400
   1007.60       3.30800      0.19400    228.84700      2.02100      1.45700
   1007.80       4.51900      0.19500    228.84700      2.24100      1.46100
   1008.00       6.08000      0.19700    229.84400      2.28600      1.53400
   1008.20       7.50500      0.19600    225.85700      2.08700      1.58400
   1008.40       5.82400      0.19800    219.37700      2.02100      1.63600
   1008.60       4.52000      0.19700    212.89700      1.96600      1.83100
   1008.80       5.82700      0.20000    205.42100      2.02400      1.93800
   1009.00       8.77800      0.19900    198.44200      2.08200      2.00900
   1009.20      11.64400      0.19900    194.45500      2.15800      2.17300
   1009.40      13.79500      0.19700    192.96000      2.53400      2.35200
   1009.60       7.95100      0.19500    195.95000      3.22900      2.32900
   1009.80       3.76100      0.19700    200.93500      3.78600      2.12800
   1010.00       2.60500      0.19600    208.41100      3.95400      1.75500
   1010.20       1.99200      0.19600    216.88500      3.42900      1.62900
   1010.40       1.38600      0.19800    224.86000      2.88200      1.52700
   1010.60       1.37900      0.19900    232.33600      2.44300      1.47300
   1010.80       1.37900      0.19500    235.82600      2.28000      1.49400
   1011.00       1.38600      0.19900    238.31800      2.15700      1.50200
   1011.20       1.13200      0.20000    239.31500      1.99400      1.54700
   1011.40       1.00400      0.20100    239.31500      1.98800      1.50600
   1011.60       1.05500      0.19700    237.32100      2.13600      1.49000
   1011.80       1.50100      0.20000    233.83200      2.27300      1.53200
   1012.00       5.27900      0.20200    226.35500      2.46600      1.64300
   1012.20      11.80900      0.20000    221.66400      2.68500      1.82200
   1012.40      16.11400      0.19800    213.89400      2.79500      1.97100
   1012.60      12.85400      0.20000    209.40800      2.98100      2.20200
   1012.80      11.00400      0.19900    206.41700      2.58400      2.14000
   1013.00       9.96800      0.19800    206.18000      2.08700      2.00900
   1013.20      11.48000      0.19700    209.33700      1.98400      2.02600
   1013.40       9.96800      0.20100    212.44900      2.00600      1.96800
   1013.60       9.03000      0.20000    215.56000      1.94900      1.93900
   1013.80       8.53300      0.19900    216.61200      1.67500      1.88200
   1014.00       8.17900      0.19700    216.88500      1.82700      1.74600
   1014.20       7.84000      0.19900    215.38900      1.80600      1.78300
   1014.40       7.73000      0.20100    211.90000      1.80600      1.98000
   1014.60       8.41400      0.20400    208.41100      1.89500      2.01900
   1014.80       9.55400      0.20100    202.43000      1.91700      2.12800
   1015.00       6.16600      0.19900    197.44500      1.78500      2.25500
   1015.20       6.80700      0.20100    195.45200      1.67500      2.27300
   1015.40       6.34300      0.20100    193.45800      1.64200      2.31400
   1015.60       7.30500      0.19900    191.96300      1.62800      2.36800
   1015.80       9.69000      0.20400    189.47000      1.73000      2.45600
   1016.00      16.34300      0.19800    186.48000      1.83900      2.59800
   1016.20      26.04900      0.19600    184.48600      1.97700      2.73200
   1016.40      20.77900      0.19700    182.99100      1.88100      2.99800
   1016.60      13.79500      0.19700    185.98100      1.34200      2.85100
   1016.80       9.55400      0.20000    189.47000      0.99400      2.67200
   1017.00       7.20300      0.19800    192.46100      0.95100      2.41900
   1017.20       8.65500      0.19700    192.96000      1.09600      2.25500
   1017.40      11.00400      0.19700    192.96000      1.24100      2.18800
   1017.60      12.14800      0.19600    192.46100      1.38500      2.23200
   1017.80       9.28800      0.19800    191.46400      1.44100      2.38100
   1018.00      13.99100      0.19800    188.97200      1.24200      2.54500
   1018.20      23.93200      0.19700    186.97800      1.09300      2.83000
   1018.40      33.59100      0.19900    184.98400      1.02600      2.82100
   1018.60      23.26500      0.20000    182.99100      0.99900      2.88100
   1018.80      18.04200      0.20100    185.48300      0.83400      2.95500
   1019.00      16.11400      0.19800    188.97200      0.77200      3.02200
   1019.20      20.20000      0.19600    191.96300      0.82300      2.91800
   1019.40      19.36200      0.20200    196.44900      0.95600      2.93300
   1019.60      17.29300      0.20000    200.93500      1.23700      2.94500
   1019.80      13.99100      0.20200    205.63100      1.38300      2.65700
   1020.00      11.00400      0.20100    204.92200      1.60900      2.46700
   1020.20      10.86200      0.19800    199.43900      1.88500      2.43900
   1020.40      10.98400      0.19900    192.96000      1.97800      2.50800
   1020.60      14.19000      0.19900    187.97500      1.51200      2.79300
   1020.80      17.05100      0.19700    184.48600      1.06700      2.77100
   1021.00      20.20000      0.19600    181.49500      0.73400      2.79800
   1021.20      29.58100      0.19500    180.00000      0.69000      2.89600
   1021.40      42.11000      0.19700    178.50500      0.73400      2.99300
   1021.60      56.65200      0.19900    176.51100      0.84500      3.11200
   1021.80      31.74500      0.19500    174.51700      0.91200      3.21600
   1022.00      10.54800      0.20100    174.01900      0.93400      3.07500
   1022.20       5.91000      0.19600    174.51700      1.13400      2.60500
   1022.40       5.06000      0.20100    175.01600      1.29000      2.28400
   1022.60       4.85000      0.19600    175.01600      1.51200      1.97900
   1022.80       4.78200      0.19900    173.52000      1.60000      1.92000
   1023.00       5.50700      0.19700    173.47200      1.60700      1.93600
   1023.20       6.78200      0.19600    175.51400      1.62900      1.98100
   1023.40       6.74500      0.19800    177.50800      1.84500      2.04300
