~Version information
VERS.              2.00:   CWLS LOG ASCII STANDARD -VERSION 2.00
WRAP.                NO:   one line per depth step
~Well Information Block
#MNEM.UNIT     DATA         DESCRIPTION OF MNEMONIC
#--------  --------------   ------------------------
STRT.M                 4.40:START DEPTH
STOP.M              1087.60:STOP DEPTH
STEP.M                 0.20:STEP VALUE
NULL.           -9999.00000:NULL VALUE
WELL.                 13416:WELL NAME
FLD .             VYATSKAYA:FIELD NAME
CTRY.                RUSSIA:COUNTRY
DATE.            13.12.1988:DATE
UWI .                 13416:UNIQUE WELL IDENTIFIER
SRVC.         ÄêãÄçëäÄü èÉä:çÄáÇÄçàÖ ëÖêÇàëçéâ äéåèÄçàà Éàë
SRVC_OC.                ààí:çÄáÇÄçàÖ ëÖêÇàëçéâ äéåèÄçàà-éñàîêéÇäÄ
~Parameter Information Block
#MNEM.UNIT       Value     Description of mnemonic
#---------   -----------   ------------------------------------
EKB .M               157.98: Elevation Kelly Bushing
TDL.M                  1087: Total Depth
SCD .M          -9999.00000: Surface Casing Diameter
SCDP.M          -9999.00000: Surface Casing Depth
CD  .M                0.228: Casing Diameter
CDP .M                  412: Casing Depth
BS  .M                0.216: Bit Size
                       CLAY: Drill Fluid Type
DFD .G/CM3        1.07-1.09: Drill Fluid Density
DFV .S                22-24: Drill Fluid Viscosity
RMF.OHMM               0.07: Mud Filtrate Resistivity
MT  .C                   18: Meas Temperature
                      DRST3: Cartridge Gamma
TAU_GR.S              1.5;3: GR Time Constant
K_GK                   1580: äéùî. èÖêÖïéÑÄ
SPEED.M/H               890: Speed M/Hour
                     NGK_60: Probe NGR
USL_ED.IMP/MIN         5500: 1 ìëã.ÖÑ.
OTN_KNL.GR/NGR            9: éíçéòÖçàÖ äÄçÄãéÇ
TAU_NGR.S             1.5;3: NGR Time Constant
SPEED.M/H               890: Speed M/Hour
                        K_3: Cartridge BK
                       BK_3: Probe BK
                       USBA: Cartridge DT
                 Sonde 1.4M: Probe DT
                      SKP_1: Cartridge DS
~Curve Information Block
#MNEM.UNIT       API CODE     Curve Description
#---------    -------------   --------------------------------
DEPT.M                    :    1    DEPTH M
BK.OHMM                   :    2    LATEROLOG DEEP
DS.M                      :    3    CALIPER
DT.MCS                    :    4    DELTA TIME INTERVAL TRANSIT TIME MCSEC/M
GR.MCR/H                  :    5    GAMMA RAY MICRO_ROENTGENS PER HOUR
NGR.UE                    :    6    NEUTRON GAMMA RAY
~A DEPT.M       BK           DS           DT           GR           NGR          
# ...
   1023.60      14.02600      0.22700    180.00000      1.71600      2.57500
   1023.80      21.88100      0.22700    177.53100      1.96800      2.49100
   1024.00      33.65000      0.22400    177.03700      1.96800      2.60500
   1024.20      19.50900      0.22400    178.02500      1.61500      2.34700
   1024.40       9.38600      0.22300    181.48100      1.46400      2.21000
   1024.60       7.76800      0.22300    184.93800      1.31200      2.09600
   1024.80       9.67500      0.22300    188.88900      1.31200      2.14900
   1025.00      10.08400      0.22400    193.33300      1.41300      2.09600
   1025.20       6.19100      0.22200    196.79000      1.51400      2.07300
   1025.40       5.06500      0.22000    193.33300      1.61500      2.03500
   1025.60       7.78900      0.22400    186.42000      1.61500      1.99700
   1025.80      10.83400      0.22200    178.51900      1.51400      2.09600
   1026.00      13.05500      0.22500    172.09900      1.41300      2.19500
   1026.20      17.89900      0.22600    168.64200      1.31200      2.30100
   1026.40      30.43500      0.22300    172.09900      1.31200      2.40000
   1026.60      66.25500      0.22100    176.04900      1.26200      2.51400
   1026.80      62.83600      0.22300    182.46900      1.31200      2.38500
   1027.00      60.96200      0.22100    189.87700      1.26200      2.17200
   1027.20      10.83400      0.22300    198.27200      1.31200      1.93700
   1027.40       5.13800      0.22300    206.66700      1.31200      1.71600
   1027.60       2.73300      0.22100    214.07400      1.51400      1.57200
   1027.80       1.80300      0.21900    220.00000      1.91800      1.51100
   1028.00       1.77700      0.22400    223.95100      2.42300      1.58700
   1028.20       2.40200      0.22300    216.54300      2.67500      1.66300
   1028.40       3.85600      0.22200    206.66700      2.82600      1.85300
   1028.60       5.93000      0.22200    197.28400      3.12900      2.08900
   1028.80       9.12000      0.22200    188.88900      2.22100      2.08100
   1029.00      10.22900      0.22500    190.37000      1.46400      1.99000
   1029.20       9.12000      0.22300    185.43200      1.26200      2.04300
   1029.40       8.01500      0.22100    186.91400      1.41300      2.11900
   1029.60      10.22900      0.22000    184.93800      1.46400      1.95900
   1029.80      13.24300      0.21900    182.96300      1.61500      1.99700
   1030.00      14.85400      0.22300    189.87700      1.61500      2.04300
   1030.20       7.56800      0.22200    196.79000      1.41300      2.09600
   1030.40      12.15100      0.22100    201.23500      1.41300      2.18000
   1030.60       9.12000      0.22000    199.75300      1.51400      2.14900
   1030.80      11.14900      0.22200    197.77800      1.61500      2.23300
   1031.00      15.28600      0.22400    193.82700      1.51400      1.94400
   1031.20       7.67800      0.22500    191.85200      1.41300      1.95900
   1031.40       3.80100      0.22000    197.77800      1.26200      1.89900
   1031.60       2.81300      0.21600    201.23500      1.21100      1.92900
   1031.80       4.26400      0.21700    199.75300      1.41300      2.06600
   1032.00       4.71400      0.21400    196.79000      1.61500      2.07300
   1032.20       5.52000      0.21500    192.84000      1.51400      2.03500
   1032.40       7.46100      0.21700    190.37000      1.36300      2.27100
   1032.60       8.99000      0.21400    187.40700      1.31200      2.37000
   1032.80      11.14900      0.21500    184.44400      1.46400      2.37000
   1033.00      12.15100      0.21600    183.15500      1.26200      2.37000
   1033.20      13.05500      0.21800    183.15500      1.06000      2.30100
   1033.40      16.18900      0.21700    183.42800      0.90900      2.24100
   1033.60      11.47300      0.21700    182.96300      0.75700      2.19500
   1033.80      14.85400      0.21600    181.97500      1.00900      2.14900
   1034.00      22.51800      0.21500    180.00000      1.21100      2.25600
   1034.20      26.36700      0.21500    177.53100      1.36300      2.14200
   1034.40      14.64200      0.21500    177.03700      1.51400      2.05800
   1034.60      18.15800      0.21400    177.53100      1.66600      2.26300
   1034.80      16.90100      0.21600    179.01200      1.71600      2.17200
   1035.00      18.95700      0.21800    181.97500      1.81700      2.05800
   1035.20      13.05500      0.21600    185.92600      1.71600      1.96700
   1035.40       8.24900      0.21500    190.86400      1.56500      1.86800
   1035.60      10.52700      0.21400    195.16000      1.51400      2.06600
   1035.80       9.52100      0.21400    231.85200      1.96800      2.18700
   1036.00      14.02600      0.21400    254.56800      2.57400      2.30900
   1036.20      18.95700      0.21700    257.03700      3.48300      2.47600
   1036.40      13.82600      0.21500    246.72300      2.72600      2.57500
   1036.60       7.78900      0.21300    217.53100      1.86800      2.40000
   1036.80       4.64700      0.21600    203.70400      1.31200      2.05800
   1037.00       2.65600      0.21600    196.29600      1.11000      1.72400
   1037.20       2.65600      0.21800    189.87700      1.06000      1.77700
   1037.40       6.28100      0.21700    182.96300      0.90900      1.86800
   1037.60      10.67900      0.22100    177.03700      0.85800      2.05800
   1037.80      16.90100      0.21600    173.58000      0.80800      2.28600
   1038.00      27.52700      0.21400    172.59300      0.75700      2.46800
   1038.20      42.94400      0.21400    174.07400      0.85800      2.53700
   1038.40      24.89700      0.21300    178.02500      1.11000      2.37000
   1038.60      12.86900      0.21500    182.96300      1.16100      2.23300
   1038.80       8.86200      0.21800    190.37000      1.21100      2.14200
   1039.00      10.67900      0.21500    198.27200      1.51400      2.05100
   1039.20       5.36400      0.21700    208.64200      1.86800      1.89100
   1039.40       3.24600      0.21300    218.51900      2.17000      1.72400
   1039.60       2.73300      0.21500    225.92600      1.91800      1.70900
   1039.80       2.40200      0.21600    230.37000      1.91800      1.84600
   1040.00       7.67800      0.21500    221.97500      1.91800      2.05800
   1040.20      17.14500      0.21400    217.03700      2.01900      1.80000
   1040.40      17.64500      0.21600    214.56800      2.12000      2.21000
   1040.60       3.85600      0.21600    214.07400      2.12000      2.11900
   1040.80       3.91200      0.21600    220.49400      2.27100      1.94400
   1041.00      13.82600      0.21600    232.34600      2.52400      2.56700
   1041.20      20.36600      0.21500    254.07400      2.22100      2.62800
   1041.40      23.17300      0.21300    275.30900      1.71600      2.65800
   1041.60      27.92500      0.21500    300.00900      1.91800      2.65800
   1041.80       2.33400      0.21500    300.37500      2.22100      2.36200
   1042.00       1.22400      0.21400    300.47100      2.42300      2.02000
   1042.20       1.63100      0.21300    300.47100      2.52400      1.70100
   1042.40       1.22400      0.21500    299.01200      2.67500      1.52700
   1042.60       1.29600      0.21600    289.13600      2.06900      1.60300
   1042.80       1.37300      0.21600    268.88900      1.58500      1.39700
   1043.00       1.33400      0.21600    274.32100      1.51400      1.32200
   1043.20       1.25900      0.21600    273.33300      1.56500      1.29900
   1043.40       1.37300      0.21600    269.87700      1.66600      1.32900
   1043.60       2.49600      0.21400    265.92600      1.51400      1.41300
   1043.80       2.33100      0.21700    262.46900      1.76700      1.56500
   1044.00       1.63100      0.21500    259.01200      1.71600      1.64100
   1044.20       1.27800      0.21400    253.58000      1.81700      1.57200
