~Version information
VERS.              2.00:   CWLS LOG ASCII STANDARD -VERSION 2.00
WRAP.                NO:   one line per depth step
~Well Information Block
#MNEM.UNIT     DATA         DESCRIPTION OF MNEMONIC
#--------  --------------   ------------------------
STRT.M                 4.40:START DEPTH
STOP.M              1112.80:STOP DEPTH
STEP.M                 0.20:STEP VALUE
NULL.           -9999.00000:NULL VALUE
WELL.                 13419:WELL NAME
FLD .             VYATSKAYA:FIELD NAME
CTRY.                RUSSIA:COUNTRY
DATE.            01.12.1988:DATE
UWI .                 13419:UNIQUE WELL IDENTIFIER
SRVC.         ÄêãÄçëäÄü èÉä:çÄáÇÄçàÖ ëÖêÇàëçéâ äéåèÄçàà Éàë
SRVC_OC.                ààí:çÄáÇÄçàÖ ëÖêÇàëçéâ äéåèÄçàà-éñàîêéÇäÄ
~Parameter Information Block
#MNEM.UNIT       Value     Description of mnemonic
#---------   -----------   ------------------------------------
EKB .M               158.08: Elevation Kelly Bushing
TDL.M                  1114: Total Depth
SCD .M          -9999.00000: Surface Casing Diameter
SCDP.M          -9999.00000: Surface Casing Depth
CD  .M                0.228: Casing Diameter
CDP .M                  412: Casing Depth
BS  .M                0.216: Bit Size
                       CLAY: Drill Fluid Type
DFD .G/CM3      -9999.00000: Drill Fluid Density
DFV .S          -9999.00000: Drill Fluid Viscosity
RMF.OHMM               0.07: Mud Filtrate Resistivity
MT  .C                   18: Meas Temperature
                      DRST3: Cartridge Gamma
TAU_GR.S              1.5;3: GR Time Constant
K_GK                   1580: äéùî. èÖêÖïéÑÄ
SPEED.M/H           420;780: Speed M/Hour
                     NGK_60: Probe NGR
USL_ED.IMP/MIN         5500: 1 ìëã.ÖÑ.
OTN_KNL.GR/NGR            9: éíçéòÖçàÖ äÄçÄãéÇ
TAU_NGR.S             1.5;3: NGR Time Constant
SPEED.M/H           420;780: Speed M/Hour
                        K_3: Cartridge BK
                       BK_3: Probe BK
                       USBA: Cartridge DT
                 Sonde 1.4M: Probe DT
                      SKP_1: Cartridge DS
~Curve Information Block
#MNEM.UNIT       API CODE     Curve Description
#---------    -------------   --------------------------------
DEPT.M                    :    1    DEPTH M
BK.OHMM                   :    2    LATEROLOG DEEP
DS.M                      :    3    CALIPER
DT.MCS                    :    4    DELTA TIME INTERVAL TRANSIT TIME MCSEC/M
GR.MCR/H                  :    5    GAMMA RAY MICRO_ROENTGENS PER HOUR
NGR.UE                    :    6    NEUTRON GAMMA RAY
~A DEPT.M       BK           DS           DT           GR           NGR          
# ...
   857.20        3.02200      0.21600  -9999.00000      2.38000      1.97800
   857.40        3.64800      0.21400  -9999.00000      2.39500      2.07600
   857.60        4.53300      0.21500  -9999.00000      2.39500      2.22800
   857.80        5.71500      0.21600  -9999.00000      2.44100      2.31900
   858.00        6.89900      0.21700  -9999.00000      2.66700      2.37200
   858.20        9.08400      0.21800  -9999.00000      2.96900      2.40200
   858.40        9.62600      0.21800  -9999.00000      3.37100      2.45500
   858.60        6.99900      0.21900  -9999.00000      3.72300      2.40900
   858.80        4.82300      0.22100  -9999.00000      4.07500      2.35600
   859.00        4.74300      0.21800  -9999.00000      4.62400      2.31900
   859.20        4.58700      0.21600  -9999.00000      3.82500      2.29600
   859.40        4.54900      0.21400  -9999.00000      3.77400      2.23500
   859.60        5.96900      0.21600  -9999.00000      3.22000      2.34100
   859.80        7.20500      0.21800  -9999.00000      2.71700      2.41700
   860.00        8.44900      0.21800  -9999.00000      2.26400      2.50000
   860.20        9.48700      0.21500  -9999.00000      2.27700      2.57600
   860.40       10.49900      0.21600  -9999.00000      2.31800      2.73700
   860.60       11.45200      0.21600  -9999.00000      2.40000      2.72000
   860.80       12.67400      0.21700  -9999.00000      2.44100      2.58400
   861.00       12.65200      0.21800  -9999.00000      2.52300      2.47800
   861.20       12.30500      0.21800  -9999.00000      2.51600      2.34100
   861.40       12.13500      0.21700  -9999.00000      2.66700      2.34900
   861.60       13.82600      0.21600  -9999.00000      2.81800      2.35600
   861.80       16.93200      0.21500  -9999.00000      2.71700      2.19700
   862.00       17.17900      0.21400  -9999.00000      2.72800      2.06100
   862.20        6.23400      0.21400  -9999.00000      2.87000      1.98500
   862.40        4.21600      0.21400  -9999.00000      2.94100      1.92500
   862.60        2.93600      0.21500  -9999.00000      3.08300      1.96300
   862.80        3.92200      0.21600  -9999.00000      3.22500      2.10700
   863.00        5.31600      0.21500  -9999.00000      3.22000      2.25800
   863.20        6.80000      0.21400  -9999.00000      3.01900      2.56100
   863.40       12.13500      0.21300  -9999.00000      2.76700      2.56800
   863.60       11.62000      0.21500  -9999.00000      2.46500      2.47000
   863.80       10.65300      0.21700  -9999.00000      2.11300      2.35600
   864.00        9.35100      0.21600  -9999.00000      1.82500      2.22800
   864.20        7.63500      0.21600  -9999.00000      1.91400      2.09900
   864.40        5.55200      0.21600  -9999.00000      2.00300      2.00100
   864.60        3.59500      0.21700  -9999.00000      2.04700      1.91000
   864.80        2.54000      0.21700  -9999.00000      2.13600      1.86400
   865.00        1.84700      0.21800  -9999.00000      2.06600      2.01600
   865.20        2.04400      0.21900  -9999.00000      2.04800      2.08200
   865.40        2.22900      0.21900  -9999.00000      2.01100      2.09100
   865.60        2.07400      0.21800  -9999.00000      2.05700      2.09600
   865.80        1.98600      0.21800  -9999.00000      2.10300      2.09900
   866.00        1.87400      0.21800  -9999.00000      2.14900      2.04600
   866.20        1.82000      0.21800  -9999.00000      1.96200      1.98500
   866.40        1.74300      0.21800  -9999.00000      1.86200      1.93200
   866.60        1.66900      0.21800  -9999.00000      1.73400      1.97800
   866.80        1.57500      0.21600  -9999.00000      1.82700      1.99300
   867.00        1.95700      0.21700  -9999.00000      1.88800      2.03400
   867.20        2.26200      0.21800  -9999.00000      1.90300      2.03400
   867.40        2.54000      0.21800  -9999.00000      1.93400      2.00100
   867.60        2.81100      0.21800  -9999.00000      2.16400      1.95500
   867.80        2.81100      0.21800  -9999.00000      2.46500      1.90200
   868.00        2.16600      0.21800  -9999.00000      2.93300      1.81100
   868.20        1.71800      0.21800  -9999.00000      2.97900      1.72100
   868.40        1.36300      0.21800  -9999.00000      3.04100      1.63700
   868.60        1.12900      0.21800  -9999.00000      3.11800      1.57700
   868.80        0.97700      0.21800  -9999.00000      3.16400      1.53900
   869.00        0.87000      0.21600  -9999.00000      3.22500      1.48600
   869.20        0.79700      0.21500  -9999.00000      2.91800      1.46300
   869.40        0.75200      0.21300  -9999.00000      2.81800      1.54600
   869.60        0.73100      0.21500  -9999.00000      2.61600      1.59900
   869.80        0.82100      0.21700  -9999.00000      2.41500      1.63700
   870.00        0.92200      0.21900  -9999.00000      2.21400      1.65200
   870.20        1.03500      0.21900  -9999.00000      2.11300      1.66000
   870.40        1.16200      0.21900  -9999.00000      2.01300      1.72800
   870.60        1.30500      0.21800  -9999.00000      1.91200      1.77400
   870.80        1.44400      0.21500  -9999.00000      1.76500      1.79600
   871.00        1.24900      0.21500  -9999.00000      1.76500      1.84900
   871.20        1.06500      0.22000  -9999.00000      1.76500      1.79600
   871.40        1.09700      0.22000  -9999.00000      1.76500      1.81900
   871.60        1.23100      0.21800  -9999.00000      1.79600      1.84200
   871.80        1.32400      0.21500  -9999.00000      1.85700      1.80400
   872.00        1.38200      0.21400  -9999.00000      2.01300      1.72100
   872.20        1.43900      0.21700  -9999.00000      2.21400      1.65200
   872.40        1.42700      0.21800  -9999.00000      2.56600      1.64500
   872.60        1.40400      0.21600  -9999.00000      2.12500      1.73600
   872.80        1.39200      0.21600  -9999.00000      2.05400      1.77400
   873.00        1.38100      0.21500  -9999.00000      1.91300      1.79600
   873.20        1.38100      0.21500  -9999.00000      2.04200      1.84300
   873.40        1.38100      0.21500  -9999.00000      2.14900      1.84300
   873.60        1.38100      0.21700  -9999.00000      2.16500      1.84300
   873.80        1.38100      0.21800  -9999.00000      2.18000      1.84300
   874.00        1.38100      0.21800  -9999.00000      2.19500      1.84500
   874.20        1.39200      0.21900  -9999.00000      2.19500      1.86400
   874.40        1.39200      0.21800  -9999.00000      2.19500      1.84900
   874.60        1.48400      0.21600  -9999.00000      2.08800      1.84200
   874.80        1.54300      0.21400  -9999.00000      2.04200      1.81100
   875.00        1.95700      0.21600  -9999.00000      2.01100      1.85700
   875.20        2.46700      0.21900  -9999.00000      2.01100      1.93200
   875.40        3.34400      0.22100  -9999.00000      1.96500      2.03100
   875.60        4.46900      0.21900  -9999.00000      1.91200      1.84200
   875.80        6.14400      0.21600  -9999.00000      1.81100      1.62200
   876.00        8.09000      0.21800  -9999.00000      1.61000      1.47100
   876.20        3.29600      0.21900  -9999.00000      1.81100      1.46300
   876.40        1.98600      0.22000  -9999.00000      2.01300      1.47100
   876.60        1.46500      0.22100  -9999.00000      2.26400      1.49300
   876.80        1.19600      0.22000  -9999.00000      2.46500      1.54600
   877.00        1.03500      0.21800  -9999.00000      2.71700      1.59200
   877.20        0.93500      0.21600  -9999.00000      2.91800      1.66000
   877.40        0.87000      0.21400  -9999.00000      3.06900      1.72100
   877.60        0.95900      0.21700  -9999.00000      3.13300      1.78900
   877.80        1.04400      0.21900  -9999.00000      3.11800      1.85700
