~Version information
VERS.              2.00:   CWLS LOG ASCII STANDARD -VERSION 2.00
WRAP.                NO:   one line per depth step
~Well Information Block
#MNEM.UNIT     DATA         DESCRIPTION OF MNEMONIC
#--------  --------------   ------------------------
STRT.M                 4.40:START DEPTH
STOP.M              1087.60:STOP DEPTH
STEP.M                 0.20:STEP VALUE
NULL.           -9999.00000:NULL VALUE
WELL.                 13416:WELL NAME
FLD .             VYATSKAYA:FIELD NAME
CTRY.                RUSSIA:COUNTRY
DATE.            13.12.1988:DATE
UWI .                 13416:UNIQUE WELL IDENTIFIER
SRVC.         ÄêãÄçëäÄü èÉä:çÄáÇÄçàÖ ëÖêÇàëçéâ äéåèÄçàà Éàë
SRVC_OC.                ààí:çÄáÇÄçàÖ ëÖêÇàëçéâ äéåèÄçàà-éñàîêéÇäÄ
~Parameter Information Block
#MNEM.UNIT       Value     Description of mnemonic
#---------   -----------   ------------------------------------
EKB .M               157.98: Elevation Kelly Bushing
TDL.M                  1087: Total Depth
SCD .M          -9999.00000: Surface Casing Diameter
SCDP.M          -9999.00000: Surface Casing Depth
CD  .M                0.228: Casing Diameter
CDP .M                  412: Casing Depth
BS  .M                0.216: Bit Size
                       CLAY: Drill Fluid Type
DFD .G/CM3        1.07-1.09: Drill Fluid Density
DFV .S                22-24: Drill Fluid Viscosity
RMF.OHMM               0.07: Mud Filtrate Resistivity
MT  .C                   18: Meas Temperature
                      DRST3: Cartridge Gamma
TAU_GR.S              1.5;3: GR Time Constant
K_GK                   1580: äéùî. èÖêÖïéÑÄ
SPEED.M/H               890: Speed M/Hour
                     NGK_60: Probe NGR
USL_ED.IMP/MIN         5500: 1 ìëã.ÖÑ.
OTN_KNL.GR/NGR            9: éíçéòÖçàÖ äÄçÄãéÇ
TAU_NGR.S             1.5;3: NGR Time Constant
SPEED.M/H               890: Speed M/Hour
                        K_3: Cartridge BK
                       BK_3: Probe BK
                       USBA: Cartridge DT
                 Sonde 1.4M: Probe DT
                      SKP_1: Cartridge DS
~Curve Information Block
#MNEM.UNIT       API CODE     Curve Description
#---------    -------------   --------------------------------
DEPT.M                    :    1    DEPTH M
BK.OHMM                   :    2    LATEROLOG DEEP
DS.M                      :    3    CALIPER
DT.MCS                    :    4    DELTA TIME INTERVAL TRANSIT TIME MCSEC/M
GR.MCR/H                  :    5    GAMMA RAY MICRO_ROENTGENS PER HOUR
NGR.UE                    :    6    NEUTRON GAMMA RAY
~A DEPT.M       BK           DS           DT           GR           NGR          
# ...
   441.20       33.53000      0.22300  -9999.00000      4.27300      1.96400
   441.40       29.46800      0.22200  -9999.00000      4.07500      1.99400
   441.60       26.65300      0.22200  -9999.00000      3.82600      2.03100
   441.80       22.43700      0.22300  -9999.00000      3.52800      2.13500
   442.00       25.16600      0.22300  -9999.00000      3.23000      2.32200
   442.20       28.22700      0.22300  -9999.00000      2.93200      2.51600
   442.40       32.11700      0.22300  -9999.00000      2.58400      2.72400
   442.60       38.15100      0.22200  -9999.00000      2.28600      2.95500
   442.80       50.10900      0.22200  -9999.00000      1.93800      3.17100
   443.00       69.69300      0.22200  -9999.00000      1.68900      3.49900
   443.20      111.89200      0.22200  -9999.00000      1.49100      3.52900
   443.40      162.47800      0.22200  -9999.00000      1.19300      3.00700
   443.60       54.61000      0.22200  -9999.00000      1.44100      2.68700
   443.80       29.46700      0.22200  -9999.00000      1.83900      2.41100
   444.00       20.88400      0.22100  -9999.00000      2.28600      2.03100
   444.20       17.08400      0.22000  -9999.00000      2.73300      2.00100
   444.40       16.13100      0.21800  -9999.00000      3.13000      2.00100
   444.60       19.16200      0.21900  -9999.00000      3.37900      2.07600
   444.80       21.49200      0.22100  -9999.00000      3.52800      2.22500
   445.00       24.45400      0.22200  -9999.00000      3.67700      2.10600
   445.20       27.03800      0.22300  -9999.00000      2.83200      2.25500
   445.40       28.63500      0.22200  -9999.00000      2.33500      2.35200
   445.60       31.66000      0.22200  -9999.00000      1.98800      2.45600
   445.80       37.07300      0.22000  -9999.00000      1.88800      2.64200
   446.00       45.31800      0.22100  -9999.00000      1.73900      2.53000
   446.20       57.83500      0.22200  -9999.00000      1.49100      2.44800
   446.40       72.75800      0.22300  -9999.00000      1.24200      2.35900
   446.60       88.94300      0.22100  -9999.00000      1.09300      2.48600
   446.80      111.89300      0.22100  -9999.00000      0.99400      2.64200
   447.00      118.50100      0.21900  -9999.00000      0.84500      2.85800
   447.20      102.66300      0.22100  -9999.00000      0.69600      3.08900
   447.40       91.53200      0.22200  -9999.00000      0.69600      3.31300
   447.60       77.05500      0.22100  -9999.00000      0.59600      3.50700
   447.80       63.94400      0.22000  -9999.00000      0.69600      3.71600
   448.00       56.19900      0.21900  -9999.00000      0.84500      3.74600
   448.20       49.39200      0.22100  -9999.00000      1.04300      3.70100
   448.40      105.65200      0.22100  -9999.00000      1.09300      3.66800
   448.60      198.62000      0.22000  -9999.00000      0.94400      3.51400
   448.80      424.83700      0.22000  -9999.00000      0.79500      3.44000
   449.00      288.41500      0.22000  -9999.00000      0.69600      3.38800
   449.20      182.23800      0.22000  -9999.00000      0.54700      3.35800
   449.40      116.81300      0.21900  -9999.00000      0.59600      3.32800
   449.60       77.05500      0.22000  -9999.00000      0.74500      3.28300
   449.80       50.10600      0.22000  -9999.00000      0.94400      3.23900
   450.00       50.83000      0.22000  -9999.00000      0.99400      3.07500
   450.20       61.25100      0.22000  -9999.00000      1.04300      2.86600
   450.40       62.13600      0.21900  -9999.00000      1.09300      2.51600
   450.60       39.26100      0.22100  -9999.00000      1.09300      2.24700
   450.80       27.42700      0.22300  -9999.00000      1.09300      2.05300
   451.00       19.43900      0.22200  -9999.00000      1.04300      1.92700
   451.20       13.77600      0.22100  -9999.00000      0.89400      1.82200
   451.40       10.64100      0.22000  -9999.00000      0.79500      1.86700
   451.60        9.76300      0.22000  -9999.00000      0.79500      1.91200
   451.80        8.95800      0.22100  -9999.00000      0.74500      1.97100
   452.00        9.76300      0.22200  -9999.00000      0.74500      1.94400
   452.20       10.79500      0.22100  -9999.00000      0.74500      1.94000
   452.40       12.10800      0.22100  -9999.00000      0.74500      1.93400
   452.60        9.62400      0.22000  -9999.00000      0.79500      1.96400
   452.80        8.21900      0.22000  -9999.00000      0.79500      2.00100
   453.00       11.26900      0.21900  -9999.00000      0.74500      2.04600
   453.20       13.58000      0.21900  -9999.00000      0.69600      2.10600
   453.40       16.13100      0.22000  -9999.00000      0.69600      2.16500
   453.60       18.35500      0.22100  -9999.00000      0.74500      2.23200
   453.80       20.00400      0.22100  -9999.00000      0.74500      2.29900
   454.00       22.11800      0.22100  -9999.00000      0.84500      2.36600
   454.20       22.43700      0.22100  -9999.00000      0.94400      2.44800
   454.40       25.53000      0.22100  -9999.00000      1.04300      2.52300
   454.60       25.89900      0.22100  -9999.00000      1.14300      2.56000
   454.80       20.00400      0.22100  -9999.00000      1.29200      2.63500
   455.00       16.84100      0.22100  -9999.00000      1.49100      2.73200
   455.20       17.58100      0.22000  -9999.00000      1.19300      2.51600
   455.40       20.88400      0.22000  -9999.00000      1.04300      2.35900
   455.60       25.89900      0.21900  -9999.00000      0.94400      2.24700
   455.80       30.32700      0.21900  -9999.00000      0.79500      2.15000
   456.00       39.82900      0.22000  -9999.00000      0.69600      2.07600
   456.20       31.66000      0.22000  -9999.00000      0.64600      2.02400
   456.40       24.80800      0.22100  -9999.00000      0.49700      1.97100
   456.60       26.27300      0.22100  -9999.00000      0.59600      2.00100
   456.80       32.11800      0.22100  -9999.00000      0.64600      1.99400
   457.00       39.26100      0.22200  -9999.00000      0.74500      2.02400
   457.20       53.83200      0.22200  -9999.00000      0.64600      1.97100
   457.40       63.94500      0.22100  -9999.00000      0.59600      1.94200
   457.60       29.04800      0.22100  -9999.00000      0.54700      1.87500
   457.80       15.45100      0.22000  -9999.00000      0.69600      1.92700
   458.00       10.04800      0.22000  -9999.00000      0.79500      1.98600
   458.20        7.43400      0.21900  -9999.00000      0.89400      2.09100
   458.40        6.08100      0.21900  -9999.00000      0.99400      2.09100
   458.60        5.11900      0.21900  -9999.00000      1.14300      1.95700
   458.80        4.49900      0.21900  -9999.00000      1.24200      2.11300
   459.00        5.58000      0.21900  -9999.00000      1.29200      2.24000
   459.20        6.91900      0.21900  -9999.00000      1.39100      2.45600
   459.40        8.83000      0.22000  -9999.00000      1.39100      2.70200
   459.60       11.43200      0.22000  -9999.00000      1.29200      2.94000
   459.80       14.80200      0.22000  -9999.00000      1.24200      3.52200
   460.00       24.10600      0.22000  -9999.00000      1.24200      3.80500
   460.20       53.83200      0.22000  -9999.00000      1.24200      3.81200
   460.40      113.50900      0.22000  -9999.00000      1.14300      3.82000
   460.60      219.60200      0.22000  -9999.00000      0.99400      3.82000
   460.80      497.53000      0.22000  -9999.00000      0.79500      3.61900
   461.00      787.33600      0.22000  -9999.00000      0.54700      3.44700
   461.20       77.45800      0.22000  -9999.00000      0.59600      3.32800
   461.40       61.52400      0.22000  -9999.00000      0.69600      3.17900
   461.60       57.01100      0.21900  -9999.00000      0.59600      3.37300
   461.80       49.40300      0.21900  -9999.00000      0.54700      3.54400
