~Version information
VERS.              2.00:   CWLS LOG ASCII STANDARD -VERSION 2.00
WRAP.                NO:   one line per depth step
~Well Information Block
#MNEM.UNIT     DATA         DESCRIPTION OF MNEMONIC
#--------  --------------   ------------------------
STRT.M                 4.40:START DEPTH
STOP.M              1112.80:STOP DEPTH
STEP.M                 0.20:STEP VALUE
NULL.           -9999.00000:NULL VALUE
WELL.                 13419:WELL NAME
FLD .             VYATSKAYA:FIELD NAME
CTRY.                RUSSIA:COUNTRY
DATE.            01.12.1988:DATE
UWI .                 13419:UNIQUE WELL IDENTIFIER
SRVC.         ÄêãÄçëäÄü èÉä:çÄáÇÄçàÖ ëÖêÇàëçéâ äéåèÄçàà Éàë
SRVC_OC.                ààí:çÄáÇÄçàÖ ëÖêÇàëçéâ äéåèÄçàà-éñàîêéÇäÄ
~Parameter Information Block
#MNEM.UNIT       Value     Description of mnemonic
#---------   -----------   ------------------------------------
EKB .M               158.08: Elevation Kelly Bushing
TDL.M                  1114: Total Depth
SCD .M          -9999.00000: Surface Casing Diameter
SCDP.M          -9999.00000: Surface Casing Depth
CD  .M                0.228: Casing Diameter
CDP .M                  412: Casing Depth
BS  .M                0.216: Bit Size
                       CLAY: Drill Fluid Type
DFD .G/CM3      -9999.00000: Drill Fluid Density
DFV .S          -9999.00000: Drill Fluid Viscosity
RMF.OHMM               0.07: Mud Filtrate Resistivity
MT  .C                   18: Meas Temperature
                      DRST3: Cartridge Gamma
TAU_GR.S              1.5;3: GR Time Constant
K_GK                   1580: äéùî. èÖêÖïéÑÄ
SPEED.M/H           420;780: Speed M/Hour
                     NGK_60: Probe NGR
USL_ED.IMP/MIN         5500: 1 ìëã.ÖÑ.
OTN_KNL.GR/NGR            9: éíçéòÖçàÖ äÄçÄãéÇ
TAU_NGR.S             1.5;3: NGR Time Constant
SPEED.M/H           420;780: Speed M/Hour
                        K_3: Cartridge BK
                       BK_3: Probe BK
                       USBA: Cartridge DT
                 Sonde 1.4M: Probe DT
                      SKP_1: Cartridge DS
~Curve Information Block
#MNEM.UNIT       API CODE     Curve Description
#---------    -------------   --------------------------------
DEPT.M                    :    1    DEPTH M
BK.OHMM                   :    2    LATEROLOG DEEP
DS.M                      :    3    CALIPER
DT.MCS                    :    4    DELTA TIME INTERVAL TRANSIT TIME MCSEC/M
GR.MCR/H                  :    5    GAMMA RAY MICRO_ROENTGENS PER HOUR
NGR.UE                    :    6    NEUTRON GAMMA RAY
~A DEPT.M       BK           DS           DT           GR           NGR          
# ...
   774.00        1.76800      0.21900  -9999.00000      3.87400      1.69800
   774.20        1.69300      0.21800  -9999.00000      3.62300      1.76600
   774.40        2.01500      0.21600  -9999.00000      3.42100      1.81100
   774.60        2.50300      0.21800  -9999.00000      3.37100      1.64500
   774.80        3.06600      0.21800  -9999.00000      3.82400      1.60700
   775.00        3.64800      0.21900  -9999.00000      4.52800      1.96300
   775.20        4.15600      0.22000  -9999.00000      5.58500      2.25800
   775.40        5.31600      0.22000  -9999.00000      6.23900      2.52300
   775.60        9.49000      0.22000  -9999.00000      7.34500      3.01500
   775.80       19.28900      0.21900  -9999.00000      4.93100      3.38600
   776.00       43.40300      0.21800  -9999.00000      3.72300      3.68900
   776.20       44.65700      0.21700  -9999.00000      3.87400      3.84800
   776.40       45.40800      0.21600  -9999.00000      3.87400      3.78700
   776.60        7.52400      0.21600  -9999.00000      3.72300      3.30300
   776.80        5.79800      0.21600  -9999.00000      3.57200      2.81800
   777.00       12.49200      0.21700  -9999.00000      3.27000      2.68200
   777.20       15.74900      0.21800  -9999.00000      3.47200      2.53800
   777.40       21.97500      0.21800  -9999.00000      3.72300      2.39400
   777.60       10.34700      0.21800  -9999.00000      4.04100      2.27300
   777.80        5.96900      0.21700  -9999.00000      4.04100      2.16700
   778.00        4.03700      0.21600  -9999.00000      4.04100      2.06900
   778.20        3.92200      0.21500  -9999.00000      3.82400      2.02300
   778.40        3.64800      0.21500  -9999.00000      3.57200      1.95500
   778.60        3.24900      0.21800  -9999.00000      3.37100      1.99300
   778.80        2.77000      0.21900  -9999.00000      3.22000      2.02300
   779.00        2.73100      0.22000  -9999.00000      3.11900      2.05400
   779.20        3.92200      0.22000  -9999.00000      3.06900      2.03800
   779.40        6.60500      0.22000  -9999.00000      2.96900      2.03800
   779.60       15.08800      0.22000  -9999.00000      3.17000      2.05400
   779.80       42.77900      0.22000  -9999.00000      3.37100      2.06100
   780.00       44.67900      0.21900  -9999.00000      3.72300      2.06100
   780.20       46.66200      0.21800  -9999.00000      4.17600      2.06100
   780.40       45.33000      0.21800  -9999.00000      4.62900      1.99300
   780.60       21.65500      0.21700  -9999.00000      5.13200      1.89500
   780.80        8.82400      0.21500  -9999.00000      4.78000      1.77400
   781.00        4.66600      0.21700  -9999.00000      4.47800      1.66000
   781.20        2.77000      0.21900  -9999.00000      4.07500      1.57700
   781.40        2.01500      0.22000  -9999.00000      3.72300      1.44000
   781.60        1.57500      0.21800  -9999.00000      3.27000      1.42500
   781.80        1.87400      0.21600  -9999.00000      3.42100      1.56200
   782.00        1.76800      0.21500  -9999.00000      3.73600      1.61500
   782.20        1.62100      0.21500  -9999.00000      3.75100      1.64500
   782.40        1.40300      0.21600  -9999.00000      3.75100      1.60700
   782.60        1.92700      0.21700  -9999.00000      3.75100      1.56900
   782.80        2.60200      0.21700  -9999.00000      3.58300      1.55400
   783.00        3.49300      0.21700  -9999.00000      3.47200      1.48600
   783.20        2.85200      0.21600  -9999.00000      3.42100      1.56200
   783.40        2.22900      0.21500  -9999.00000      3.37100      1.60700
   783.60        3.44300      0.21400  -9999.00000      3.32100      1.66000
   783.80        4.94400      0.21300  -9999.00000      3.22000      1.70500
   784.00        7.20500      0.21400  -9999.00000      3.22000      1.75100
   784.20        9.90800      0.21600  -9999.00000      3.17000      1.78900
   784.40       15.97900      0.21800  -9999.00000      3.11900      1.82600
   784.60        8.44800      0.21600  -9999.00000      3.06900      1.79600
   784.80        4.73400      0.21400  -9999.00000      3.06900      1.75800
   785.00        3.20200      0.21600  -9999.00000      2.96900      1.72800
   785.20        1.87400      0.21800  -9999.00000      3.06900      1.69000
   785.40        2.73100      0.22000  -9999.00000      3.47200      1.65200
   785.60        4.27900      0.21900  -9999.00000      3.62300      1.90200
   785.80        6.70200      0.21600  -9999.00000      3.77400      2.00800
   786.00       10.80800      0.21600  -9999.00000      4.02500      2.11400
   786.20        8.69800      0.21900  -9999.00000      3.82400      2.19700
   786.40        7.20500      0.22100  -9999.00000      3.57200      2.28100
   786.60        7.52500      0.22000  -9999.00000      3.22000      2.32600
   786.80        8.44900      0.21800  -9999.00000      2.86800      2.39400
   787.00        8.44900      0.21800  -9999.00000      2.61600      2.40200
   787.20        7.31000      0.22100  -9999.00000      2.46500      2.27300
   787.40        6.89900      0.22100  -9999.00000      3.01900      2.15200
   787.60        6.60500      0.21900  -9999.00000      3.17000      2.01600
   787.80        6.14400      0.21900  -9999.00000      2.56600      1.92500
   788.00        6.23400      0.21800  -9999.00000      2.01300      1.84900
   788.20        6.60500      0.21800  -9999.00000      2.16400      1.83400
   788.40        6.89900      0.21600  -9999.00000      2.61600      1.82600
   788.60        7.63500      0.21800  -9999.00000      3.32100      1.81900
   788.80        8.57300      0.21900  -9999.00000      4.12600      1.81100
   789.00        6.70200      0.22000  -9999.00000      5.28300      1.75100
   789.20        5.39300      0.22000  -9999.00000      4.67900      1.66400
   789.40        4.21600      0.21800  -9999.00000      3.97500      1.66600
   789.60        4.40400      0.21600  -9999.00000      3.82800      1.71700
   789.80        4.80300      0.21400  -9999.00000      3.92000      1.73700
   790.00        5.39300      0.21600  -9999.00000      4.78000      1.75600
   790.20        5.96900      0.21900  -9999.00000      5.23300      1.79200
   790.40        6.80000      0.22000  -9999.00000      5.32400      1.79700
   790.60        6.89900      0.22000  -9999.00000      5.03100      1.80600
   790.80        5.88300      0.22000  -9999.00000      4.73000      1.80900
   791.00        5.16400      0.22000  -9999.00000      4.42600      1.80900
   791.20        3.59500      0.22000  -9999.00000      4.47100      1.81100
   791.40        5.96900      0.21900  -9999.00000      4.51700      1.83400
   791.60        8.57400      0.21600  -9999.00000      4.62900      1.87200
   791.80       13.04700      0.21600  -9999.00000      4.88100      1.91700
   792.00       18.73900      0.21700  -9999.00000      5.08200      1.96300
   792.20        6.14400      0.21800  -9999.00000      4.73000      2.02300
   792.40        7.63500      0.21900  -9999.00000      4.47800      2.08400
   792.60       10.65400      0.22000  -9999.00000      4.44100      2.14400
   792.80       14.23100      0.22000  -9999.00000      4.45600      2.21300
   793.00       18.73900      0.22000  -9999.00000      4.45600      2.28800
   793.20       16.68900      0.22000  -9999.00000      4.12600      2.45500
   793.40       13.82500      0.22000  -9999.00000      3.87400      2.37900
   793.60        8.20600      0.22000  -9999.00000      3.52200      2.29600
   793.80        2.13500      0.21900  -9999.00000      3.17000      1.94800
   794.00        2.43200      0.21600  -9999.00000      2.85800      1.93200
   794.20        3.49300      0.21500  -9999.00000      2.96000      1.87900
   794.40        4.27800      0.21400  -9999.00000      3.01100      1.92500
   794.60        5.16400      0.21600  -9999.00000      3.01600      1.97000
