~Version information
VERS.              2.00:   CWLS LOG ASCII STANDARD -VERSION 2.00
WRAP.                NO:   one line per depth step
~Well Information Block
#MNEM.UNIT     DATA         DESCRIPTION OF MNEMONIC
#--------  --------------   ------------------------
STRT.M                 4.40:START DEPTH
STOP.M              1087.60:STOP DEPTH
STEP.M                 0.20:STEP VALUE
NULL.           -9999.00000:NULL VALUE
WELL.                 13416:WELL NAME
FLD .             VYATSKAYA:FIELD NAME
CTRY.                RUSSIA:COUNTRY
DATE.            13.12.1988:DATE
UWI .                 13416:UNIQUE WELL IDENTIFIER
SRVC.         ÄêãÄçëäÄü èÉä:çÄáÇÄçàÖ ëÖêÇàëçéâ äéåèÄçàà Éàë
SRVC_OC.                ààí:çÄáÇÄçàÖ ëÖêÇàëçéâ äéåèÄçàà-éñàîêéÇäÄ
~Parameter Information Block
#MNEM.UNIT       Value     Description of mnemonic
#---------   -----------   ------------------------------------
EKB .M               157.98: Elevation Kelly Bushing
TDL.M                  1087: Total Depth
SCD .M          -9999.00000: Surface Casing Diameter
SCDP.M          -9999.00000: Surface Casing Depth
CD  .M                0.228: Casing Diameter
CDP .M                  412: Casing Depth
BS  .M                0.216: Bit Size
                       CLAY: Drill Fluid Type
DFD .G/CM3        1.07-1.09: Drill Fluid Density
DFV .S                22-24: Drill Fluid Viscosity
RMF.OHMM               0.07: Mud Filtrate Resistivity
MT  .C                   18: Meas Temperature
                      DRST3: Cartridge Gamma
TAU_GR.S              1.5;3: GR Time Constant
K_GK                   1580: äéùî. èÖêÖïéÑÄ
SPEED.M/H               890: Speed M/Hour
                     NGK_60: Probe NGR
USL_ED.IMP/MIN         5500: 1 ìëã.ÖÑ.
OTN_KNL.GR/NGR            9: éíçéòÖçàÖ äÄçÄãéÇ
TAU_NGR.S             1.5;3: NGR Time Constant
SPEED.M/H               890: Speed M/Hour
                        K_3: Cartridge BK
                       BK_3: Probe BK
                       USBA: Cartridge DT
                 Sonde 1.4M: Probe DT
                      SKP_1: Cartridge DS
~Curve Information Block
#MNEM.UNIT       API CODE     Curve Description
#---------    -------------   --------------------------------
DEPT.M                    :    1    DEPTH M
BK.OHMM                   :    2    LATEROLOG DEEP
DS.M                      :    3    CALIPER
DT.MCS                    :    4    DELTA TIME INTERVAL TRANSIT TIME MCSEC/M
GR.MCR/H                  :    5    GAMMA RAY MICRO_ROENTGENS PER HOUR
NGR.UE                    :    6    NEUTRON GAMMA RAY
~A DEPT.M       BK           DS           DT           GR           NGR          
# ...
   940.40        6.46400      0.22000    219.01200      1.31200      2.27100
   940.60        1.90000      0.21700    230.37000      1.16100      2.07300
   940.80        1.72200      0.21600    240.74100      1.21100      1.89100
   941.00        1.75200      0.21600    246.66700      1.31200      1.70900
   941.20        1.67800      0.21400    249.13600      1.51400      1.80000
   941.40        1.70200      0.21700    247.65400      1.41300      1.80800
   941.60        1.67800      0.22000    247.16000      1.81700      1.77000
   941.80        1.49600      0.21800    244.69100      2.06900      1.80800
   942.00        1.33400      0.21700    243.21000      2.27100      1.84600
   942.20        1.54000      0.21700    243.21000      2.12000      1.89900
   942.40        1.80300      0.21500    243.70400      2.01900      1.80400
   942.60        1.56200      0.21500    244.56300      2.01900      1.68600
   942.80        1.29600      0.21800    241.72800      1.71600      1.76600
   943.00        1.65400      0.22300    237.77800      1.86800      1.80000
   943.20        2.17200      0.22000    232.34600      2.27100      1.85300
   943.40        2.61800      0.21900    226.91400      2.62500      1.89900
   943.60        2.36800      0.22000    222.46900      2.92700      1.92200
   943.80        3.48800      0.22000    218.02500      3.23000      1.90600
   944.00        5.76300      0.21900    212.09900      2.97800      1.82300
   944.20        8.86200      0.21800    209.13600      2.92700      1.86100
   944.40        4.71400      0.21800    212.09900      3.23000      1.89900
   944.60        2.23600      0.22100    216.54300      3.43200      1.78500
   944.80        1.33400      0.21900    220.49400      3.58400      1.65600
   945.00        1.00100      0.22200    224.93800      3.02800      1.48100
   945.20        1.29600      0.21600    221.48100      2.72600      1.57200
   945.40        2.17200      0.21700    215.55600      2.67500      1.60300
   945.60        2.97900      0.21800    209.63000      2.57400      1.56500
   945.80        4.02600      0.22000    206.17300      3.07900      1.79200
   946.00        3.48800      0.22000    203.70400      2.72600      1.70900
   946.20        3.74700      0.21900    208.64200      2.52400      1.66300
   946.40        2.54400      0.21700    215.06200      2.27100      1.64800
   946.60        2.11100      0.21900    223.95100      1.96800      1.64600
   946.80        1.72700      0.21600    233.33300      1.81700      1.56200
   947.00        1.31500      0.21300    242.22200      1.61500      1.49900
   947.20        1.04500      0.21700    249.63000      1.81700      1.50300
   947.40        0.85600      0.21800    254.56800      1.91800      1.54500
   947.60        0.84300      0.21800    257.03700      1.98100      1.62100
   947.80        1.18900      0.22000    242.22200      1.98100      1.87600
   948.00        2.30100      0.21900    225.92600      2.12000      2.10400
   948.20        5.13800      0.21600    219.50600      2.47300      2.39200
   948.40       10.52700      0.21900    214.07400      2.67500      2.43800
   948.60       11.80700      0.22000    212.09900      1.96800      2.24100
   948.80       14.85400      0.22300    218.02500      1.81700      1.99000
   949.00        8.01500      0.21800    225.43200      2.01900      1.73900
   949.20        4.51500      0.21600    236.79000      2.12000      1.48900
   949.40        3.06500      0.21500    248.64200      1.56500      1.39700
   949.60        2.47200      0.22000    255.06200      1.21100      1.34400
   949.80        2.26800      0.21700    260.49400      1.31200      1.28400
   950.00        2.17200      0.21900    258.02500      1.26200      1.35900
   950.20        2.26800      0.22000    256.04900      1.21100      1.49600
   950.40        2.40200      0.22100    254.56800      1.31200      1.46900
   950.60        2.58100      0.22000    252.09900      1.41300      1.46900
   950.80        2.43700      0.22100    249.13600      1.51400      1.46500
   951.00        2.40200      0.22400    244.69100      1.66600      1.46900
   951.20        2.43700      0.22100    238.76500      1.76700      1.59500
   951.40        2.36800      0.22000    231.85200      1.86800      1.72400
   951.60        2.36800      0.21900    224.93800      1.91800      1.84600
   951.80        3.02200      0.22100    218.51900      2.01900      2.00500
   952.00        4.45100      0.21900    213.08600      2.12000      2.21800
   952.20        6.28100      0.22000    209.13600      2.42700      2.27100
   952.40        8.04600      0.21800    212.09900      2.45500      2.13400
   952.60        2.85300      0.22200    216.04900      2.45500      1.88400
   952.80        1.75200      0.21900    220.49400      3.07900      1.83000
   953.00        1.35300      0.22000    216.04900      3.58400      1.81500
   953.20        2.33400      0.21900    211.11100      3.83600      2.11900
   953.40        7.25000      0.21800    206.17300      3.27400      2.33200
   953.60       12.68500      0.21900    202.71600      3.19000      2.58200
   953.80        8.13100      0.21800    205.67900      3.12900      2.34700
   954.00        5.98200      0.21600    208.14800      3.78500      2.20300
   954.20        4.86800      0.21900    208.64200      4.29000      2.18700
   954.40        4.67900      0.21700    207.16000      4.64400      2.27100
   954.60        4.67900      0.21900    204.69100      4.24000      2.34700
   954.80        5.14600      0.21800    201.23500      3.98700      2.40800
   955.00        5.98200      0.21900    203.21000      3.58400      2.46800
   955.20        3.43800      0.21900    204.69100      3.33100      2.03300
   955.40        2.47200      0.21700    205.67900      3.38200      2.06700
   955.60        3.85600      0.21700    206.17300      3.43200      2.33100
   955.80        6.19100      0.21700    206.66700      3.53300      2.38200
   956.00        6.55700      0.21700    210.12300      3.07900      2.27700
   956.20        4.14300      0.21800    216.04900      2.47300      1.92000
   956.40        2.47200      0.21700    221.48100      2.72600      1.84400
   956.60        1.88200      0.21900    226.91400      3.07900      1.72400
   956.80        2.20400      0.21700    231.35800      3.07900      1.73200
   957.00        2.65600      0.21700    233.33300      3.12900      1.66300
   957.20        3.34100      0.21800    233.82700      2.67500      1.86100
   957.40        4.99200      0.22000    233.82700      2.57400      2.08100
   957.60        9.17800      0.21800    230.86400      2.37200      2.11900
   957.80        9.32400      0.21800    225.43200      2.17000      2.14900
   958.00        8.82100      0.21900    227.90100      2.06900      2.05100
   958.20        7.90100      0.22100    230.86400      2.12000      2.13400
   958.40        7.35400      0.22000    234.32100      2.22100      2.18700
   958.60        6.28100      0.21900    239.25900      1.96800      2.01300
   958.80        4.99200      0.21900    245.90700      1.56500      1.94400
   959.00        4.58100      0.21800    229.81000      1.81700      1.87600
   959.20        4.14300      0.21800    225.43200      2.12000      1.80000
   959.40        3.58900      0.21900    227.40700      2.37200      1.67800
   959.60        3.20000      0.21900    228.39500      2.47300      1.57200
   959.80        7.25000      0.21700    230.86400      2.67500      1.51900
   960.00       18.42100      0.21700    236.79000      2.72600      1.42800
   960.20       17.14500      0.21700    246.17300      2.72600      1.31400
   960.40       11.80700      0.21800    257.53100      2.75500      1.35900
   960.60        8.86200      0.22200    265.43200      3.06100      1.42000
   960.80        7.73200      0.21900    270.37000      3.06100      1.38200
   961.00        8.77800      0.21900    265.43200      2.92200      1.47300
