~Version information
VERS.              2.00:   CWLS LOG ASCII STANDARD -VERSION 2.00
WRAP.                NO:   one line per depth step
~Well Information Block
#MNEM.UNIT     DATA         DESCRIPTION OF MNEMONIC
#--------  --------------   ------------------------
STRT.M                 4.40:START DEPTH
STOP.M              1112.80:STOP DEPTH
STEP.M                 0.20:STEP VALUE
NULL.           -9999.00000:NULL VALUE
WELL.                 13419:WELL NAME
FLD .             VYATSKAYA:FIELD NAME
CTRY.                RUSSIA:COUNTRY
DATE.            01.12.1988:DATE
UWI .                 13419:UNIQUE WELL IDENTIFIER
SRVC.         ÄêãÄçëäÄü èÉä:çÄáÇÄçàÖ ëÖêÇàëçéâ äéåèÄçàà Éàë
SRVC_OC.                ààí:çÄáÇÄçàÖ ëÖêÇàëçéâ äéåèÄçàà-éñàîêéÇäÄ
~Parameter Information Block
#MNEM.UNIT       Value     Description of mnemonic
#---------   -----------   ------------------------------------
EKB .M               158.08: Elevation Kelly Bushing
TDL.M                  1114: Total Depth
SCD .M          -9999.00000: Surface Casing Diameter
SCDP.M          -9999.00000: Surface Casing Depth
CD  .M                0.228: Casing Diameter
CDP .M                  412: Casing Depth
BS  .M                0.216: Bit Size
                       CLAY: Drill Fluid Type
DFD .G/CM3      -9999.00000: Drill Fluid Density
DFV .S          -9999.00000: Drill Fluid Viscosity
RMF.OHMM               0.07: Mud Filtrate Resistivity
MT  .C                   18: Meas Temperature
                      DRST3: Cartridge Gamma
TAU_GR.S              1.5;3: GR Time Constant
K_GK                   1580: äéùî. èÖêÖïéÑÄ
SPEED.M/H           420;780: Speed M/Hour
                     NGK_60: Probe NGR
USL_ED.IMP/MIN         5500: 1 ìëã.ÖÑ.
OTN_KNL.GR/NGR            9: éíçéòÖçàÖ äÄçÄãéÇ
TAU_NGR.S             1.5;3: NGR Time Constant
SPEED.M/H           420;780: Speed M/Hour
                        K_3: Cartridge BK
                       BK_3: Probe BK
                       USBA: Cartridge DT
                 Sonde 1.4M: Probe DT
                      SKP_1: Cartridge DS
~Curve Information Block
#MNEM.UNIT       API CODE     Curve Description
#---------    -------------   --------------------------------
DEPT.M                    :    1    DEPTH M
BK.OHMM                   :    2    LATEROLOG DEEP
DS.M                      :    3    CALIPER
DT.MCS                    :    4    DELTA TIME INTERVAL TRANSIT TIME MCSEC/M
GR.MCR/H                  :    5    GAMMA RAY MICRO_ROENTGENS PER HOUR
NGR.UE                    :    6    NEUTRON GAMMA RAY
~A DEPT.M       BK           DS           DT           GR           NGR          
# ...
   815.60       48.02900      0.22000  -9999.00000      3.06900      2.00800
   815.80       32.48900      0.22000  -9999.00000      3.37100      1.99300
   816.00       23.28500      0.22100  -9999.00000      3.72300      1.95500
   816.20       17.43000      0.22200  -9999.00000      4.07500      1.94000
   816.40       13.43000      0.22300  -9999.00000      4.83900      1.85700
   816.60        9.76500      0.22100  -9999.00000      4.87000      1.79600
   816.80        7.31000      0.22100  -9999.00000      4.91600      1.71300
   817.00        5.55200      0.22100  -9999.00000      4.73000      1.85700
   817.20        6.32500      0.22000  -9999.00000      4.42600      1.91000
   817.40        7.41700      0.21900  -9999.00000      4.44100      1.97800
   817.60        8.45000      0.22100  -9999.00000      4.67900      2.04600
   817.80       10.49900      0.22200  -9999.00000      5.13200      2.11400
   818.00       10.80800      0.22300  -9999.00000      5.58500      1.92500
   818.20        9.08400      0.22300  -9999.00000      5.08200      1.87900
   818.40        8.09000      0.22300  -9999.00000      4.57900      2.03800
   818.60        8.57300      0.22100  -9999.00000      4.94600      2.16000
   818.80        9.31900      0.21900  -9999.00000      5.23800      2.25800
   819.00        9.71600      0.21800  -9999.00000      4.98100      2.38700
   819.20       10.56100      0.22100  -9999.00000      4.73000      2.53800
   819.40       11.01000      0.22100  -9999.00000      4.37700      2.51500
   819.60       10.19800      0.22100  -9999.00000      3.92500      2.38700
   819.80        3.75500      0.22100  -9999.00000      3.33800      2.40200
   820.00        6.89900      0.22000  -9999.00000      3.21500      2.42500
   820.20        9.90800      0.22000  -9999.00000      3.27000      2.44000
   820.40       12.85900      0.21900  -9999.00000      3.38800      2.47000
   820.60       15.30200      0.21900  -9999.00000      3.64000      2.38700
   820.80       20.73800      0.21800  -9999.00000      3.76700      2.28100
   821.00       21.04000      0.22000  -9999.00000      4.27200      2.12900
   821.20       13.43000      0.22000  -9999.00000      4.28800      2.02300
   821.40        8.95300      0.22000  -9999.00000      4.24200      1.94800
   821.60        5.08900      0.22000  -9999.00000      4.19600      1.90200
   821.80        2.61400      0.22000  -9999.00000      3.52200      1.84900
   822.00        2.54000      0.21900  -9999.00000      3.22000      1.84200
   822.20        4.03700      0.21800  -9999.00000      2.91800      1.96300
   822.40        5.23900      0.22000  -9999.00000      2.69400      2.11400
   822.60        6.70300      0.22100  -9999.00000      2.81800      2.60900
   822.80        9.08400      0.22200  -9999.00000      3.37100      2.83600
   823.00       12.85900      0.22000  -9999.00000      3.82400      2.83600
   823.20       17.94200      0.21600  -9999.00000      4.12600      2.80200
   823.40       25.76900      0.21400  -9999.00000      4.57900      2.76800
   823.60       18.20300      0.21800  -9999.00000      4.17600      2.75200
   823.80       13.43000      0.22000  -9999.00000      3.92500      2.72700
   824.00       13.62600      0.22200  -9999.00000      3.72300      2.77300
   824.20       14.64900      0.22100  -9999.00000      3.52200      2.80300
   824.40       15.97900      0.22000  -9999.00000      3.27000      2.83300
   824.60       17.17900      0.21900  -9999.00000      2.96900      2.90500
   824.80       18.46900      0.21800  -9999.00000      2.76700      2.90500
   825.00       19.85600      0.21800  -9999.00000      2.82500      2.78000
   825.20       20.73800      0.21900  -9999.00000      2.97200      2.68200
   825.40       16.68900      0.22000  -9999.00000      3.04500      2.62100
   825.60       13.82400      0.22100  -9999.00000      3.19100      2.58400
   825.80       10.65300      0.22300  -9999.00000      3.26500      2.55300
   826.00       12.85900      0.22200  -9999.00000      3.27000      2.52300
   826.20       17.17900      0.22100  -9999.00000      3.01900      2.47800
   826.40       14.23100      0.21900  -9999.00000      2.71700      2.40900
   826.60       11.78800      0.21800  -9999.00000      3.11900      2.34900
   826.80       10.05300      0.21500  -9999.00000      3.52200      2.30300
   827.00        9.08400      0.21400  -9999.00000      3.87400      2.27300
   827.20        7.97400      0.21600  -9999.00000      4.22600      2.25800
   827.40        7.74600      0.21600  -9999.00000      4.73000      2.25800
   827.60       10.05400      0.21700  -9999.00000      4.57900      2.24300
   827.80       12.13500      0.21700  -9999.00000      4.32700      2.22000
   828.00       14.86300      0.21800  -9999.00000      4.12600      2.18200
   828.20       21.97500      0.21900  -9999.00000      4.42800      2.12200
   828.40       21.97500      0.21900  -9999.00000      4.83000      2.05400
   828.60       13.82400      0.21900  -9999.00000      5.38400      1.91700
   828.80       10.56100      0.21800  -9999.00000      6.23900      2.00800
   829.00       10.56100      0.21600  -9999.00000      6.49100      2.10700
   829.20       10.56100      0.21400  -9999.00000      5.93700      2.22800
   829.40       10.56100      0.21300  -9999.00000      5.68600      2.34100
   829.60       12.13500      0.21400  -9999.00000      5.53500      2.50000
   829.80       13.23700      0.21600  -9999.00000      5.38400      2.58400
   830.00       15.08000      0.21800  -9999.00000      5.28300      2.61400
   830.20       16.93200      0.22100  -9999.00000      4.83000      2.56800
   830.40       19.01200      0.22200  -9999.00000      4.37700      2.46200
   830.60       20.43900      0.22000  -9999.00000      4.54300      2.39400
   830.80       16.68900      0.21900  -9999.00000      4.64000      2.36400
   831.00       12.49200      0.21700  -9999.00000      4.93100      1.90500
   831.20        8.44900      0.21600  -9999.00000      5.18200      1.90000
   831.40        5.09000      0.21500  -9999.00000      5.53500      1.88700
   831.60        3.24900      0.21600  -9999.00000      5.98700      1.87500
   831.80        1.82000      0.22000  -9999.00000      6.34000      1.86100
   832.00        2.43200      0.21800  -9999.00000      6.89300      1.84100
   832.20        3.24900      0.21600  -9999.00000      6.59100      1.77400
   832.40        4.09600      0.21300  -9999.00000      6.28900      1.81100
   832.60        5.47200      0.21500  -9999.00000      6.89300      1.84900
   832.80        5.88300      0.21500  -9999.00000      7.44700      1.89500
   833.00        3.86500      0.21500  -9999.00000      7.95000      1.97000
   833.20        2.93600      0.21500  -9999.00000      8.90600      2.06900
   833.40        5.23900      0.21500  -9999.00000      9.81100      2.37900
   833.60        7.63700      0.21700  -9999.00000      8.85500      2.36400
   833.80       12.67400      0.21800  -9999.00000      7.64800      2.33400
   834.00       14.02700      0.21800  -9999.00000      6.28900      2.31100
   834.20        8.32800      0.21800  -9999.00000      5.28300      2.28100
   834.40        6.60500      0.21800  -9999.00000      3.37100      2.19000
   834.60        8.09100      0.21600  -9999.00000      2.71000      2.13700
   834.80       10.12900      0.21600  -9999.00000      2.54100      2.09100
   835.00        6.81100      0.21500  -9999.00000      2.34200      2.08400
   835.20        6.00000      0.21800  -9999.00000      2.31100      2.03800
   835.40        5.16400      0.21900  -9999.00000      2.23500      2.00800
   835.60        4.59900      0.21900  -9999.00000      2.20400      2.16000
   835.80        4.27800      0.21900  -9999.00000      2.12700      2.21300
   836.00        4.09600      0.21800  -9999.00000      2.08100      2.12900
   836.20        3.81000      0.21700  -9999.00000      2.06600      2.06900
