~Version information
VERS.              2.00:   CWLS LOG ASCII STANDARD -VERSION 2.00
WRAP.                NO:   one line per depth step
~Well Information Block
#MNEM.UNIT     DATA         DESCRIPTION OF MNEMONIC
#--------  --------------   ------------------------
STRT.M                 4.40:START DEPTH
STOP.M              1087.60:STOP DEPTH
STEP.M                 0.20:STEP VALUE
NULL.           -9999.00000:NULL VALUE
WELL.                 13416:WELL NAME
FLD .             VYATSKAYA:FIELD NAME
CTRY.                RUSSIA:COUNTRY
DATE.            13.12.1988:DATE
UWI .                 13416:UNIQUE WELL IDENTIFIER
SRVC.         ÄêãÄçëäÄü èÉä:çÄáÇÄçàÖ ëÖêÇàëçéâ äéåèÄçàà Éàë
SRVC_OC.                ààí:çÄáÇÄçàÖ ëÖêÇàëçéâ äéåèÄçàà-éñàîêéÇäÄ
~Parameter Information Block
#MNEM.UNIT       Value     Description of mnemonic
#---------   -----------   ------------------------------------
EKB .M               157.98: Elevation Kelly Bushing
TDL.M                  1087: Total Depth
SCD .M          -9999.00000: Surface Casing Diameter
SCDP.M          -9999.00000: Surface Casing Depth
CD  .M                0.228: Casing Diameter
CDP .M                  412: Casing Depth
BS  .M                0.216: Bit Size
                       CLAY: Drill Fluid Type
DFD .G/CM3        1.07-1.09: Drill Fluid Density
DFV .S                22-24: Drill Fluid Viscosity
RMF.OHMM               0.07: Mud Filtrate Resistivity
MT  .C                   18: Meas Temperature
                      DRST3: Cartridge Gamma
TAU_GR.S              1.5;3: GR Time Constant
K_GK                   1580: äéùî. èÖêÖïéÑÄ
SPEED.M/H               890: Speed M/Hour
                     NGK_60: Probe NGR
USL_ED.IMP/MIN         5500: 1 ìëã.ÖÑ.
OTN_KNL.GR/NGR            9: éíçéòÖçàÖ äÄçÄãéÇ
TAU_NGR.S             1.5;3: NGR Time Constant
SPEED.M/H               890: Speed M/Hour
                        K_3: Cartridge BK
                       BK_3: Probe BK
                       USBA: Cartridge DT
                 Sonde 1.4M: Probe DT
                      SKP_1: Cartridge DS
~Curve Information Block
#MNEM.UNIT       API CODE     Curve Description
#---------    -------------   --------------------------------
DEPT.M                    :    1    DEPTH M
BK.OHMM                   :    2    LATEROLOG DEEP
DS.M                      :    3    CALIPER
DT.MCS                    :    4    DELTA TIME INTERVAL TRANSIT TIME MCSEC/M
GR.MCR/H                  :    5    GAMMA RAY MICRO_ROENTGENS PER HOUR
NGR.UE                    :    6    NEUTRON GAMMA RAY
~A DEPT.M       BK           DS           DT           GR           NGR          
# ...
   524.40        4.01100      0.22100  -9999.00000      4.12400      1.91200
   524.60        4.63000      0.22100  -9999.00000      4.22400      1.96400
   524.80        4.97500      0.22000  -9999.00000      4.42200      1.99400
   525.00        5.19300      0.21900  -9999.00000      4.22400      2.01600
   525.20        5.58000      0.21800  -9999.00000      4.07500      2.06100
   525.40        5.74200      0.21700  -9999.00000      3.92500      2.07600
   525.60        4.97500      0.21800  -9999.00000      3.77600      2.00900
   525.80        4.56400      0.21900  -9999.00000      3.57800      2.06800
   526.00        4.06900      0.22000  -9999.00000      4.02500      2.12000
   526.20        3.78800      0.21900  -9999.00000      4.52200      2.16500
   526.40        5.11900      0.21900  -9999.00000      5.16800      2.24700
   526.60        8.28800      0.21900  -9999.00000      5.21700      2.22500
   526.80        8.56500      0.21900  -9999.00000      4.62100      2.18000
   527.00        8.56500      0.21800  -9999.00000      4.91900      2.12800
   527.20        7.98700      0.21700  -9999.00000      5.41600      2.07600
   527.40        7.32800      0.21600  -9999.00000      6.16100      2.03900
   527.60        6.62800      0.21700  -9999.00000      6.06200      1.97100
   527.80        5.66000      0.21800  -9999.00000      5.66500      2.04600
   528.00        6.16900      0.21800  -9999.00000      5.46600      2.10600
   528.20        6.62800      0.21700  -9999.00000      5.26700      2.18000
   528.40        7.43400      0.21600  -9999.00000      5.06800      2.24000
   528.60        8.21900      0.21700  -9999.00000      4.87000      2.29200
   528.80        8.83000      0.21800  -9999.00000      4.72000      2.35200
   529.00        9.76300      0.21900  -9999.00000      4.57100      2.27000
   529.20        8.45800      0.21900  -9999.00000      4.52200      2.18800
   529.40        7.12100      0.21900  -9999.00000      4.62100      1.94200
   529.60        5.74200      0.22000  -9999.00000      4.62100      1.92700
   529.80        4.24800      0.22000  -9999.00000      4.57100      1.94200
   530.00        3.32900      0.22000  -9999.00000      4.82000      1.95700
   530.20        3.28200      0.22000  -9999.00000      5.06800      1.99400
   530.40        3.78800      0.21900  -9999.00000      5.41600      2.05300
   530.60        4.76500      0.21900  -9999.00000      5.06800      2.09800
   530.80        6.81600      0.22000  -9999.00000      4.67100      2.12800
   531.00        7.14600      0.22000  -9999.00000      4.42200      2.17300
   531.20        7.76100      0.22100  -9999.00000      4.22400      2.22500
   531.40        6.91900      0.22200  -9999.00000      4.12400      2.12000
   531.60        5.74200      0.22400  -9999.00000      4.02500      2.03900
   531.80        4.97500      0.22600  -9999.00000      3.92500      1.98600
   532.00        4.43500      0.22800  -9999.00000      3.77600      1.89700
   532.20        4.18800      0.22500  -9999.00000      3.97500      1.97100
   532.40        4.01100      0.22200  -9999.00000      4.37300      2.03900
   532.60        4.31000      0.22000  -9999.00000      3.97500      2.10600
   532.80        4.69700      0.21900  -9999.00000      3.38100      2.16500
   533.00        5.11900      0.21600  -9999.00000      3.21700      2.21700
   533.20        5.66000      0.21700  -9999.00000      3.16200      2.29900
   533.40        6.16900      0.21900  -9999.00000      3.08100      2.20200
   533.60        6.91900      0.21800  -9999.00000      3.08100      2.12000
   533.80        7.22400      0.21600  -9999.00000      2.98100      2.02400
   534.00        6.16900      0.21700  -9999.00000      2.88200      1.98600
   534.20        4.69700      0.21800  -9999.00000      2.78300      2.06800
   534.40        4.06900      0.21800  -9999.00000      2.58400      2.12800
   534.60        3.73400      0.21900  -9999.00000      2.48400      2.18800
   534.80        3.52600      0.21900  -9999.00000      2.73300      2.24700
   535.00        4.43500      0.21900  -9999.00000      3.03100      2.30700
   535.20        5.34500      0.21900  -9999.00000      2.93200      2.34400
   535.40        7.22400      0.21900  -9999.00000      2.78300      2.35900
   535.60        6.72400      0.21800  -9999.00000      2.93200      2.38100
   535.80        5.74200      0.21700  -9999.00000      3.08100      2.42600
   536.00        5.34500      0.21800  -9999.00000      3.23000      2.46300
   536.20        6.08100      0.21900  -9999.00000      3.32900      2.50100
   536.40        6.91900      0.21900  -9999.00000      3.37900      2.58300
   536.60        6.62800      0.22000  -9999.00000      3.28000      2.53000
   536.80        5.90900      0.22200  -9999.00000      3.18000      2.46300
   537.00        8.95800      0.22100  -9999.00000      3.03100      2.56000
   537.20       11.26900      0.22000  -9999.00000      2.93200      2.68700
   537.40       12.82300      0.21900  -9999.00000      2.93200      2.72400
   537.60       15.83200      0.21800  -9999.00000      2.88200      2.56800
   537.80       20.58700      0.21700  -9999.00000      2.83200      2.45600
   538.00       23.42400      0.21600  -9999.00000      2.98100      2.35900
   538.20       13.97500      0.21500  -9999.00000      3.08100      2.24700
   538.40        9.76300      0.21400  -9999.00000      3.23000      2.14300
   538.60        7.12100      0.21300  -9999.00000      3.47800      2.05300
   538.80        5.74200      0.21600  -9999.00000      3.28000      1.97100
   539.00        4.90400      0.21700  -9999.00000      3.13000      1.91900
   539.20        4.76500      0.21800  -9999.00000      3.13000      1.86700
   539.40        4.97500      0.21900  -9999.00000      3.03100      1.82200
   539.60        4.76500      0.22000  -9999.00000      2.93200      1.77000
   539.80        4.56400      0.22200  -9999.00000      3.03100      1.72500
   540.00        4.76500      0.22300  -9999.00000      2.98100      1.67300
   540.20        4.83400      0.22200  -9999.00000      2.93200      1.62900
   540.40        4.97500      0.22300  -9999.00000      2.98100      1.53900
   540.60        5.04700      0.22100  -9999.00000      2.88200      1.59900
   540.80        5.04700      0.22100  -9999.00000      2.78300      1.67300
   541.00        5.11900      0.22000  -9999.00000      2.68300      1.74800
   541.20        5.26800      0.22000  -9999.00000      2.68300      1.91200
   541.40        5.50000      0.22100  -9999.00000      2.68300      1.81500
   541.60        5.82500      0.22100  -9999.00000      2.68300      1.70300
   541.80        6.81500      0.22100  -9999.00000      2.63400      1.59900
   542.00        6.81500      0.22100  -9999.00000      2.58400      1.52400
   542.20        6.81500      0.22100  -9999.00000      2.58400      1.42700
   542.40        6.81500      0.22200  -9999.00000      2.53400      1.50200
   542.60        7.54200      0.22100  -9999.00000      2.43500      1.61400
   542.80        9.21900      0.22000  -9999.00000      2.28600      1.67300
   543.00        9.90400      0.22000  -9999.00000      2.13700      1.57600
   543.20        8.10200      0.21900  -9999.00000      2.08700      1.52400
   543.40        6.82100      0.21800  -9999.00000      2.38500      1.49400
   543.60        5.50000      0.21600  -9999.00000      2.58400      1.42000
   543.80        4.01100      0.21200  -9999.00000      2.53400      1.39000
   544.00        6.72400      0.21200  -9999.00000      2.48400      1.39000
   544.20        9.35200      0.21300  -9999.00000      2.38500      1.54700
   544.40       12.10800      0.21400  -9999.00000      2.28600      1.62900
   544.60       15.67400      0.21600  -9999.00000      2.23600      1.65100
   544.80       13.58000      0.21800  -9999.00000      2.43500      1.51700
   545.00       11.76500      0.22000  -9999.00000      2.73300      1.43500
