~Version information
VERS.              2.00:   CWLS LOG ASCII STANDARD -VERSION 2.00
WRAP.                NO:   one line per depth step
~Well Information Block
#MNEM.UNIT     DATA         DESCRIPTION OF MNEMONIC
#--------  --------------   ------------------------
STRT.M                 4.40:START DEPTH
STOP.M              1112.80:STOP DEPTH
STEP.M                 0.20:STEP VALUE
NULL.           -9999.00000:NULL VALUE
WELL.                 13419:WELL NAME
FLD .             VYATSKAYA:FIELD NAME
CTRY.                RUSSIA:COUNTRY
DATE.            01.12.1988:DATE
UWI .                 13419:UNIQUE WELL IDENTIFIER
SRVC.         ÄêãÄçëäÄü èÉä:çÄáÇÄçàÖ ëÖêÇàëçéâ äéåèÄçàà Éàë
SRVC_OC.                ààí:çÄáÇÄçàÖ ëÖêÇàëçéâ äéåèÄçàà-éñàîêéÇäÄ
~Parameter Information Block
#MNEM.UNIT       Value     Description of mnemonic
#---------   -----------   ------------------------------------
EKB .M               158.08: Elevation Kelly Bushing
TDL.M                  1114: Total Depth
SCD .M          -9999.00000: Surface Casing Diameter
SCDP.M          -9999.00000: Surface Casing Depth
CD  .M                0.228: Casing Diameter
CDP .M                  412: Casing Depth
BS  .M                0.216: Bit Size
                       CLAY: Drill Fluid Type
DFD .G/CM3      -9999.00000: Drill Fluid Density
DFV .S          -9999.00000: Drill Fluid Viscosity
RMF.OHMM               0.07: Mud Filtrate Resistivity
MT  .C                   18: Meas Temperature
                      DRST3: Cartridge Gamma
TAU_GR.S              1.5;3: GR Time Constant
K_GK                   1580: äéùî. èÖêÖïéÑÄ
SPEED.M/H           420;780: Speed M/Hour
                     NGK_60: Probe NGR
USL_ED.IMP/MIN         5500: 1 ìëã.ÖÑ.
OTN_KNL.GR/NGR            9: éíçéòÖçàÖ äÄçÄãéÇ
TAU_NGR.S             1.5;3: NGR Time Constant
SPEED.M/H           420;780: Speed M/Hour
                        K_3: Cartridge BK
                       BK_3: Probe BK
                       USBA: Cartridge DT
                 Sonde 1.4M: Probe DT
                      SKP_1: Cartridge DS
~Curve Information Block
#MNEM.UNIT       API CODE     Curve Description
#---------    -------------   --------------------------------
DEPT.M                    :    1    DEPTH M
BK.OHMM                   :    2    LATEROLOG DEEP
DS.M                      :    3    CALIPER
DT.MCS                    :    4    DELTA TIME INTERVAL TRANSIT TIME MCSEC/M
GR.MCR/H                  :    5    GAMMA RAY MICRO_ROENTGENS PER HOUR
NGR.UE                    :    6    NEUTRON GAMMA RAY
~A DEPT.M       BK           DS           DT           GR           NGR          
# ...
   1086.00       9.15800      0.19600    254.76600      4.73300      2.09100
   1086.20       7.62200      0.19600    201.43300      4.73300      2.06800
   1086.40       6.32900      0.19700    200.93500      5.01900      2.06800
   1086.60       6.36400      0.19800    199.43900      5.41600      2.10600
   1086.80       6.84200      0.19800    194.45500      5.16800      2.21700
   1087.00      27.95500      0.19700    188.97200      5.56500      2.42600
   1087.20      42.70900      0.19800    184.48600      4.67100      2.65700
   1087.40      45.83500      0.19800    189.96900      3.82600      2.78400
   1087.60      47.14800      0.19300    203.42700      2.92900      2.58300
   1087.80      19.63800      0.19500    230.84100      2.51800      2.47800
   1088.00      21.67900      0.19600    265.23400      2.35700      2.32900
   1088.20      27.95500      0.19500    289.39700      2.73400      2.23200
   1088.40      11.97700      0.19600    305.80300      3.02300      2.13500
   1088.60       8.77800      0.19300    299.62600      3.37900      2.04600
   1088.80       8.06500      0.19500    309.59500      4.37300      1.83000
   1089.00       7.40900      0.19600    245.29600      5.84400      1.83700
   1089.20       7.00200      0.19700    226.85400      6.95900      1.83000
   1089.40       6.52500      0.19600    219.87500      7.08800      1.94200
   1089.60       5.74600      0.19600    213.39600      6.88800      1.89700
   1089.80       5.06000      0.19300    206.91600      5.71400      1.88500
   1090.00       9.03000      0.19500    199.93800      4.87000      1.99400
   1090.20      13.06000      0.20000    194.95300      4.17400      2.28000
   1090.40      11.80900      0.19800    188.97200      3.37900      2.21800
   1090.60      11.16100      0.20000    180.49800      2.68300      2.23100
   1090.80      17.53900      0.19600    174.51700      2.24600      2.25500
   1091.00      22.30000      0.19500    170.53000      2.15700      2.27700
   1091.20       7.51500      0.19500    169.31200      2.00100      2.07600
   1091.40       5.58600      0.19600    172.02500      2.00100      1.92700
   1091.60      10.85000      0.19200    176.57400      2.08700      2.03100
   1091.80      20.77900      0.19500    176.57400      2.62300      2.17300
   1092.00      31.30000      0.19500    175.01600      2.64600      2.33700
   1092.20      37.61000      0.19600    173.02200      1.98800      2.48600
   1092.40      18.29900      0.19300    169.46600      1.73900      2.42600
   1092.60      11.48000      0.19500    171.15600      1.44100      2.18000
   1092.80       8.41400      0.19900    174.01900      1.35200      2.11300
   1093.00      10.40000      0.19700    180.00000      1.46400      2.11100
   1093.20      11.31900      0.19600    177.11200      1.48600      2.12000
   1093.40       8.77800      0.19500    177.91800      1.37500      2.07600
   1093.60       7.62200      0.19600    177.91800      1.48600      1.98800
   1093.80       6.61700      0.19600    177.38100      1.46400      1.94700
   1094.00       5.82700      0.19600    181.14600      1.33000      1.90400
   1094.20       5.27900      0.19700    181.95300      1.44100      1.96400
   1094.40       8.29600      0.20000    181.68400      1.30800      2.07600
   1094.60      11.48000      0.19700    180.49800      1.59000      2.21000
   1094.80      13.41100      0.19300    180.00000      1.75200      2.31400
   1095.00       7.51500      0.19300    178.50500      1.75200      2.20200
   1095.20       7.11400      0.19700    177.00900      1.98800      2.09100
   1095.40       9.42000      0.19600    177.00900      2.35200      2.12800
   1095.60      14.59700      0.19800    178.80700      2.44100      2.16100
   1095.80      20.48800      0.19600    172.52300      1.93800      2.22500
   1096.00      19.07800      0.19400    169.58100      1.59000      2.28400
   1096.20      15.88800      0.19200    170.11900      1.37500      2.29200
   1096.40      12.49600      0.19800    171.27700      1.39700      2.24700
   1096.60      11.00400      0.19500    174.77300      1.53000      2.20200
   1096.80      10.54800      0.19600    178.26900      1.68600      2.27700
   1097.00      12.85400      0.19700    182.99100      1.98800      2.16500
   1097.20      13.79500      0.19300    189.47000      2.33500      2.16500
   1097.40       8.20800      0.19600    196.94700      2.75200      2.15800
   1097.60       6.12000      0.19400    215.38900      2.83200      2.21700
   1097.80       7.62200      0.19900    237.32100      3.32900      2.08300
   1098.00       9.28800      0.19900    251.77600      4.02500      2.15000
   1098.20      10.25400      0.19500    244.29900      4.62100      2.20200
   1098.40       9.28800      0.19400    246.29300      5.21700      2.28400
   1098.60       8.65500      0.19700    236.63200      5.81400      2.07600
   1098.80      11.64400      0.19400    240.81000      6.26100      2.00900
   1099.00      15.22900      0.19800    218.38000      6.16100      2.26200
   1099.20      18.04200      0.19600    206.41700      5.76400      2.35200
   1099.40      20.48800      0.19400    199.93800      4.91900      2.42100
   1099.60      10.11000      0.19100    196.94700      4.02500      2.25500
   1099.80       5.58600      0.19300    195.95000      3.47800      2.09800
   1100.00       4.51900      0.19600    202.92800      3.32900      1.81500
   1100.20       4.85000      0.19500    209.40800      3.72700      1.94200
   1100.40       5.43000      0.19500    215.38900      4.17400      1.88900
   1100.60       4.64900      0.19500    218.87900      4.72000      1.80000
   1100.80       4.33200      0.19600    221.37100      4.62100      1.85200
   1101.00       4.78200      0.19100    222.36800      4.62100      1.91900
   1101.20       5.50700      0.19600    222.36800      4.77000      1.87500
   1101.40       4.39300      0.19300    223.10200      4.87000      1.94900
   1101.60       5.43000      0.19500    227.07400      4.96900      2.00900
   1101.80       6.12000      0.19400    231.04600      5.16800      1.82400
   1102.00       6.29300      0.19500    235.01800      5.66500      1.85700
   1102.20       5.82700      0.19700    244.29900      6.36000      1.93500
   1102.40       4.91900      0.19600    262.74100      6.85700      1.92700
   1102.60       4.55500      0.19500    286.16800      7.10600      1.82200
   1102.80       4.95200      0.19200    299.12800      7.45300      1.69600
   1103.00       4.76300      0.19000    288.66000      8.05000      1.59900
   1103.20       4.05200      0.19800    276.69800      8.99400      1.81100
   1103.40       4.33200      0.19900    272.21200     10.13700      1.73300
   1103.60       4.89700      0.19300    269.72000     11.08100      1.74100
   1103.80       4.91900      0.19500    267.22700     10.68300      1.85200
   1104.00       5.13200      0.19700    261.74500     10.03700      1.83000
   1104.20       5.50700      0.20600    251.77600      9.68900      1.85200
   1104.40       4.03600      0.20800    242.30500      9.59000      1.92700
   1104.60       3.26500      0.20000    233.83200      9.09300      1.91200
   1104.80       3.26500      0.19700    225.85700      7.67000      1.95600
   1105.00       4.51900      0.19500    218.38000      6.29800      2.00100
   1105.20       8.53300      0.19500    214.89100      4.42200      2.04600
   1105.40      13.41100      0.19600    217.88200      3.62700      1.97900
   1105.60       8.77800      0.19400    231.83800      3.28000      2.05300
   1105.80       4.81400      0.19700    261.24600      3.82600      1.97100
   1106.00       3.97800      0.19200    292.64800      5.36600      1.87500
   1106.20       3.28700      0.19100    310.59200      7.65200      1.92700
   1106.40       2.91600      0.19500    298.69200     10.63400      2.02400
   1106.60       3.00700      0.19200    297.34800     11.92500      2.12000
