~Version information
VERS.              2.00:   CWLS LOG ASCII STANDARD -VERSION 2.00
WRAP.                NO:   one line per depth step
~Well Information Block
#MNEM.UNIT     DATA         DESCRIPTION OF MNEMONIC
#--------  --------------   ------------------------
STRT.M                 4.40:START DEPTH
STOP.M              1087.60:STOP DEPTH
STEP.M                 0.20:STEP VALUE
NULL.           -9999.00000:NULL VALUE
WELL.                 13416:WELL NAME
FLD .             VYATSKAYA:FIELD NAME
CTRY.                RUSSIA:COUNTRY
DATE.            13.12.1988:DATE
UWI .                 13416:UNIQUE WELL IDENTIFIER
SRVC.         ÄêãÄçëäÄü èÉä:çÄáÇÄçàÖ ëÖêÇàëçéâ äéåèÄçàà Éàë
SRVC_OC.                ààí:çÄáÇÄçàÖ ëÖêÇàëçéâ äéåèÄçàà-éñàîêéÇäÄ
~Parameter Information Block
#MNEM.UNIT       Value     Description of mnemonic
#---------   -----------   ------------------------------------
EKB .M               157.98: Elevation Kelly Bushing
TDL.M                  1087: Total Depth
SCD .M          -9999.00000: Surface Casing Diameter
SCDP.M          -9999.00000: Surface Casing Depth
CD  .M                0.228: Casing Diameter
CDP .M                  412: Casing Depth
BS  .M                0.216: Bit Size
                       CLAY: Drill Fluid Type
DFD .G/CM3        1.07-1.09: Drill Fluid Density
DFV .S                22-24: Drill Fluid Viscosity
RMF.OHMM               0.07: Mud Filtrate Resistivity
MT  .C                   18: Meas Temperature
                      DRST3: Cartridge Gamma
TAU_GR.S              1.5;3: GR Time Constant
K_GK                   1580: äéùî. èÖêÖïéÑÄ
SPEED.M/H               890: Speed M/Hour
                     NGK_60: Probe NGR
USL_ED.IMP/MIN         5500: 1 ìëã.ÖÑ.
OTN_KNL.GR/NGR            9: éíçéòÖçàÖ äÄçÄãéÇ
TAU_NGR.S             1.5;3: NGR Time Constant
SPEED.M/H               890: Speed M/Hour
                        K_3: Cartridge BK
                       BK_3: Probe BK
                       USBA: Cartridge DT
                 Sonde 1.4M: Probe DT
                      SKP_1: Cartridge DS
~Curve Information Block
#MNEM.UNIT       API CODE     Curve Description
#---------    -------------   --------------------------------
DEPT.M                    :    1    DEPTH M
BK.OHMM                   :    2    LATEROLOG DEEP
DS.M                      :    3    CALIPER
DT.MCS                    :    4    DELTA TIME INTERVAL TRANSIT TIME MCSEC/M
GR.MCR/H                  :    5    GAMMA RAY MICRO_ROENTGENS PER HOUR
NGR.UE                    :    6    NEUTRON GAMMA RAY
~A DEPT.M       BK           DS           DT           GR           NGR          
# ...
   711.60        3.95500      0.22000  -9999.00000      2.48400      2.09100
   711.80        6.62800      0.22100  -9999.00000      2.38500      2.11300
   712.00       10.79500      0.22200  -9999.00000      2.33500      2.12800
   712.20       18.88900      0.22100  -9999.00000      2.28600      2.09100
   712.40       32.11700      0.22000  -9999.00000      2.13700      2.06100
   712.60       57.02600      0.21900  -9999.00000      2.13700      1.99400
   712.80      107.17800      0.21800  -9999.00000      2.33500      2.03900
   713.00       63.03400      0.21800  -9999.00000      2.48400      2.09100
   713.20       29.89400      0.21700  -9999.00000      2.78300      2.12800
   713.40       40.40400      0.21600  -9999.00000      3.13000      2.15800
   713.60       54.61700      0.21600  -9999.00000      3.57800      2.18000
   713.80       77.05500      0.21700  -9999.00000      3.87600      2.14300
   714.00       57.83500      0.21800  -9999.00000      4.37300      2.17300
   714.20       38.15100      0.22000  -9999.00000      4.12400      2.22500
   714.40       43.40900      0.22000  -9999.00000      3.97500      2.34200
   714.60       49.39400      0.21700  -9999.00000      3.77600      2.34200
   714.80       56.19900      0.21600  -9999.00000      3.52800      2.32200
   715.00       62.13600      0.21400  -9999.00000      3.18000      2.26800
   715.20       69.69300      0.21600  -9999.00000      2.73300      2.20300
   715.40       54.61000      0.21700  -9999.00000      2.13700      2.15800
   715.60       40.40200      0.21900  -9999.00000      2.08700      2.20200
   715.80       32.58100      0.22100  -9999.00000      2.78300      2.24000
   716.00       38.15100      0.22000  -9999.00000      3.08100      2.26200
   716.20       43.40900      0.21600  -9999.00000      3.37900      2.27700
   716.40       47.99500      0.21600  -9999.00000      3.18000      2.29200
   716.60       51.56500      0.21700  -9999.00000      2.83200      2.30700
   716.80       54.61000      0.21800  -9999.00000      2.43500      2.29200
   717.00       56.19900      0.21900  -9999.00000      2.18600      2.27000
   717.20       58.67100      0.21900  -9999.00000      2.58400      2.24700
   717.40       62.13600      0.22000  -9999.00000      2.98100      2.21700
   717.60       74.87100      0.21900  -9999.00000      3.52800      2.18800
   717.80       57.83500      0.21800  -9999.00000      3.87600      2.15000
   718.00       43.40900      0.21800  -9999.00000      4.62100      2.12800
   718.20       32.58100      0.21700  -9999.00000      3.57800      2.09800
   718.40       26.27300      0.21600  -9999.00000      2.73300      2.02400
   718.60       20.88300      0.21500  -9999.00000      2.98100      2.01600
   718.80       19.16200      0.21400  -9999.00000      3.28000      2.06100
   719.00       23.09100      0.21400  -9999.00000      3.47800      2.18800
   719.20       27.03800      0.21500  -9999.00000      3.57800      2.20200
   719.40       32.11700      0.21500  -9999.00000      3.42900      2.21000
   719.60       37.60900      0.21600  -9999.00000      3.23000      2.21000
   719.80       43.65300      0.21700  -9999.00000      2.98100      2.18800
   720.00       41.21000      0.21800  -9999.00000      2.88200      2.15800
   720.20       32.19900      0.22000  -9999.00000      2.93200      2.12000
   720.40       29.90100      0.22100  -9999.00000      2.98100      2.08300
   720.60       23.76100      0.21900  -9999.00000      3.13000      2.06100
   720.80       18.40500      0.21800  -9999.00000      3.28000      2.05300
   721.00       18.09300      0.21700  -9999.00000      3.32900      2.00900
   721.20       19.16200      0.21700  -9999.00000      3.23000      2.03900
   721.40       21.49200      0.21700  -9999.00000      3.18000      2.09100
   721.60       24.81000      0.21800  -9999.00000      3.13000      2.06100
   721.80       29.89400      0.21800  -9999.00000      3.18000      2.03900
   722.00       18.88900      0.21900  -9999.00000      3.18000      2.01600
   722.20       13.19600      0.22000  -9999.00000      3.57800      1.97100
   722.40        8.95800      0.22000  -9999.00000      3.77600      2.04600
   722.60       12.28400      0.21900  -9999.00000      4.12400      2.09100
   722.80       17.08400      0.21900  -9999.00000      3.87600      2.12000
   723.00       23.76300      0.21900  -9999.00000      3.82600      2.14300
   723.20       38.15100      0.21900  -9999.00000      3.67700      2.15800
   723.40       46.63700      0.21900  -9999.00000      3.23000      2.16500
   723.60       26.27000      0.21800  -9999.00000      3.57800      2.20200
   723.80       16.84100      0.21800  -9999.00000      3.97500      2.24700
   724.00       19.16200      0.21900  -9999.00000      4.42200      2.28400
   724.20       22.43700      0.21900  -9999.00000      4.77000      2.32700
   724.40       25.89900      0.21900  -9999.00000      5.51600      2.30600
   724.60       28.63600      0.21900  -9999.00000      5.21700      2.27000
   724.80       32.11700      0.21900  -9999.00000      3.62700      2.20200
   725.00       35.00400      0.21800  -9999.00000      3.40900      2.13500
   725.20       39.26100      0.21800  -9999.00000      3.24400      2.08300
   725.40       40.98800      0.21700  -9999.00000      3.13500      2.03100
   725.60       33.52800      0.21600  -9999.00000      3.13500      1.97100
   725.80       27.82500      0.21600  -9999.00000      3.18000      1.93400
   726.00       21.80300      0.21700  -9999.00000      3.23000      1.92700
   726.20       15.90200      0.21700  -9999.00000      3.32900      1.94900
   726.40       13.58000      0.21700  -9999.00000      3.47800      2.12000
   726.60       20.29500      0.21700  -9999.00000      3.67700      2.18000
   726.80       24.45400      0.21700  -9999.00000      3.82600      2.32200
   727.00       29.89400      0.21700  -9999.00000      4.02500      2.23200
   727.20       26.65300      0.21800  -9999.00000      4.17400      2.18000
   727.40       26.27300      0.21800  -9999.00000      4.42200      2.15000
   727.60       37.60800      0.21800  -9999.00000      4.17400      2.11300
   727.80       40.40400      0.21700  -9999.00000      3.87600      2.03900
   728.00       23.76300      0.21600  -9999.00000      3.72700      1.95700
   728.20       15.67500      0.21500  -9999.00000      3.57800      1.87500
   728.40        9.90400      0.21500  -9999.00000      3.42900      1.81500
   728.60        6.72300      0.21600  -9999.00000      3.52800      2.01600
   728.80        4.31000      0.21700  -9999.00000      3.72700      2.15000
   729.00        6.44000      0.21800  -9999.00000      4.07500      2.27700
   729.20        9.48700      0.21900  -9999.00000      4.67100      2.41100
   729.40       14.80100      0.22000  -9999.00000      5.66500      2.54500
   729.60       34.01400      0.22000  -9999.00000      6.95700      2.45600
   729.80       33.05200      0.22100  -9999.00000      7.95000      2.40400
   730.00       32.11700      0.22000  -9999.00000      7.35400      2.35100
   730.20       31.20900      0.22000  -9999.00000      6.70800      2.21600
   730.40       36.02300      0.21900  -9999.00000      5.96300      2.17900
   730.60       42.79300      0.21800  -9999.00000      5.31700      2.04700
   730.80       48.68800      0.21500  -9999.00000      4.87000      2.02700
   731.00       37.60700      0.21500  -9999.00000      4.47200      2.02400
   731.20       30.32600      0.21700  -9999.00000      4.22400      1.98600
   731.40       23.76300      0.21800  -9999.00000      3.87600      1.96400
   731.60       18.35400      0.21900  -9999.00000      4.02500      1.94900
   731.80       14.80100      0.21800  -9999.00000      4.17400      1.93400
   732.00       20.58700      0.21600  -9999.00000      4.27300      1.92700
   732.20       27.42800      0.21800  -9999.00000      4.27300      1.90400
