~Version information
VERS.              2.00:   CWLS LOG ASCII STANDARD -VERSION 2.00
WRAP.                NO:   one line per depth step
~Well Information Block
#MNEM.UNIT     DATA         DESCRIPTION OF MNEMONIC
#--------  --------------   ------------------------
STRT.M                 4.40:START DEPTH
STOP.M              1087.60:STOP DEPTH
STEP.M                 0.20:STEP VALUE
NULL.           -9999.00000:NULL VALUE
WELL.                 13416:WELL NAME
FLD .             VYATSKAYA:FIELD NAME
CTRY.                RUSSIA:COUNTRY
DATE.            13.12.1988:DATE
UWI .                 13416:UNIQUE WELL IDENTIFIER
SRVC.         ÄêãÄçëäÄü èÉä:çÄáÇÄçàÖ ëÖêÇàëçéâ äéåèÄçàà Éàë
SRVC_OC.                ààí:çÄáÇÄçàÖ ëÖêÇàëçéâ äéåèÄçàà-éñàîêéÇäÄ
~Parameter Information Block
#MNEM.UNIT       Value     Description of mnemonic
#---------   -----------   ------------------------------------
EKB .M               157.98: Elevation Kelly Bushing
TDL.M                  1087: Total Depth
SCD .M          -9999.00000: Surface Casing Diameter
SCDP.M          -9999.00000: Surface Casing Depth
CD  .M                0.228: Casing Diameter
CDP .M                  412: Casing Depth
BS  .M                0.216: Bit Size
                       CLAY: Drill Fluid Type
DFD .G/CM3        1.07-1.09: Drill Fluid Density
DFV .S                22-24: Drill Fluid Viscosity
RMF.OHMM               0.07: Mud Filtrate Resistivity
MT  .C                   18: Meas Temperature
                      DRST3: Cartridge Gamma
TAU_GR.S              1.5;3: GR Time Constant
K_GK                   1580: äéùî. èÖêÖïéÑÄ
SPEED.M/H               890: Speed M/Hour
                     NGK_60: Probe NGR
USL_ED.IMP/MIN         5500: 1 ìëã.ÖÑ.
OTN_KNL.GR/NGR            9: éíçéòÖçàÖ äÄçÄãéÇ
TAU_NGR.S             1.5;3: NGR Time Constant
SPEED.M/H               890: Speed M/Hour
                        K_3: Cartridge BK
                       BK_3: Probe BK
                       USBA: Cartridge DT
                 Sonde 1.4M: Probe DT
                      SKP_1: Cartridge DS
~Curve Information Block
#MNEM.UNIT       API CODE     Curve Description
#---------    -------------   --------------------------------
DEPT.M                    :    1    DEPTH M
BK.OHMM                   :    2    LATEROLOG DEEP
DS.M                      :    3    CALIPER
DT.MCS                    :    4    DELTA TIME INTERVAL TRANSIT TIME MCSEC/M
GR.MCR/H                  :    5    GAMMA RAY MICRO_ROENTGENS PER HOUR
NGR.UE                    :    6    NEUTRON GAMMA RAY
~A DEPT.M       BK           DS           DT           GR           NGR          
# ...
   482.80       26.65200      0.21300  -9999.00000      6.47300      2.99300
   483.00       20.88400      0.21500  -9999.00000      6.47300      2.79900
   483.20       16.36400      0.21700  -9999.00000      4.83100      2.62700
   483.40       12.28300      0.22000  -9999.00000      4.91900      2.44800
   483.60        8.83000      0.21700  -9999.00000      4.57100      2.31400
   483.80        5.34500      0.21300  -9999.00000      4.22400      2.17300
   484.00        7.32800      0.21400  -9999.00000      4.12400      2.02400
   484.20       10.48900      0.21700  -9999.00000      4.67100      1.87500
   484.40        7.43400      0.21800  -9999.00000      5.16800      1.71100
   484.60        5.26800      0.22000  -9999.00000      4.57100      1.56100
   484.80        3.89800      0.22200  -9999.00000      4.02500      1.33800
   485.00        3.18900      0.22300  -9999.00000      3.57800      1.36000
   485.20        2.46300      0.22000  -9999.00000      3.28000      1.50900
   485.40        3.01100      0.21900  -9999.00000      2.98100      1.62100
   485.60        3.68100      0.21800  -9999.00000      2.93200      1.73300
   485.80        4.56400      0.21800  -9999.00000      3.18000      1.83700
   486.00        5.42200      0.21700  -9999.00000      3.18000      1.91200
   486.20        6.16900      0.21700  -9999.00000      2.93200      1.97100
   486.40        7.01900      0.21600  -9999.00000      2.68300      2.03900
   486.60        7.87300      0.21700  -9999.00000      2.58400      2.07600
   486.80        9.48700      0.21800  -9999.00000      2.43500      2.00100
   487.00        7.76100      0.21900  -9999.00000      2.28600      1.94900
   487.20        6.53300      0.22000  -9999.00000      2.48400      1.94200
   487.40        5.82500      0.22000  -9999.00000      2.63400      1.82200
   487.60        5.19300      0.22000  -9999.00000      2.33500      1.93400
   487.80        4.49900      0.22000  -9999.00000      2.13700      1.98600
   488.00        5.58000      0.22100  -9999.00000      1.98800      2.03100
   488.20        6.53300      0.22200  -9999.00000      1.88800      2.06100
   488.40        7.76100      0.22300  -9999.00000      1.78900      2.09800
   488.60        8.70500      0.22200  -9999.00000      1.78900      2.02400
   488.80       10.48900      0.22100  -9999.00000      1.78900      1.93400
   489.00        8.95800      0.22100  -9999.00000      1.73900      1.84500
   489.20        7.32800      0.22200  -9999.00000      1.68900      1.68100
   489.40        5.50000      0.22300  -9999.00000      1.64000      1.74800
   489.60        3.32900      0.22200  -9999.00000      1.88800      1.85200
   489.80        3.28200      0.22100  -9999.00000      2.08700      1.97900
   490.00        3.42600      0.22100  -9999.00000      1.93800      2.02400
   490.20        4.43500      0.22100  -9999.00000      1.83900      2.07600
   490.40        4.97500      0.22200  -9999.00000      1.64000      2.12000
   490.60        5.33900      0.22400  -9999.00000      1.49100      2.17300
   490.80        5.42400      0.22700  -9999.00000      1.59000      2.21700
   491.00        5.55400      0.22600  -9999.00000      1.59000      2.26200
   491.20        5.73100      0.22400  -9999.00000      1.59000      2.32900
   491.40        5.86800      0.22200  -9999.00000      1.59000      2.38900
   491.60        6.05600      0.22300  -9999.00000      1.59000      2.50200
   491.80        6.05600      0.22300  -9999.00000      1.59000      2.49800
   492.00        6.05600      0.22200  -9999.00000      1.49100      2.45700
   492.20        6.05600      0.22200  -9999.00000      1.44100      2.43700
   492.40        6.05600      0.22100  -9999.00000      1.34200      2.33700
   492.60        6.08100      0.22000  -9999.00000      1.29200      2.23200
   492.80        6.25800      0.21900  -9999.00000      1.24200      2.13500
   493.00        4.76500      0.21800  -9999.00000      1.19300      2.04600
   493.20        3.37700      0.21900  -9999.00000      1.29200      1.94200
   493.40        3.32900      0.22000  -9999.00000      1.44100      1.89700
   493.60        4.43500      0.22200  -9999.00000      1.34200      2.03900
   493.80        5.34500      0.22300  -9999.00000      1.29200      2.07600
   494.00        6.16900      0.22500  -9999.00000      1.44100      1.97100
   494.20        7.01900      0.22600  -9999.00000      1.59000      1.86700
   494.40        7.87300      0.22900  -9999.00000      1.88800      1.75500
   494.60        6.91900      0.22600  -9999.00000      1.78900      1.65800
   494.80        6.44000      0.22300  -9999.00000      1.64000      1.51700
   495.00        5.90900      0.22000  -9999.00000      1.54000      1.48700
   495.20        6.44000      0.22000  -9999.00000      1.44100      1.59100
   495.40        6.72400      0.22000  -9999.00000      1.34200      1.63600
   495.60        7.01900      0.21900  -9999.00000      1.49100      1.68100
   495.80        7.54100      0.21900  -9999.00000      1.64000      1.72500
   496.00        8.21900      0.21800  -9999.00000      1.73900      1.77800
   496.20        8.83000      0.21700  -9999.00000      1.83900      1.83700
   496.40       10.34000      0.21700  -9999.00000      1.68900      1.87500
   496.60        8.58100      0.21600  -9999.00000      2.03700      1.76300
   496.80        6.53300      0.21700  -9999.00000      2.23600      1.67300
   497.00        4.76500      0.21700  -9999.00000      2.38500      1.60600
   497.20        3.52600      0.21800  -9999.00000      2.43500      1.48700
   497.40        2.72300      0.21900  -9999.00000      2.33500      1.46500
   497.60        2.07300      0.22000  -9999.00000      2.18600      1.61400
   497.80        2.19600      0.22100  -9999.00000      1.93800      1.71800
   498.00        2.64600      0.22300  -9999.00000      1.78900      1.82200
   498.20        3.23500      0.22500  -9999.00000      1.64000      1.89700
   498.40        4.24800      0.22800  -9999.00000      1.54000      1.98600
   498.60        5.42200      0.22500  -9999.00000      1.44100      1.93400
   498.80        6.34900      0.22300  -9999.00000      1.44100      1.90400
   499.00        7.65000      0.22200  -9999.00000      1.39100      1.83000
   499.20        7.32800      0.22100  -9999.00000      1.29200      1.89700
   499.40        6.72400      0.22000  -9999.00000      1.29200      2.00900
   499.60        5.90900      0.21900  -9999.00000      1.39100      2.09100
   499.80        5.04700      0.21900  -9999.00000      1.44100      2.09100
   500.00        4.18800      0.22000  -9999.00000      1.44100      2.05300
   500.20        3.47500      0.22000  -9999.00000      1.44100      2.10600
   500.40        2.96800      0.22200  -9999.00000      1.44100      2.17300
   500.60        3.95400      0.22000  -9999.00000      1.39100      2.27700
   500.80        5.11900      0.21900  -9999.00000      1.39100      2.16500
   501.00        6.53300      0.21800  -9999.00000      1.44100      2.13500
   501.20       10.48900      0.21700  -9999.00000      1.44100      2.05300
   501.40       10.34000      0.21600  -9999.00000      1.49100      1.94900
   501.60        7.43400      0.21600  -9999.00000      1.49100      1.79300
   501.80        6.08100      0.21600  -9999.00000      1.54000      1.65800
   502.00        5.34500      0.21700  -9999.00000      1.59000      1.58400
   502.20        4.49900      0.21600  -9999.00000      1.68900      1.42700
   502.40        5.26800      0.21600  -9999.00000      1.88800      1.54700
   502.60        6.08100      0.21500  -9999.00000      1.83900      1.71100
   502.80        7.01900      0.21300  -9999.00000      1.68900      1.86000
   503.00        7.87300      0.21600  -9999.00000      1.78900      1.98600
   503.20        8.58100      0.21800  -9999.00000      1.83900      2.09100
   503.40        9.21900      0.22100  -9999.00000      1.98800      2.15800
