~Version information
VERS.              2.00:   CWLS LOG ASCII STANDARD -VERSION 2.00
WRAP.                NO:   one line per depth step
~Well Information Block
#MNEM.UNIT     DATA         DESCRIPTION OF MNEMONIC
#--------  --------------   ------------------------
STRT.M                 4.40:START DEPTH
STOP.M              1112.80:STOP DEPTH
STEP.M                 0.20:STEP VALUE
NULL.           -9999.00000:NULL VALUE
WELL.                 13419:WELL NAME
FLD .             VYATSKAYA:FIELD NAME
CTRY.                RUSSIA:COUNTRY
DATE.            01.12.1988:DATE
UWI .                 13419:UNIQUE WELL IDENTIFIER
SRVC.         ÄêãÄçëäÄü èÉä:çÄáÇÄçàÖ ëÖêÇàëçéâ äéåèÄçàà Éàë
SRVC_OC.                ààí:çÄáÇÄçàÖ ëÖêÇàëçéâ äéåèÄçàà-éñàîêéÇäÄ
~Parameter Information Block
#MNEM.UNIT       Value     Description of mnemonic
#---------   -----------   ------------------------------------
EKB .M               158.08: Elevation Kelly Bushing
TDL.M                  1114: Total Depth
SCD .M          -9999.00000: Surface Casing Diameter
SCDP.M          -9999.00000: Surface Casing Depth
CD  .M                0.228: Casing Diameter
CDP .M                  412: Casing Depth
BS  .M                0.216: Bit Size
                       CLAY: Drill Fluid Type
DFD .G/CM3      -9999.00000: Drill Fluid Density
DFV .S          -9999.00000: Drill Fluid Viscosity
RMF.OHMM               0.07: Mud Filtrate Resistivity
MT  .C                   18: Meas Temperature
                      DRST3: Cartridge Gamma
TAU_GR.S              1.5;3: GR Time Constant
K_GK                   1580: äéùî. èÖêÖïéÑÄ
SPEED.M/H           420;780: Speed M/Hour
                     NGK_60: Probe NGR
USL_ED.IMP/MIN         5500: 1 ìëã.ÖÑ.
OTN_KNL.GR/NGR            9: éíçéòÖçàÖ äÄçÄãéÇ
TAU_NGR.S             1.5;3: NGR Time Constant
SPEED.M/H           420;780: Speed M/Hour
                        K_3: Cartridge BK
                       BK_3: Probe BK
                       USBA: Cartridge DT
                 Sonde 1.4M: Probe DT
                      SKP_1: Cartridge DS
~Curve Information Block
#MNEM.UNIT       API CODE     Curve Description
#---------    -------------   --------------------------------
DEPT.M                    :    1    DEPTH M
BK.OHMM                   :    2    LATEROLOG DEEP
DS.M                      :    3    CALIPER
DT.MCS                    :    4    DELTA TIME INTERVAL TRANSIT TIME MCSEC/M
GR.MCR/H                  :    5    GAMMA RAY MICRO_ROENTGENS PER HOUR
NGR.UE                    :    6    NEUTRON GAMMA RAY
~A DEPT.M       BK           DS           DT           GR           NGR          
# ...
   670.00        8.69800      0.21800  -9999.00000      4.63700      2.25800
   670.20        8.03400      0.21900  -9999.00000      4.69800      2.22800
   670.40        8.02000      0.22000  -9999.00000      4.69800      2.12900
   670.60        8.29200      0.22000  -9999.00000      4.59100      2.05600
   670.80        8.43200      0.22100  -9999.00000      4.53000      2.05400
   671.00        6.89900      0.21900  -9999.00000      4.42300      2.02500
   671.20        5.96900      0.21900  -9999.00000      4.37700      2.01700
   671.40        5.31600      0.21600  -9999.00000      4.28600      1.94000
   671.60        4.80300      0.21600  -9999.00000      4.22500      1.84200
   671.80        4.34000      0.21800  -9999.00000      4.14800      1.87200
   672.00        3.97900      0.21900  -9999.00000      4.16400      1.91700
   672.20        3.64800      0.21900  -9999.00000      4.22500      2.07600
   672.40        3.34400      0.22000  -9999.00000      4.24000      1.90200
   672.60        3.15600      0.22000  -9999.00000      4.20900      1.80400
   672.80        2.85200      0.22100  -9999.00000      4.08700      1.71300
   673.00        3.06600      0.22000  -9999.00000      4.02600      1.68300
   673.20        3.44300      0.21900  -9999.00000      4.05700      1.79600
   673.40        3.97900      0.21600  -9999.00000      4.07200      1.86400
   673.60        4.87300      0.21700  -9999.00000      3.77400      1.92500
   673.80        6.41700      0.21900  -9999.00000      3.49100      1.97000
   674.00        8.82400      0.21900  -9999.00000      3.49100      2.00100
   674.20       12.13500      0.21900  -9999.00000      3.72300      2.03800
   674.40       15.52300      0.21800  -9999.00000      4.02500      2.07600
   674.60       18.20500      0.21800  -9999.00000      4.37700      2.12200
   674.80       22.62000      0.21800  -9999.00000      4.73000      2.21300
   675.00       21.65900      0.21800  -9999.00000      5.08200      2.15200
   675.20       19.28900      0.21800  -9999.00000      4.73000      2.12200
   675.40       18.73900      0.21700  -9999.00000      4.47800      2.09900
   675.60       23.28600      0.21700  -9999.00000      4.88100      2.07600
   675.80       28.10900      0.21700  -9999.00000      5.13200      2.06100
   676.00       19.57100      0.21700  -9999.00000      5.48400      2.07600
   676.20        9.21600      0.21800  -9999.00000      5.33300      2.09100
   676.40       11.62000      0.21900  -9999.00000      5.13200      2.12200
   676.60       23.29300      0.22000  -9999.00000      4.88100      2.22800
   676.80       50.16700      0.21900  -9999.00000      4.67900      2.15200
   677.00       67.99700      0.21800  -9999.00000      4.47800      2.05400
   677.20       30.66000      0.21800  -9999.00000      4.37700      1.96300
   677.40       17.68400      0.21900  -9999.00000      4.33200      1.89500
   677.60       20.44100      0.21900  -9999.00000      4.31600      1.84200
   677.80       23.62500      0.22000  -9999.00000      4.36200      1.87900
   678.00       25.76900      0.22000  -9999.00000      4.39300      1.93200
   678.20       22.95000      0.22000  -9999.00000      4.48400      2.00800
   678.40       19.28900      0.21700  -9999.00000      4.53000      2.07600
   678.60       11.12800      0.21700  -9999.00000      4.54500      2.15200
   678.80       18.20400      0.21700  -9999.00000      4.54500      2.21300
   679.00       47.34300      0.21700  -9999.00000      4.54500      2.28800
   679.20      149.62000      0.21800  -9999.00000      4.54500      2.28800
   679.40      149.62000      0.21800  -9999.00000      4.53000      2.22800
   679.60       53.15300      0.21900  -9999.00000      4.45400      2.19000
   679.80       35.43800      0.21900  -9999.00000      4.43800      2.15200
   680.00       22.95000      0.21800  -9999.00000      4.42300      2.10700
   680.20       15.74900      0.21700  -9999.00000      4.65200      2.05400
   680.40       11.28800      0.21600  -9999.00000      4.71300      2.00100
   680.60        8.69800      0.21500  -9999.00000      4.71300      1.95500
   680.80        7.74600      0.21500  -9999.00000      4.68300      1.91700
   681.00        7.10100      0.21700  -9999.00000      4.72900      1.87900
   681.20        6.80000      0.21800  -9999.00000      4.77400      1.84200
   681.40        5.16400      0.21900  -9999.00000      5.00400      1.80400
   681.60        3.29600      0.21900  -9999.00000      4.67900      1.76600
   681.80        1.84700      0.21900  -9999.00000      4.47800      1.69800
   682.00        2.93600      0.21900  -9999.00000      4.32700      1.75800
   682.20        4.46800      0.21900  -9999.00000      4.12600      1.80400
   682.40        7.31000      0.21900  -9999.00000      3.82400      1.82600
   682.60       11.79100      0.21800  -9999.00000      3.47200      1.87200
   682.80       19.01200      0.21700  -9999.00000      3.01900      1.88700
   683.00       27.30600      0.21700  -9999.00000      2.61600      1.84200
   683.20       29.78500      0.21600  -9999.00000      2.36500      1.78900
   683.40       33.44400      0.21600  -9999.00000      2.14700      1.71300
   683.60       32.48900      0.21700  -9999.00000      2.08600      1.58400
   683.80       32.96300      0.21900  -9999.00000      2.08600      1.71300
   684.00       33.93100      0.22000  -9999.00000      2.16400      1.81900
   684.20       34.92900      0.21900  -9999.00000      2.31400      1.92500
   684.40       35.95500      0.21800  -9999.00000      2.61600      2.00800
   684.60       37.54800      0.21900  -9999.00000      3.06900      2.07600
   684.80       26.91400      0.22000  -9999.00000      3.62300      2.13700
   685.00       17.43000      0.22000  -9999.00000      4.47800      2.18200
   685.20        8.44900      0.21900  -9999.00000      5.33300      2.14400
   685.40        7.52500      0.21800  -9999.00000      6.66800      2.12900
   685.60       11.45300      0.21800  -9999.00000      6.69900      2.11400
   685.80       14.02700      0.21700  -9999.00000      6.79200      2.09100
   686.00       16.93200      0.21700  -9999.00000      6.89300      2.04600
   686.20       18.46900      0.21600  -9999.00000      4.80500      2.13700
   686.40       21.97500      0.21600  -9999.00000      4.82000      2.32600
   686.60       25.77200      0.21900  -9999.00000      4.83600      2.38700
   686.80       35.95500      0.22000  -9999.00000      4.85100      2.40900
   687.00       27.70500      0.21800  -9999.00000      5.58500      2.45500
   687.20       13.82500      0.21600  -9999.00000      6.13800      2.47000
   687.40       12.67400      0.21500  -9999.00000      6.79200      2.40200
   687.60       24.32300      0.21800  -9999.00000      5.98700      2.31900
   687.80       35.95500      0.21900  -9999.00000      5.18200      2.28100
   688.00       18.73900      0.21900  -9999.00000      4.47800      2.35600
   688.20       12.13500      0.21800  -9999.00000      3.87400      2.43200
   688.40        8.57300      0.21600  -9999.00000      3.32100      2.43200
   688.60        6.32500      0.21500  -9999.00000      2.91800      2.28800
   688.80        5.23900      0.21400  -9999.00000      2.61600      2.23500
   689.00        4.66600      0.21700  -9999.00000      2.41500      2.19000
   689.20        4.21600      0.21900  -9999.00000      2.26400      2.17500
   689.40        4.80300      0.22100  -9999.00000      2.16400      2.22000
   689.60        5.79900      0.21900  -9999.00000      2.11300      2.26600
   689.80        7.85900      0.21800  -9999.00000      2.16300      2.33400
   690.00       10.34800      0.21700  -9999.00000      2.25400      2.40200
   690.20       15.08000      0.21600  -9999.00000      2.42200      2.54600
   690.40       19.28900      0.21600  -9999.00000      2.46500      2.45500
   690.60       22.62200      0.21900  -9999.00000      2.71700      2.36400
