~Version information
VERS.              2.00:   CWLS LOG ASCII STANDARD -VERSION 2.00
WRAP.                NO:   one line per depth step
~Well Information Block
#MNEM.UNIT     DATA         DESCRIPTION OF MNEMONIC
#--------  --------------   ------------------------
STRT.M                 4.40:START DEPTH
STOP.M              1087.60:STOP DEPTH
STEP.M                 0.20:STEP VALUE
NULL.           -9999.00000:NULL VALUE
WELL.                 13416:WELL NAME
FLD .             VYATSKAYA:FIELD NAME
CTRY.                RUSSIA:COUNTRY
DATE.            13.12.1988:DATE
UWI .                 13416:UNIQUE WELL IDENTIFIER
SRVC.         ÄêãÄçëäÄü èÉä:çÄáÇÄçàÖ ëÖêÇàëçéâ äéåèÄçàà Éàë
SRVC_OC.                ààí:çÄáÇÄçàÖ ëÖêÇàëçéâ äéåèÄçàà-éñàîêéÇäÄ
~Parameter Information Block
#MNEM.UNIT       Value     Description of mnemonic
#---------   -----------   ------------------------------------
EKB .M               157.98: Elevation Kelly Bushing
TDL.M                  1087: Total Depth
SCD .M          -9999.00000: Surface Casing Diameter
SCDP.M          -9999.00000: Surface Casing Depth
CD  .M                0.228: Casing Diameter
CDP .M                  412: Casing Depth
BS  .M                0.216: Bit Size
                       CLAY: Drill Fluid Type
DFD .G/CM3        1.07-1.09: Drill Fluid Density
DFV .S                22-24: Drill Fluid Viscosity
RMF.OHMM               0.07: Mud Filtrate Resistivity
MT  .C                   18: Meas Temperature
                      DRST3: Cartridge Gamma
TAU_GR.S              1.5;3: GR Time Constant
K_GK                   1580: äéùî. èÖêÖïéÑÄ
SPEED.M/H               890: Speed M/Hour
                     NGK_60: Probe NGR
USL_ED.IMP/MIN         5500: 1 ìëã.ÖÑ.
OTN_KNL.GR/NGR            9: éíçéòÖçàÖ äÄçÄãéÇ
TAU_NGR.S             1.5;3: NGR Time Constant
SPEED.M/H               890: Speed M/Hour
                        K_3: Cartridge BK
                       BK_3: Probe BK
                       USBA: Cartridge DT
                 Sonde 1.4M: Probe DT
                      SKP_1: Cartridge DS
~Curve Information Block
#MNEM.UNIT       API CODE     Curve Description
#---------    -------------   --------------------------------
DEPT.M                    :    1    DEPTH M
BK.OHMM                   :    2    LATEROLOG DEEP
DS.M                      :    3    CALIPER
DT.MCS                    :    4    DELTA TIME INTERVAL TRANSIT TIME MCSEC/M
GR.MCR/H                  :    5    GAMMA RAY MICRO_ROENTGENS PER HOUR
NGR.UE                    :    6    NEUTRON GAMMA RAY
~A DEPT.M       BK           DS           DT           GR           NGR          
# ...
   586.80        4.06900      0.22100  -9999.00000      3.72700      1.86700
   587.00        5.82500      0.22000  -9999.00000      3.42900      1.94200
   587.20        8.45800      0.22000  -9999.00000      3.08100      2.06100
   587.40       13.19600      0.21900  -9999.00000      2.73300      2.22500
   587.60       20.59100      0.21900  -9999.00000      2.38500      2.44100
   587.80       34.01400      0.21800  -9999.00000      2.08700      2.69400
   588.00       57.01100      0.21900  -9999.00000      1.78900      2.97800
   588.20      101.20100      0.21900  -9999.00000      1.93800      3.26100
   588.40      182.23800      0.22000  -9999.00000      2.13700      3.50700
   588.60      323.60600      0.22100  -9999.00000      1.78900      3.70100
   588.80      701.96400      0.22100  -9999.00000      1.54000      3.91700
   589.00      990.48800      0.22100  -9999.00000      1.24200      3.61100
   589.20      542.20600      0.22100  -9999.00000      1.44100      3.22400
   589.40      296.81000      0.22000  -9999.00000      1.59000      2.76100
   589.60      151.20800      0.22100  -9999.00000      1.64000      2.41900
   589.80       75.95800      0.22100  -9999.00000      1.78900      1.90400
   590.00       36.02300      0.22200  -9999.00000      1.73900      1.68100
   590.20       23.09100      0.22100  -9999.00000      1.68900      1.65800
   590.40       16.84100      0.22000  -9999.00000      1.59000      1.64300
   590.60       15.45200      0.22000  -9999.00000      1.54000      1.65800
   590.80       13.97500      0.21900  -9999.00000      1.49100      1.67300
   591.00       12.46000      0.22000  -9999.00000      1.44100      1.71100
   591.20       10.34000      0.22100  -9999.00000      1.54000      1.77800
   591.40        9.90400      0.22100  -9999.00000      1.64000      1.83000
   591.60       13.58100      0.22000  -9999.00000      1.78900      1.92700
   591.80       17.96000      0.22000  -9999.00000      1.88800      1.99400
   592.00       18.25700      0.22000  -9999.00000      1.98800      1.82200
   592.20       18.25700      0.22000  -9999.00000      2.08700      1.65100
   592.40       17.23600      0.21900  -9999.00000      2.08700      1.74800
   592.60        8.58100      0.21900  -9999.00000      2.13700      1.83700
   592.80        7.82500      0.21900  -9999.00000      2.18600      1.92700
   593.00       14.80100      0.21900  -9999.00000      2.18600      2.02400
   593.20       21.18600      0.21800  -9999.00000      2.18600      2.12800
   593.40       23.09100      0.21700  -9999.00000      2.08700      1.92700
   593.60       13.57900      0.21600  -9999.00000      1.98800      1.80000
   593.80        9.76300      0.21800  -9999.00000      1.93800      1.70300
   594.00        7.65000      0.21900  -9999.00000      1.88800      1.64300
   594.20        5.99500      0.21600  -9999.00000      1.78900      1.59100
   594.40        4.69700      0.21600  -9999.00000      1.88800      1.53900
   594.60        3.28200      0.21800  -9999.00000      1.98800      1.45700
   594.80        2.96800      0.21900  -9999.00000      2.13700      1.42000
   595.00        2.92600      0.22000  -9999.00000      2.38500      1.51700
   595.20        9.62400      0.22000  -9999.00000      2.63400      1.57600
   595.40       15.67500      0.22100  -9999.00000      3.13000      1.62900
   595.60       21.49600      0.22100  -9999.00000      2.78300      1.66600
   595.80       33.05200      0.22100  -9999.00000      2.53400      1.68800
   596.00       37.07200      0.22100  -9999.00000      2.23600      1.70300
   596.20       18.35500      0.22000  -9999.00000      2.28600      1.72500
   596.40       10.95100      0.22000  -9999.00000      2.48400      1.76300
   596.60       13.77800      0.22000  -9999.00000      2.23600      1.80700
   596.80       18.88900      0.22000  -9999.00000      2.08700      1.88200
   597.00       32.58100      0.22000  -9999.00000      1.93800      1.97900
   597.20       55.39900      0.21900  -9999.00000      1.83900      2.09100
   597.40       98.33900      0.21700  -9999.00000      1.78900      2.21700
   597.60      160.14500      0.21900  -9999.00000      1.73900      2.35200
   597.80       98.33900      0.22000  -9999.00000      1.64000      2.49300
   598.00      129.15300      0.22200  -9999.00000      1.54000      2.53800
   598.20      177.08300      0.22100  -9999.00000      1.73900      2.75400
   598.40      268.45100      0.21900  -9999.00000      1.78900      2.72800
   598.60      115.13100      0.22000  -9999.00000      1.88800      2.28400
   598.80       54.61000      0.22200  -9999.00000      1.88800      2.03100
   599.00       29.46800      0.22400  -9999.00000      1.98800      1.83700
   599.20       18.35500      0.22000  -9999.00000      2.03700      1.72500
   599.40       12.46000      0.21900  -9999.00000      2.13700      1.88200
   599.60       10.79600      0.21600  -9999.00000      2.18600      2.00100
   599.80       15.67500      0.21800  -9999.00000      2.33500      2.21700
   600.00       20.88400      0.22000  -9999.00000      2.38500      2.23200
   600.20       28.63500      0.22300  -9999.00000      2.38500      2.24000
   600.40       39.26100      0.22500  -9999.00000      2.43500      2.24700
   600.60       53.83800      0.22700  -9999.00000      2.13700      2.25500
   600.80       72.75800      0.23000  -9999.00000      1.93800      2.20200
   601.00       95.55700      0.23100  -9999.00000      1.73900      2.17300
   601.20       68.70000      0.22800  -9999.00000      1.64000      2.11300
   601.40       54.61000      0.22500  -9999.00000      1.54000      2.11300
   601.60       45.97100      0.22400  -9999.00000      1.59000      2.15000
   601.80       39.26100      0.22400  -9999.00000      1.68900      2.17300
   602.00       32.58100      0.22600  -9999.00000      1.78900      2.16500
   602.20       26.65300      0.22500  -9999.00000      1.93800      2.06800
   602.40       21.49200      0.22400  -9999.00000      2.18600      2.01600
   602.60       15.90100      0.22500  -9999.00000      2.48400      1.95700
   602.80       11.43200      0.22600  -9999.00000      2.78300      1.90400
   603.00        8.83000      0.22800  -9999.00000      3.23000      1.86700
   603.20        5.82500      0.22500  -9999.00000      2.88200      1.92700
   603.40        7.87300      0.22300  -9999.00000      2.68300      1.96400
   603.60       11.11100      0.22100  -9999.00000      2.38500      2.03100
   603.80       18.09300      0.22200  -9999.00000      2.08700      2.05300
   604.00       13.38700      0.22300  -9999.00000      1.83900      1.94900
   604.20       10.04800      0.22200  -9999.00000      1.64000      1.86000
   604.40        7.87300      0.22100  -9999.00000      1.29200      1.83700
   604.60        6.34900      0.22400  -9999.00000      1.39100      1.90400
   604.80        4.76500      0.22500  -9999.00000      1.54000      1.93400
   605.00        6.08100      0.22800  -9999.00000      1.68900      1.97100
   605.20        9.48700      0.22600  -9999.00000      1.73900      2.01600
   605.40       15.01500      0.22400  -9999.00000      1.78900      2.06800
   605.60       30.78000      0.22700  -9999.00000      1.68900      2.14300
   605.80       81.60700      0.22900  -9999.00000      1.64000      2.19500
   606.00       57.01100      0.23100  -9999.00000      1.54000      1.87500
   606.20       42.18100      0.23000  -9999.00000      1.64000      1.86000
   606.40       31.20900      0.22900  -9999.00000      1.68900      1.89700
   606.60       41.58300      0.22600  -9999.00000      1.73900      1.88900
   606.80       50.10600      0.22400  -9999.00000      1.83900      1.88200
   607.00       57.83500      0.22200  -9999.00000      1.88800      1.87500
   607.20       67.72200      0.22500  -9999.00000      1.88800      1.84500
   607.40       75.95800      0.22800  -9999.00000      1.93800      1.89700
