~Version information
VERS.              2.00:   CWLS LOG ASCII STANDARD -VERSION 2.00
WRAP.                NO:   one line per depth step
~Well Information Block
#MNEM.UNIT     DATA         DESCRIPTION OF MNEMONIC
#--------  --------------   ------------------------
STRT.M                 4.40:START DEPTH
STOP.M              1112.80:STOP DEPTH
STEP.M                 0.20:STEP VALUE
NULL.           -9999.00000:NULL VALUE
WELL.                 13419:WELL NAME
FLD .             VYATSKAYA:FIELD NAME
CTRY.                RUSSIA:COUNTRY
DATE.            01.12.1988:DATE
UWI .                 13419:UNIQUE WELL IDENTIFIER
SRVC.         ÄêãÄçëäÄü èÉä:çÄáÇÄçàÖ ëÖêÇàëçéâ äéåèÄçàà Éàë
SRVC_OC.                ààí:çÄáÇÄçàÖ ëÖêÇàëçéâ äéåèÄçàà-éñàîêéÇäÄ
~Parameter Information Block
#MNEM.UNIT       Value     Description of mnemonic
#---------   -----------   ------------------------------------
EKB .M               158.08: Elevation Kelly Bushing
TDL.M                  1114: Total Depth
SCD .M          -9999.00000: Surface Casing Diameter
SCDP.M          -9999.00000: Surface Casing Depth
CD  .M                0.228: Casing Diameter
CDP .M                  412: Casing Depth
BS  .M                0.216: Bit Size
                       CLAY: Drill Fluid Type
DFD .G/CM3      -9999.00000: Drill Fluid Density
DFV .S          -9999.00000: Drill Fluid Viscosity
RMF.OHMM               0.07: Mud Filtrate Resistivity
MT  .C                   18: Meas Temperature
                      DRST3: Cartridge Gamma
TAU_GR.S              1.5;3: GR Time Constant
K_GK                   1580: äéùî. èÖêÖïéÑÄ
SPEED.M/H           420;780: Speed M/Hour
                     NGK_60: Probe NGR
USL_ED.IMP/MIN         5500: 1 ìëã.ÖÑ.
OTN_KNL.GR/NGR            9: éíçéòÖçàÖ äÄçÄãéÇ
TAU_NGR.S             1.5;3: NGR Time Constant
SPEED.M/H           420;780: Speed M/Hour
                        K_3: Cartridge BK
                       BK_3: Probe BK
                       USBA: Cartridge DT
                 Sonde 1.4M: Probe DT
                      SKP_1: Cartridge DS
~Curve Information Block
#MNEM.UNIT       API CODE     Curve Description
#---------    -------------   --------------------------------
DEPT.M                    :    1    DEPTH M
BK.OHMM                   :    2    LATEROLOG DEEP
DS.M                      :    3    CALIPER
DT.MCS                    :    4    DELTA TIME INTERVAL TRANSIT TIME MCSEC/M
GR.MCR/H                  :    5    GAMMA RAY MICRO_ROENTGENS PER HOUR
NGR.UE                    :    6    NEUTRON GAMMA RAY
~A DEPT.M       BK           DS           DT           GR           NGR          
# ...
   545.20       48.73400      0.21600  -9999.00000      3.25700      2.46200
   545.40       40.96000      0.21700  -9999.00000      3.18100      2.33400
   545.60       32.96000      0.21700  -9999.00000      3.12000      2.21300
   545.80       23.62500      0.21800  -9999.00000      2.75200      2.12900
   546.00       15.52300      0.21800  -9999.00000      2.86400      2.05400
   546.20       11.12600      0.21800  -9999.00000      3.05800      1.99600
   546.40        8.95300      0.21800  -9999.00000      3.25200      2.00300
   546.60        7.63500      0.21800  -9999.00000      3.34900      2.00700
   546.80        6.51000      0.21700  -9999.00000      3.53800      2.02600
   547.00        7.41700      0.21700  -9999.00000      3.69700      2.03700
   547.20        8.57300      0.21700  -9999.00000      4.01300      2.06700
   547.40       10.49900      0.21700  -9999.00000      4.17200      2.07600
   547.60       14.23300      0.21800  -9999.00000      4.05700      2.10700
   547.80       20.44000      0.21900  -9999.00000      3.99200      2.14400
   548.00       29.35700      0.21800  -9999.00000      3.95900      2.19000
   548.20       45.99200      0.21700  -9999.00000      3.89300      2.26600
   548.40       62.33800      0.21700  -9999.00000      3.54100      2.33400
   548.60       49.44200      0.21600  -9999.00000      3.52500      2.47000
   548.80       39.79100      0.21600  -9999.00000      3.57100      2.47800
   549.00       32.96300      0.21600  -9999.00000      3.69400      2.31900
   549.20       23.62500      0.21700  -9999.00000      3.87800      2.19000
   549.40       28.93500      0.21700  -9999.00000      3.95400      2.27300
   549.60       41.56400      0.21700  -9999.00000      4.23000      2.38700
   549.80       61.44200      0.21700  -9999.00000      4.73600      2.52300
   550.00      116.19800      0.21600  -9999.00000      4.73600      2.66700
   550.20      216.59200      0.21600  -9999.00000      4.22600      2.81100
   550.40      306.61000      0.21600  -9999.00000      4.06200      2.94700
   550.60      434.11100      0.21600  -9999.00000      4.18400      3.08300
   550.80      660.57700      0.21600  -9999.00000      4.23000      3.14400
   551.00      539.35100      0.21800  -9999.00000      4.41400      3.15100
   551.20      339.32200      0.21800  -9999.00000      4.09700      3.13600
   551.40      329.63500      0.21800  -9999.00000      3.97000      3.03000
   551.60      306.59400      0.21800  -9999.00000      3.42100      2.67400
   551.80      253.99500      0.21800  -9999.00000      2.91800      2.45500
   552.00      182.04100      0.21800  -9999.00000      2.56600      2.41700
   552.20      106.52800      0.21800  -9999.00000      2.51400      2.38700
   552.40       54.72100      0.21800  -9999.00000      2.48400      2.34900
   552.60       27.70200      0.21800  -9999.00000      2.39200      2.01700
   552.80       15.54700      0.21800  -9999.00000      2.37600      2.01700
   553.00       15.29000      0.21800  -9999.00000      2.42200      2.02300
   553.20       15.03700      0.21800  -9999.00000      2.53000      2.04600
   553.40       14.66500      0.21800  -9999.00000      2.54500      2.06900
   553.60        9.48600      0.21800  -9999.00000      2.57600      2.11700
   553.80        7.63500      0.21800  -9999.00000      2.57600      2.09400
   554.00        6.70200      0.21700  -9999.00000      2.62200      2.06700
   554.20       10.49900      0.21700  -9999.00000      2.71300      2.03900
   554.40       23.62500      0.21700  -9999.00000      2.77500      2.05400
   554.60       44.04900      0.21600  -9999.00000      2.93600      2.24300
   554.80       86.97800      0.21600  -9999.00000      3.07400      2.49300
   555.00      207.38300      0.21500  -9999.00000      3.09600      2.75000
   555.20      349.29400      0.21500  -9999.00000      2.76700      3.00800
   555.40      487.35600      0.21600  -9999.00000      2.56600      3.26500
   555.60      710.27200      0.21800  -9999.00000      2.26400      3.51500
   555.80     1005.34400      0.21800  -9999.00000      1.96200      3.74200
   556.00     1304.73900      0.21600  -9999.00000      1.71100      3.94600
   556.20     1693.29400      0.21500  -9999.00000      1.50900      4.11300
   556.40     1820.45200      0.21600  -9999.00000      1.41100      4.26400
   556.60     1464.92100      0.21700  -9999.00000      1.50300      4.40100
   556.80     1196.15500      0.21800  -9999.00000      1.53400      4.52900
   557.00      976.64400      0.21900  -9999.00000      1.53400      4.62000
   557.20     1112.60300      0.21600  -9999.00000      1.50300      4.81700
   557.40     1249.26800      0.21500  -9999.00000      1.44200      4.83200
   557.60     1382.58300      0.21400  -9999.00000      1.27300      4.33200
   557.80     1486.37300      0.21500  -9999.00000      1.21200      3.99200
   558.00     1049.98400      0.21600  -9999.00000      1.15700      3.56800
   558.20      632.49200      0.21600  -9999.00000      1.45900      3.15100
   558.40      596.89500      0.21600  -9999.00000      1.81100      3.32600
   558.60      935.43400      0.21600  -9999.00000      2.82100      3.46900
   558.80     1957.15800      0.21600  -9999.00000      2.82100      3.62800
   559.00    -9999.00000      0.21600  -9999.00000      2.82100      3.78700
   559.20    -9999.00000      0.21900  -9999.00000      2.56600      3.94600
   559.40    -9999.00000      0.21900  -9999.00000      2.36500      4.12100
   559.60    -9999.00000      0.21900  -9999.00000      2.16400      4.37000
   559.80    -9999.00000      0.21800  -9999.00000      1.96200      4.18100
   560.00     1530.05300      0.21600  -9999.00000      1.71100      3.96900
   560.20      720.54200      0.21600  -9999.00000      1.60600      3.65100
   560.40      257.70000      0.21700  -9999.00000      1.72400      3.01500
   560.60      103.46000      0.21800  -9999.00000      1.96000      1.82600
   560.80       19.28900      0.21900  -9999.00000      2.07800      1.82600
   561.00       30.21900      0.21900  -9999.00000      2.31400      1.86400
   561.20       51.64100      0.21800  -9999.00000      2.43200      2.08400
   561.40       57.98400      0.21600  -9999.00000      2.66700      2.43200
   561.60       67.02500      0.21800  -9999.00000      2.51600      2.81800
   561.80       82.08300      0.21800  -9999.00000      2.54500      3.09100
   562.00      162.12700      0.21800  -9999.00000      2.40700      3.34100
   562.20      281.09300      0.21800  -9999.00000      1.94700      3.60600
   562.40      453.31400      0.21700  -9999.00000      1.76400      3.82500
   562.60      670.27700      0.21700  -9999.00000      1.62600      4.06800
   562.80      882.49200      0.21700  -9999.00000      1.56400      4.16600
   563.00     1285.98000      0.21600  -9999.00000      1.48800      3.65100
   563.20     1145.30000      0.21600  -9999.00000      1.45700      3.04500
   563.40     1005.34400      0.21700  -9999.00000      1.36500      2.52300
   563.60      252.52800      0.21800  -9999.00000      1.41100      1.97800
   563.80       32.46800      0.21900  -9999.00000      1.71100      1.50100
   564.00       11.28800      0.21800  -9999.00000      2.06300      1.52400
   564.20        5.55200      0.21600  -9999.00000      2.46500      1.63000
   564.40        7.74600      0.21500  -9999.00000      2.76700      1.73600
   564.60       11.28900      0.21800  -9999.00000      3.06900      1.85700
   564.80       15.52300      0.22000  -9999.00000      3.38800      2.05400
   565.00       20.73800      0.21800  -9999.00000      3.44900      2.25800
   565.20       28.51900      0.21500  -9999.00000      2.91800      2.70500
   565.40       39.79100      0.21300  -9999.00000      2.66700      3.15100
   565.60       56.33600      0.21400  -9999.00000      2.41500      3.16700
   565.80       78.59300      0.21800  -9999.00000      2.21400      3.18900
