~Version information
VERS.              2.00:   CWLS LOG ASCII STANDARD -VERSION 2.00
WRAP.                NO:   one line per depth step
~Well Information Block
#MNEM.UNIT     DATA         DESCRIPTION OF MNEMONIC
#--------  --------------   ------------------------
STRT.M                 4.40:START DEPTH
STOP.M              1087.60:STOP DEPTH
STEP.M                 0.20:STEP VALUE
NULL.           -9999.00000:NULL VALUE
WELL.                 13416:WELL NAME
FLD .             VYATSKAYA:FIELD NAME
CTRY.                RUSSIA:COUNTRY
DATE.            13.12.1988:DATE
UWI .                 13416:UNIQUE WELL IDENTIFIER
SRVC.         ÄêãÄçëäÄü èÉä:çÄáÇÄçàÖ ëÖêÇàëçéâ äéåèÄçàà Éàë
SRVC_OC.                ààí:çÄáÇÄçàÖ ëÖêÇàëçéâ äéåèÄçàà-éñàîêéÇäÄ
~Parameter Information Block
#MNEM.UNIT       Value     Description of mnemonic
#---------   -----------   ------------------------------------
EKB .M               157.98: Elevation Kelly Bushing
TDL.M                  1087: Total Depth
SCD .M          -9999.00000: Surface Casing Diameter
SCDP.M          -9999.00000: Surface Casing Depth
CD  .M                0.228: Casing Diameter
CDP .M                  412: Casing Depth
BS  .M                0.216: Bit Size
                       CLAY: Drill Fluid Type
DFD .G/CM3        1.07-1.09: Drill Fluid Density
DFV .S                22-24: Drill Fluid Viscosity
RMF.OHMM               0.07: Mud Filtrate Resistivity
MT  .C                   18: Meas Temperature
                      DRST3: Cartridge Gamma
TAU_GR.S              1.5;3: GR Time Constant
K_GK                   1580: äéùî. èÖêÖïéÑÄ
SPEED.M/H               890: Speed M/Hour
                     NGK_60: Probe NGR
USL_ED.IMP/MIN         5500: 1 ìëã.ÖÑ.
OTN_KNL.GR/NGR            9: éíçéòÖçàÖ äÄçÄãéÇ
TAU_NGR.S             1.5;3: NGR Time Constant
SPEED.M/H               890: Speed M/Hour
                        K_3: Cartridge BK
                       BK_3: Probe BK
                       USBA: Cartridge DT
                 Sonde 1.4M: Probe DT
                      SKP_1: Cartridge DS
~Curve Information Block
#MNEM.UNIT       API CODE     Curve Description
#---------    -------------   --------------------------------
DEPT.M                    :    1    DEPTH M
BK.OHMM                   :    2    LATEROLOG DEEP
DS.M                      :    3    CALIPER
DT.MCS                    :    4    DELTA TIME INTERVAL TRANSIT TIME MCSEC/M
GR.MCR/H                  :    5    GAMMA RAY MICRO_ROENTGENS PER HOUR
NGR.UE                    :    6    NEUTRON GAMMA RAY
~A DEPT.M       BK           DS           DT           GR           NGR          
# ...
   628.40       12.46000      0.21900  -9999.00000      2.03700      2.05300
   628.60       10.04700      0.21600  -9999.00000      2.18600      2.10600
   628.80        6.91900      0.21400  -9999.00000      2.18600      2.18000
   629.00        6.25800      0.21500  -9999.00000      2.23600      2.25500
   629.20        8.95800      0.21600  -9999.00000      2.28600      2.32900
   629.40       11.10900      0.21700  -9999.00000      2.48400      2.37400
   629.60       13.38800      0.21700  -9999.00000      2.53400      2.44100
   629.80       16.13100      0.21800  -9999.00000      2.28600      2.36600
   630.00       19.07100      0.21900  -9999.00000      2.08700      2.27000
   630.20       11.13500      0.21900  -9999.00000      2.28600      2.20200
   630.40        8.91700      0.21800  -9999.00000      2.23600      2.09800
   630.60        8.14600      0.21600  -9999.00000      2.38500      2.16500
   630.80        7.75400      0.21800  -9999.00000      2.28600      2.24000
   631.00        6.91900      0.21900  -9999.00000      2.18600      2.32200
   631.20        8.83000      0.22000  -9999.00000      2.03700      2.40400
   631.40       11.26900      0.22000  -9999.00000      1.88800      2.49300
   631.60       15.23300      0.22000  -9999.00000      1.73900      2.56000
   631.80       19.16200      0.22000  -9999.00000      1.68900      2.65000
   632.00       27.42800      0.21900  -9999.00000      1.83900      2.67200
   632.20       21.80300      0.21900  -9999.00000      2.08700      2.59000
   632.40       19.16200      0.21800  -9999.00000      2.28600      2.53800
   632.60       17.33100      0.21800  -9999.00000      2.36900      2.52300
   632.80       16.84100      0.21700  -9999.00000      2.23200      2.55300
   633.00       16.60100      0.21700  -9999.00000      1.87600      2.57500
   633.20       16.36400      0.21700  -9999.00000      1.83900      2.60500
   633.40       15.67500      0.21700  -9999.00000      1.78900      2.54500
   633.60       14.59000      0.21700  -9999.00000      1.73900      2.50100
   633.80       13.38700      0.21800  -9999.00000      1.88800      2.44800
   634.00       12.28300      0.21800  -9999.00000      1.98800      2.41100
   634.20       11.26900      0.21800  -9999.00000      2.08700      2.36600
   634.40       10.64100      0.21800  -9999.00000      2.23600      2.32900
   634.60       10.19300      0.21900  -9999.00000      2.38500      2.22500
   634.80       10.19300      0.22000  -9999.00000      2.48400      2.21700
   635.00       10.19300      0.21900  -9999.00000      2.63400      2.21000
   635.20       10.04800      0.21800  -9999.00000      2.78300      2.29200
   635.40        9.48700      0.21700  -9999.00000      2.98100      2.28400
   635.60        8.21900      0.21600  -9999.00000      3.13000      2.14300
   635.80        7.32800      0.21800  -9999.00000      3.28000      2.08300
   636.00        6.72400      0.21800  -9999.00000      3.42900      2.03100
   636.20        5.99500      0.21900  -9999.00000      3.52800      2.01600
   636.40        6.91900      0.21800  -9999.00000      3.62700      1.98600
   636.60        8.21900      0.21700  -9999.00000      3.77600      1.94200
   636.80        9.62400      0.21600  -9999.00000      3.92500      1.87500
   637.00       10.79500      0.21600  -9999.00000      4.07500      1.79300
   637.20       12.82300      0.21700  -9999.00000      4.27300      1.70300
   637.40       13.00800      0.21700  -9999.00000      4.62100      1.62900
   637.60        7.43300      0.21800  -9999.00000      4.22400      1.55400
   637.80        5.58000      0.21700  -9999.00000      3.67700      1.50200
   638.00        4.28200      0.21700  -9999.00000      2.93200      1.43500
   638.20        4.24800      0.21800  -9999.00000      2.98100      1.42000
   638.40        4.06900      0.21800  -9999.00000      3.13000      1.48000
   638.60        2.21800      0.21800  -9999.00000      3.23000      1.50900
   638.80        2.16100      0.21800  -9999.00000      3.32900      1.54700
   639.00        2.35700      0.21800  -9999.00000      3.47800      1.57600
   639.20        2.55000      0.21700  -9999.00000      3.67700      1.59900
   639.40        2.57000      0.21700  -9999.00000      4.02500      1.62100
   639.60        2.78100      0.21800  -9999.00000      3.82600      1.64300
   639.80        2.89300      0.21900  -9999.00000      3.57800      1.65800
   640.00        3.57600      0.21900  -9999.00000      3.32900      1.68100
   640.20        4.24800      0.21900  -9999.00000      3.08100      1.71800
   640.40        5.58000      0.21900  -9999.00000      2.78300      1.78500
   640.60        7.32900      0.21900  -9999.00000      2.98100      1.87500
   640.80        9.21900      0.21800  -9999.00000      3.13000      1.98600
   641.00       12.82300      0.21800  -9999.00000      3.23000      2.06800
   641.20       10.48900      0.21800  -9999.00000      3.37900      2.21500
   641.40        8.95800      0.21700  -9999.00000      3.28000      2.17800
   641.60        7.54100      0.21700  -9999.00000      3.18000      1.96400
   641.80        6.44000      0.21500  -9999.00000      3.28000      1.80700
   642.00        7.65000      0.21600  -9999.00000      3.42900      1.71100
   642.20        8.58100      0.21700  -9999.00000      3.67700      1.83000
   642.40       10.34000      0.21900  -9999.00000      4.17400      1.89700
   642.60        8.33800      0.21800  -9999.00000      3.57300      1.72500
   642.80        7.98700      0.21700  -9999.00000      2.73300      1.56100
   643.00       12.10800      0.21700  -9999.00000      1.88800      1.59900
   643.20       15.45200      0.21600  -9999.00000      1.93800      1.76300
   643.40       18.62000      0.21700  -9999.00000      2.13700      1.89700
   643.60       22.11800      0.21800  -9999.00000      2.38500      2.00900
   643.80       23.42400      0.21900  -9999.00000      2.53400      2.20300
   644.00       20.58700      0.22100  -9999.00000      2.78300      2.17800
   644.20       18.62000      0.21900  -9999.00000      2.68300      2.16200
   644.40       17.33100      0.21900  -9999.00000      2.58400      2.15000
   644.60       16.36400      0.21800  -9999.00000      2.48400      2.19500
   644.80       15.90200      0.21700  -9999.00000      2.43500      2.23200
   645.00       14.80100      0.21700  -9999.00000      2.38500      2.27700
   645.20       12.28300      0.21600  -9999.00000      2.38500      2.17300
   645.40       15.45200      0.21600  -9999.00000      2.38500      2.08300
   645.60       20.59100      0.21700  -9999.00000      2.28600      1.94200
   645.80       33.05200      0.21800  -9999.00000      2.18600      1.79300
   646.00       23.42400      0.21900  -9999.00000      2.13700      1.67300
   646.20       16.13100      0.21800  -9999.00000      2.33500      1.59100
   646.40       11.43200      0.21700  -9999.00000      2.53400      1.48000
   646.60        8.82900      0.21600  -9999.00000      2.73300      1.52400
   646.80        6.09900      0.21500  -9999.00000      2.88200      1.57600
   647.00        5.85300      0.21400  -9999.00000      3.03100      1.63600
   647.20        4.76500      0.21700  -9999.00000      3.18000      1.69600
   647.40        4.63000      0.22000  -9999.00000      3.42900      1.76300
   647.60        6.35000      0.21800  -9999.00000      3.13000      1.82200
   647.80        8.10200      0.21800  -9999.00000      2.93200      1.88900
   648.00       10.48900      0.21800  -9999.00000      2.78300      1.88900
   648.20       13.00800      0.21700  -9999.00000      2.63400      1.90400
   648.40       17.83500      0.21700  -9999.00000      2.48400      1.94200
   648.60       16.13000      0.21600  -9999.00000      2.78300      2.00100
   648.80       13.97500      0.21500  -9999.00000      3.08100      2.07600
   649.00       20.29400      0.21400  -9999.00000      3.32900      2.15800
