~Version information
VERS.              2.00:   CWLS LOG ASCII STANDARD -VERSION 2.00
WRAP.                NO:   one line per depth step
~Well Information Block
#MNEM.UNIT     DATA         DESCRIPTION OF MNEMONIC
#--------  --------------   ------------------------
STRT.M                 4.40:START DEPTH
STOP.M              1112.80:STOP DEPTH
STEP.M                 0.20:STEP VALUE
NULL.           -9999.00000:NULL VALUE
WELL.                 13419:WELL NAME
FLD .             VYATSKAYA:FIELD NAME
CTRY.                RUSSIA:COUNTRY
DATE.            01.12.1988:DATE
UWI .                 13419:UNIQUE WELL IDENTIFIER
SRVC.         ÄêãÄçëäÄü èÉä:çÄáÇÄçàÖ ëÖêÇàëçéâ äéåèÄçàà Éàë
SRVC_OC.                ààí:çÄáÇÄçàÖ ëÖêÇàëçéâ äéåèÄçàà-éñàîêéÇäÄ
~Parameter Information Block
#MNEM.UNIT       Value     Description of mnemonic
#---------   -----------   ------------------------------------
EKB .M               158.08: Elevation Kelly Bushing
TDL.M                  1114: Total Depth
SCD .M          -9999.00000: Surface Casing Diameter
SCDP.M          -9999.00000: Surface Casing Depth
CD  .M                0.228: Casing Diameter
CDP .M                  412: Casing Depth
BS  .M                0.216: Bit Size
                       CLAY: Drill Fluid Type
DFD .G/CM3      -9999.00000: Drill Fluid Density
DFV .S          -9999.00000: Drill Fluid Viscosity
RMF.OHMM               0.07: Mud Filtrate Resistivity
MT  .C                   18: Meas Temperature
                      DRST3: Cartridge Gamma
TAU_GR.S              1.5;3: GR Time Constant
K_GK                   1580: äéùî. èÖêÖïéÑÄ
SPEED.M/H           420;780: Speed M/Hour
                     NGK_60: Probe NGR
USL_ED.IMP/MIN         5500: 1 ìëã.ÖÑ.
OTN_KNL.GR/NGR            9: éíçéòÖçàÖ äÄçÄãéÇ
TAU_NGR.S             1.5;3: NGR Time Constant
SPEED.M/H           420;780: Speed M/Hour
                        K_3: Cartridge BK
                       BK_3: Probe BK
                       USBA: Cartridge DT
                 Sonde 1.4M: Probe DT
                      SKP_1: Cartridge DS
~Curve Information Block
#MNEM.UNIT       API CODE     Curve Description
#---------    -------------   --------------------------------
DEPT.M                    :    1    DEPTH M
BK.OHMM                   :    2    LATEROLOG DEEP
DS.M                      :    3    CALIPER
DT.MCS                    :    4    DELTA TIME INTERVAL TRANSIT TIME MCSEC/M
GR.MCR/H                  :    5    GAMMA RAY MICRO_ROENTGENS PER HOUR
NGR.UE                    :    6    NEUTRON GAMMA RAY
~A DEPT.M       BK           DS           DT           GR           NGR          
# ...
   1044.40      10.85000      0.19900    193.95600      0.89000      2.32900
   1044.60      14.59700      0.19700    186.48000      0.89400      2.48700
   1044.80      17.53900      0.19600    179.50200      1.03600      2.47100
   1045.00       9.55400      0.19800    175.01600      1.14200      2.40300
   1045.20       6.61700      0.19900    172.52300      1.17800      2.27000
   1045.40       4.91900      0.19900    174.01900      1.24400      2.09100
   1045.60       3.86900      0.19700    177.00900      1.28900      1.91900
   1045.80       3.26500      0.19500    182.02200      1.44400      1.77800
   1046.00       2.95800      0.19200    183.66900      1.68700      1.69800
   1046.20       6.52500      0.19600    183.48900      2.06400      1.73300
   1046.40      11.16100      0.19700    183.48900      2.21900      1.91200
   1046.60      16.34300      0.19800    182.99100      2.28500      2.11300
   1046.80      12.67400      0.19900    183.98800      2.46200      2.33700
   1047.00      12.14800      0.19500    184.48600      1.83900      2.52300
   1047.20      16.34300      0.19600    184.98400      1.24200      2.76900
   1047.40      25.68400      0.19500    184.98400      0.74500      3.03000
   1047.60      42.70900      0.19600    183.48900      0.66900      3.26800
   1047.80      29.16600      0.19700    180.99700      0.66900      3.45500
   1048.00      24.17900      0.19600    180.49800      0.62400      3.32800
   1048.20      22.54300      0.19600    180.99700      0.69100      3.21600
   1048.40      24.27300      0.19600    181.99400      0.69100      3.12700
   1048.60      15.01500      0.19600    182.99100      0.62200      3.00700
   1048.80      10.69800      0.19600    184.48600      0.73500      2.84300
   1049.00      13.99100      0.19600    184.98400      0.80100      2.69400
   1049.20      25.68400      0.19500    186.97800      0.71300      2.55300
   1049.40      19.36200      0.19400    189.47000      0.64600      2.43400
   1049.60      14.19000      0.19600    192.46100      0.64600      2.34400
   1049.80      11.31900      0.19500    195.95000      0.64600      2.21300
   1050.00       9.96800      0.19500    200.93500      0.69100      2.30000
   1050.20       8.90300      0.19700    204.42400      0.69100      2.30500
   1050.40       8.35300      0.19400    208.91000      0.70400      2.25500
   1050.60       9.15800      0.19800    215.38900      0.72200      2.20900
   1050.80      11.54000      0.19900    228.34900      0.77900      2.20900
   1051.00      12.27000      0.19800    242.30500      0.80100      2.22600
   1051.20      12.82900      0.19700    257.75700      0.95600      2.28400
   1051.40      22.61700      0.19700    278.69200      1.06700      2.31400
   1051.60       7.51500      0.19700    296.63500      1.17800      2.25500
   1051.80      10.85000      0.19800    236.32400      1.31100      2.13900
   1052.00      21.37500      0.19800    214.89100      1.48800      2.07800
   1052.20      34.06900      0.19900    180.37500      1.66500      2.18000
   1052.40      14.19000      0.19600    179.27700      2.03700      2.30700
   1052.60       6.61700      0.19600    179.82600      1.54000      2.44800
   1052.80      11.80900      0.19600    180.99700      1.24200      2.18800
   1053.00      16.34300      0.19500    182.99100      1.13400      2.26200
   1053.20      18.55900      0.19400    185.48300      0.97900      2.34400
   1053.40      21.37500      0.19500    187.97500      0.95600      2.38900
   1053.60      25.32300      0.19600    190.96600      1.06700      2.38100
   1053.80      31.64500      0.19600    195.45200      1.31100      2.35200
   1054.00      17.53900      0.19600    203.42700      1.44400      2.28400
   1054.20      11.31900      0.19700    214.89100      1.51000      2.17300
   1054.40      13.99100      0.19800    225.85700      1.39900      2.20200
   1054.60      19.36200      0.19800    206.41700      1.21600      2.28400
   1054.80      27.07300      0.20000    186.48000      1.26100      2.39600
   1055.00      16.95200      0.19600    183.48900      1.33300      2.47800
   1055.20      19.68900      0.19500    183.98800      1.24400      2.40400
   1055.40      24.21700      0.19600    176.01200      1.39900      2.35200
   1055.60      12.14800      0.19700    173.02200      1.57600      2.33300
   1055.80      28.35300      0.20000    170.03100      1.70900      2.35900
   1056.00      89.03100      0.19600    171.86400      1.90900      2.50800
   1056.20      87.78200      0.19700    176.62300      2.01900      2.75700
   1056.40      24.96800      0.19900    184.98400      1.86400      2.78400
   1056.60      13.16200      0.19600    196.94700      1.55400      2.58000
   1056.80      11.60500      0.19700    210.40500      1.44100      2.35900
   1057.00       9.69000      0.19800    225.85700      1.64000      2.16500
   1057.20       6.08000      0.19700    251.77600      1.83900      2.00900
   1057.40       4.78200      0.19800    287.16500      2.08700      1.91900
   1057.60       5.20500      0.19900    320.56100      2.53400      1.83700
   1057.80       5.50700      0.19600    339.50200      3.13000      1.77800
   1058.00       5.13200      0.19800    299.12800      3.77600      1.74000
   1058.20       5.82700      0.19600    327.53900      4.32300      1.86000
   1058.40       6.71200      0.19600    288.16200      4.57100      1.71100
   1058.60       8.17900      0.19600    243.80100      4.72000      1.78500
   1058.80       9.55400      0.19700    216.88500      4.59000      1.93400
   1059.00      10.54800      0.19800    193.95600      4.10500      2.08300
   1059.20      11.31900      0.19700    191.46400      2.13700      2.17300
   1059.40       9.42000      0.19800    206.91600      1.44100      2.22500
   1059.60      11.64400      0.19900    222.36800      1.24200      2.27700
   1059.80      17.05100      0.19900    239.94700      1.14300      2.31400
   1060.00      24.27300      0.19800    208.92600      1.19400      2.35900
   1060.20      28.35300      0.19700    219.37700      1.30500      2.46300
   1060.40      15.01500      0.19600    226.85400      1.39400      2.32200
   1060.60      11.31900      0.19900    261.74500      1.52700      2.15000
   1060.80      15.01500      0.19900    337.50800      1.52700      1.97900
   1061.00       6.61700      0.19800    301.62000      1.49100      1.82200
   1061.20       4.15200      0.19900    291.65100      1.57200      1.67300
   1061.40       7.95100      0.19600    302.61700      1.57200      1.80700
   1061.60      13.22200      0.19600    266.72900      1.61600      2.03100
   1061.80      23.93200      0.19600    201.93100      1.66000      2.44100
   1062.00      38.14500      0.19800    186.97800      1.50500      2.83600
   1062.20      27.56300      0.19900    178.00600      1.37200      3.07500
   1062.40      48.49900      0.19600    172.02500      1.42500      3.31400
   1062.60      30.86100      0.19700    177.50800      1.63400      3.24600
   1062.80      18.29900      0.19700    185.98100      1.64000      2.70200
   1063.00      10.54800      0.19700    199.93800      1.73900      2.38900
   1063.20       7.30500      0.19700    214.89100      1.93800      2.12000
   1063.40      10.54800      0.19400    213.39600      1.71000      2.16100
   1063.60       8.53300      0.19600    212.39900      1.16700      2.27700
   1063.80       8.41400      0.19600    228.34900      1.05600      2.25500
   1064.00       8.90300      0.19600    234.82900      1.21100      2.18800
   1064.20       9.82800      0.19600    229.34600      1.36700      2.15000
   1064.40      10.69800      0.19800    230.84100      1.32200      2.25500
   1064.60      11.50000      0.19600    197.44500      1.44100      2.31000
   1064.80      12.32100      0.19500    188.47400      1.29200      2.35100
   1065.00      19.09100      0.19700    183.98800      1.36700      2.40400
