~Version information
VERS.              2.00:   CWLS LOG ASCII STANDARD -VERSION 2.00
WRAP.                NO:   one line per depth step
~Well Information Block
#MNEM.UNIT     DATA         DESCRIPTION OF MNEMONIC
#--------  --------------   ------------------------
STRT.M                 4.40:START DEPTH
STOP.M              1087.60:STOP DEPTH
STEP.M                 0.20:STEP VALUE
NULL.           -9999.00000:NULL VALUE
WELL.                 13416:WELL NAME
FLD .             VYATSKAYA:FIELD NAME
CTRY.                RUSSIA:COUNTRY
DATE.            13.12.1988:DATE
UWI .                 13416:UNIQUE WELL IDENTIFIER
SRVC.         ÄêãÄçëäÄü èÉä:çÄáÇÄçàÖ ëÖêÇàëçéâ äéåèÄçàà Éàë
SRVC_OC.                ààí:çÄáÇÄçàÖ ëÖêÇàëçéâ äéåèÄçàà-éñàîêéÇäÄ
~Parameter Information Block
#MNEM.UNIT       Value     Description of mnemonic
#---------   -----------   ------------------------------------
EKB .M               157.98: Elevation Kelly Bushing
TDL.M                  1087: Total Depth
SCD .M          -9999.00000: Surface Casing Diameter
SCDP.M          -9999.00000: Surface Casing Depth
CD  .M                0.228: Casing Diameter
CDP .M                  412: Casing Depth
BS  .M                0.216: Bit Size
                       CLAY: Drill Fluid Type
DFD .G/CM3        1.07-1.09: Drill Fluid Density
DFV .S                22-24: Drill Fluid Viscosity
RMF.OHMM               0.07: Mud Filtrate Resistivity
MT  .C                   18: Meas Temperature
                      DRST3: Cartridge Gamma
TAU_GR.S              1.5;3: GR Time Constant
K_GK                   1580: äéùî. èÖêÖïéÑÄ
SPEED.M/H               890: Speed M/Hour
                     NGK_60: Probe NGR
USL_ED.IMP/MIN         5500: 1 ìëã.ÖÑ.
OTN_KNL.GR/NGR            9: éíçéòÖçàÖ äÄçÄãéÇ
TAU_NGR.S             1.5;3: NGR Time Constant
SPEED.M/H               890: Speed M/Hour
                        K_3: Cartridge BK
                       BK_3: Probe BK
                       USBA: Cartridge DT
                 Sonde 1.4M: Probe DT
                      SKP_1: Cartridge DS
~Curve Information Block
#MNEM.UNIT       API CODE     Curve Description
#---------    -------------   --------------------------------
DEPT.M                    :    1    DEPTH M
BK.OHMM                   :    2    LATEROLOG DEEP
DS.M                      :    3    CALIPER
DT.MCS                    :    4    DELTA TIME INTERVAL TRANSIT TIME MCSEC/M
GR.MCR/H                  :    5    GAMMA RAY MICRO_ROENTGENS PER HOUR
NGR.UE                    :    6    NEUTRON GAMMA RAY
~A DEPT.M       BK           DS           DT           GR           NGR          
# ...
   836.40       11.59800      0.21800  -9999.00000     10.58400      2.65000
   836.60       11.93500      0.21900  -9999.00000      7.50200      2.50100
   836.80       11.93500      0.22100  -9999.00000      5.41600      2.38900
   837.00        8.33800      0.21900  -9999.00000      4.17400      2.29200
   837.20        7.12100      0.21700  -9999.00000      3.57800      2.21000
   837.40        5.82500      0.21600  -9999.00000      3.18000      2.13500
   837.60        4.76500      0.21400  -9999.00000      2.78300      2.08300
   837.80        4.24800      0.21200  -9999.00000      2.48400      2.00900
   838.00        3.73400      0.21400  -9999.00000      2.28600      2.08300
   838.20        4.06900      0.21600  -9999.00000      2.08700      2.16500
   838.40        4.69700      0.21800  -9999.00000      2.23600      2.24700
   838.60        5.66000      0.21900  -9999.00000      2.33500      2.42000
   838.80        6.91900      0.22100  -9999.00000      2.53400      2.42800
   839.00        8.45800      0.21900  -9999.00000      2.78300      2.42800
   839.20       10.79500      0.21700  -9999.00000      3.13000      2.42800
   839.40       13.58000      0.21400  -9999.00000      3.72700      2.42400
   839.60        6.72300      0.21600  -9999.00000      5.44400      2.26200
   839.80        3.95400      0.21700  -9999.00000      5.28000      2.18800
   840.00        3.37700      0.21900  -9999.00000      5.14300      2.09800
   840.20        3.47500      0.21900  -9999.00000      4.54100      1.91200
   840.40        3.84200      0.21900  -9999.00000      3.92500      1.99400
   840.60        5.50100      0.21800  -9999.00000      3.87600      2.04600
   840.80        7.32800      0.21800  -9999.00000      4.37300      2.16500
   841.00        9.90400      0.21700  -9999.00000      4.77000      2.32200
   841.20       15.45200      0.21700  -9999.00000      4.27300      2.50800
   841.40       17.83500      0.21600  -9999.00000      3.92500      2.65000
   841.60        9.48600      0.21600  -9999.00000      4.47200      2.37400
   841.80        5.82500      0.21700  -9999.00000      4.82000      2.21000
   842.00        3.89800      0.21800  -9999.00000      5.36600      2.09800
   842.20        2.84300      0.21900  -9999.00000      4.87000      2.03100
   842.40        2.13400      0.21900  -9999.00000      4.37300      1.91900
   842.60        2.42800      0.21900  -9999.00000      3.92500      1.96400
   842.80        2.88400      0.21900  -9999.00000      3.52800      2.03100
   843.00        2.64600      0.21900  -9999.00000      3.23000      2.01600
   843.20        2.39300      0.21800  -9999.00000      3.13000      1.98600
   843.40        2.16500      0.21700  -9999.00000      3.03100      1.94200
   843.60        1.79600      0.21800  -9999.00000      2.93200      1.92700
   843.80        1.72100      0.21900  -9999.00000      2.83200      2.09800
   844.00        2.10300      0.21700  -9999.00000      2.73300      2.26200
   844.20        3.95400      0.21600  -9999.00000      2.98100      2.30700
   844.40        5.04700      0.21400  -9999.00000      3.28000      2.38100
   844.60        7.22600      0.21500  -9999.00000      3.62700      2.47100
   844.80       12.28300      0.21600  -9999.00000      4.22400      2.61200
   845.00       18.35500      0.21800  -9999.00000      4.37300      2.73200
   845.20       17.83500      0.22000  -9999.00000      3.57800      2.73900
   845.40       14.38200      0.22200  -9999.00000      3.18000      2.65000
   845.60       11.26800      0.22000  -9999.00000      2.93200      2.57500
   845.80        8.95800      0.21800  -9999.00000      2.53400      2.47100
   846.00        7.32800      0.21600  -9999.00000      2.58400      2.39600
   846.20        5.58000      0.21600  -9999.00000      2.63400      2.34400
   846.40        5.66000      0.21400  -9999.00000      2.78300      2.30700
   846.60        6.82100      0.21500  -9999.00000      2.58400      2.27700
   846.80        7.87300      0.21600  -9999.00000      2.48400      2.24000
   847.00        6.08100      0.21700  -9999.00000      2.33500      2.19500
   847.20        4.76500      0.21900  -9999.00000      2.28600      2.12800
   847.40        3.47500      0.22000  -9999.00000      2.18600      2.03100
   847.60        2.57100      0.21900  -9999.00000      2.08700      1.91200
   847.80        2.07300      0.21800  -9999.00000      1.98800      1.80700
   848.00        1.84900      0.21900  -9999.00000      1.93800      1.72500
   848.20        1.67200      0.21900  -9999.00000      1.93800      1.67300
   848.40        1.44900      0.22000  -9999.00000      1.93800      1.62900
   848.60        1.25500      0.21800  -9999.00000      2.03700      1.59900
   848.80        1.13500      0.21600  -9999.00000      2.08700      1.57600
   849.00        1.05600      0.21400  -9999.00000      2.33500      1.53200
   849.20        1.08700      0.21500  -9999.00000      2.53400      1.56900
   849.40        1.15100      0.21600  -9999.00000      2.88200      1.60600
   849.60        1.25500      0.21700  -9999.00000      2.83200      1.65100
   849.80        1.44900      0.21900  -9999.00000      2.63400      1.69600
   850.00        1.74600      0.21900  -9999.00000      2.48400      1.74800
   850.20        2.01500      0.21900  -9999.00000      2.23600      1.82200
   850.40        2.49900      0.21900  -9999.00000      1.93800      1.91900
   850.60        2.39300      0.21800  -9999.00000      2.33500      2.00900
   850.80        2.29200      0.21800  -9999.00000      2.53400      2.18000
   851.00        2.19600      0.21800  -9999.00000      2.82700      2.12000
   851.20        2.10300      0.21800  -9999.00000      2.82700      2.05300
   851.40        2.04400      0.21800  -9999.00000      2.82700      2.00100
   851.60        1.98600      0.21800  -9999.00000      2.82700      1.94900
   851.80        2.07300      0.21700  -9999.00000      2.82700      1.91200
   852.00        2.16500      0.21700  -9999.00000      2.88200      1.86700
   852.20        2.46300      0.21600  -9999.00000      2.98100      1.82200
   852.40        2.49900      0.21700  -9999.00000      3.13000      1.78500
   852.60        2.16500      0.21800  -9999.00000      3.32900      1.68800
   852.80        2.01500      0.22000  -9999.00000      3.57800      1.75500
   853.00        1.87500      0.22000  -9999.00000      3.67700      1.80700
   853.20        1.74600      0.21800  -9999.00000      3.18000      1.84500
   853.40        1.69600      0.21700  -9999.00000      2.88200      1.87000
   853.60        1.64800      0.21600  -9999.00000      2.68300      1.85800
   853.80        1.64800      0.21800  -9999.00000      2.48400      1.84900
   854.00        1.69200      0.21800  -9999.00000      2.47100      1.82200
   854.20        1.69200      0.21800  -9999.00000      2.55300      1.83000
   854.40        1.44900      0.21900  -9999.00000      2.58100      1.84500
   854.60        1.01200      0.21900  -9999.00000      2.58100      1.86700
   854.80        1.02700      0.21800  -9999.00000      2.55300      1.88900
   855.00        1.15100      0.21700  -9999.00000      2.52600      1.91200
   855.20        1.25500      0.21600  -9999.00000      2.55300      1.94900
   855.40        1.40800      0.21500  -9999.00000      2.60800      2.00100
   855.60        1.55600      0.21400  -9999.00000      2.66300      1.98900
   855.80        1.87500      0.21400  -9999.00000      2.74500      2.00900
   856.00        2.49900      0.21300  -9999.00000      2.85400      2.17800
   856.20        3.62800      0.21400  -9999.00000      2.93600      2.21500
   856.40        5.34500      0.21500  -9999.00000      2.96400      2.21500
   856.60        7.43600      0.21600  -9999.00000      3.23000      2.22500
   856.80       13.58000      0.21700  -9999.00000      3.87600      2.18000
   857.00       16.13100      0.21800  -9999.00000      3.82600      2.15800
