~Version information
VERS.              2.00:   CWLS LOG ASCII STANDARD -VERSION 2.00
WRAP.                NO:   one line per depth step
~Well Information Block
#MNEM.UNIT     DATA         DESCRIPTION OF MNEMONIC
#--------  --------------   ------------------------
STRT.M                 4.40:START DEPTH
STOP.M              1087.60:STOP DEPTH
STEP.M                 0.20:STEP VALUE
NULL.           -9999.00000:NULL VALUE
WELL.                 13416:WELL NAME
FLD .             VYATSKAYA:FIELD NAME
CTRY.                RUSSIA:COUNTRY
DATE.            13.12.1988:DATE
UWI .                 13416:UNIQUE WELL IDENTIFIER
SRVC.         ÄêãÄçëäÄü èÉä:çÄáÇÄçàÖ ëÖêÇàëçéâ äéåèÄçàà Éàë
SRVC_OC.                ààí:çÄáÇÄçàÖ ëÖêÇàëçéâ äéåèÄçàà-éñàîêéÇäÄ
~Parameter Information Block
#MNEM.UNIT       Value     Description of mnemonic
#---------   -----------   ------------------------------------
EKB .M               157.98: Elevation Kelly Bushing
TDL.M                  1087: Total Depth
SCD .M          -9999.00000: Surface Casing Diameter
SCDP.M          -9999.00000: Surface Casing Depth
CD  .M                0.228: Casing Diameter
CDP .M                  412: Casing Depth
BS  .M                0.216: Bit Size
                       CLAY: Drill Fluid Type
DFD .G/CM3        1.07-1.09: Drill Fluid Density
DFV .S                22-24: Drill Fluid Viscosity
RMF.OHMM               0.07: Mud Filtrate Resistivity
MT  .C                   18: Meas Temperature
                      DRST3: Cartridge Gamma
TAU_GR.S              1.5;3: GR Time Constant
K_GK                   1580: äéùî. èÖêÖïéÑÄ
SPEED.M/H               890: Speed M/Hour
                     NGK_60: Probe NGR
USL_ED.IMP/MIN         5500: 1 ìëã.ÖÑ.
OTN_KNL.GR/NGR            9: éíçéòÖçàÖ äÄçÄãéÇ
TAU_NGR.S             1.5;3: NGR Time Constant
SPEED.M/H               890: Speed M/Hour
                        K_3: Cartridge BK
                       BK_3: Probe BK
                       USBA: Cartridge DT
                 Sonde 1.4M: Probe DT
                      SKP_1: Cartridge DS
~Curve Information Block
#MNEM.UNIT       API CODE     Curve Description
#---------    -------------   --------------------------------
DEPT.M                    :    1    DEPTH M
BK.OHMM                   :    2    LATEROLOG DEEP
DS.M                      :    3    CALIPER
DT.MCS                    :    4    DELTA TIME INTERVAL TRANSIT TIME MCSEC/M
GR.MCR/H                  :    5    GAMMA RAY MICRO_ROENTGENS PER HOUR
NGR.UE                    :    6    NEUTRON GAMMA RAY
~A DEPT.M       BK           DS           DT           GR           NGR          
# ...
   982.00        2.36800      0.21900    218.51900      1.81700      1.92200
   982.20        2.47200      0.21900    219.01200      1.86800      1.90600
   982.40        2.81300      0.22000    219.50600      1.81700      1.88400
   982.60        3.24600      0.21800    220.00000      1.81700      1.83800
   982.80        4.08400      0.21900    221.48100      2.08300      1.77000
   983.00        4.85100      0.21900    223.45700      2.58500      1.73200
   983.20        6.10300      0.21900    224.93800      3.23000      1.69400
   983.40        7.04500      0.21900    225.92600      3.48300      1.63300
   983.60        5.76300      0.21900    225.43200      2.62500      1.65600
   983.80        4.20300      0.21600    224.93800      2.17000      1.74700
   984.00        2.77200      0.21800    224.44400      2.01900      1.84600
   984.20        2.63400      0.21900    223.95100      1.91800      1.93700
   984.40        2.61800      0.21700    225.43200      1.81700      2.01300
   984.60        2.93600      0.21900    225.92600      1.71600      2.07300
   984.80        2.73300      0.22000    226.91400      1.71600      2.02000
   985.00        2.85300      0.22000    227.90100      1.71600      1.95200
   985.20        3.34100      0.21900    227.40700      1.61500      1.85300
   985.40        3.85600      0.21700    225.43200      1.51400      1.90600
   985.60        4.92100      0.21700    223.45700      1.61500      1.89900
   985.80        6.28100      0.22000    220.00000      1.91800      2.05800
   986.00        5.44100      0.22000    217.03700      2.32200      2.00500
   986.20        4.26400      0.21900    217.53100      2.62500      1.88400
   986.40        3.69400      0.21900    218.02500      2.72600      1.84600
   986.60        4.38800      0.21900    219.50600      2.27100      1.74700
   986.80        5.68100      0.21900    220.49400      1.91800      1.64100
   987.00        6.94400      0.21900    221.48100      1.71600      1.70900
   987.20        7.67800      0.21800    217.53100      1.81700      1.83000
   987.40        9.38600      0.21800    215.06200      2.01900      2.02800
   987.60       12.32700      0.21800    217.03700      2.47300      2.22500
   987.80        8.36800      0.21700    221.48100      3.18000      2.05800
   988.00        3.20000      0.21700    229.38300      4.13900      1.53400
   988.20        1.90900      0.21900    238.27200      5.30000      1.61800
   988.40        1.54000      0.21900    244.19800      4.44200      1.59500
   988.60        1.63100      0.22000    235.30900      3.18000      1.55700
   988.80        1.88200      0.21900    226.91400      2.17000      1.58000
   989.00        2.47200      0.21600    220.00000      1.81700      1.64100
   989.20        2.77200      0.22000    216.54300      1.61500      1.67800
   989.40        2.26800      0.22000    225.92600      1.56500      1.48900
   989.60        1.72700      0.22000    233.33300      1.56500      1.38200
   989.80        1.25900      0.21900    239.75300      1.86800      1.49600
   990.00        1.07600      0.21600    234.32100      2.37200      1.61000
   990.20        1.82900      0.21300    226.91400      2.77600      1.72400
   990.40        3.11000      0.21400    219.01200      3.07900      1.87600
   990.60        5.06500      0.21700    214.07400      3.07900      2.00500
   990.80        7.67800      0.21900    215.55600      2.32200      1.94400
   991.00       10.22900      0.22100    218.51900      2.01900      1.89100
   991.20       11.63900      0.21800    221.48100      1.86800      2.00500
   991.40        9.25200      0.21700    223.95100      1.71600      1.89100
   991.60        7.90100      0.21600    225.43200      1.91800      1.82300
   991.80        6.94400      0.21900    223.45700      1.96800      1.95900
   992.00        6.55700      0.21600    220.00000      2.06900      2.05800
   992.20        6.19100      0.21700    217.03700      1.96800      2.08100
   992.40        5.28700      0.21700    214.07400      1.91800      2.08100
   992.60        4.20300      0.21700    212.09900      1.81700      1.99000
   992.80        3.74700      0.21900    210.61700      1.76700      2.05100
   993.00        3.82500      0.21700    206.66700      2.01900      2.16500
   993.20        5.36400      0.21600    202.22200      2.27100      2.37700
   993.40        9.52100      0.21700    197.77800      2.17000      2.53700
   993.60       16.42300      0.21800    195.30900      2.06900      2.71900
   993.80       11.14900      0.21900    198.76500      1.61500      2.51400
   994.00        5.84600      0.21900    201.72800      1.16100      2.17200
   994.20        5.13800      0.21800    206.66700      1.26200      1.92900
   994.40        5.52000      0.21700    209.63000      1.36300      1.98200
   994.60        6.65200      0.21700    211.60500      1.56500      2.04300
   994.80        7.25000      0.21700    212.09900      1.31200      2.08900
   995.00        6.84500      0.21800    210.61700      1.11000      2.14200
   995.20        8.73600      0.21900    208.64200      0.80800      2.20300
   995.40       11.63900      0.22000    207.65400      0.65600      2.25600
   995.60       15.73100      0.22100    207.16000      0.80800      2.32400
   995.80       19.50900      0.22000    205.67900      0.80800      2.37000
   996.00       13.82600      0.21900    208.64200      0.85800      2.43800
   996.20       10.52700      0.21800    208.14800      0.85800      2.56700
   996.40        9.12000      0.21600    209.63000      0.85800      2.42300
   996.60        7.78900      0.21300    211.60500      0.95900      2.55200
   996.80        7.90100      0.21600    213.08600      0.89400      2.24100
   997.00        6.06900      0.21800    212.59300      1.36300      2.11100
   997.20        5.54200      0.22000    210.61700      1.61500      2.21800
   997.40        5.44100      0.22200    208.14800      1.26200      2.23300
   997.60        7.04500      0.22000    206.17300      0.95900      2.21000
   997.80        9.12000      0.21800    203.21000      0.70700      2.21800
   998.00       11.63900      0.22000    199.75300      0.85800      2.37000
   998.20       15.50700      0.22400    196.29600      0.85800      2.49900
   998.40       19.23100      0.21900    192.84000      0.80800      2.65800
   998.60       21.26200      0.21700    190.37000      0.85800      2.76500
   998.80        9.25200      0.21800    187.40700      1.00900      2.40800
   999.00        6.10300      0.21900    189.38300      1.21100      2.18700
   999.20        4.02600      0.22000    190.86400      1.31200      1.98200
   999.40        2.77200      0.22200    191.85200      1.41300      1.88400
   999.60        2.89400      0.21800    193.82700      1.51400      1.84600
   999.80        3.29300      0.21700    192.84000      1.51400      1.77700
   1000.00       3.29300      0.21800    189.38300      1.61500      1.70100
   1000.20       3.29300      0.22000    191.35800      1.71600      1.76200
   1000.40       2.73300      0.22000    194.32100      1.96800      1.83800
   1000.60       2.43700      0.21700    197.28400      2.31600      1.73200
   1000.80       2.43700      0.21900    200.74100      2.40000      1.69400
   1001.00       2.47200      0.21700    203.70400      2.42300      1.67800
   1001.20       2.40200      0.21700    199.75300      2.42300      1.67800
   1001.40       2.43700      0.21900    204.69100      2.42300      1.66300
   1001.60       2.03000      0.21800    210.12300      2.47300      1.61000
   1001.80       1.77400      0.21900    219.01200      2.42300      1.54200
   1002.00       1.45500      0.21900    226.91400      2.32200      1.46600
   1002.20       0.93200      0.21900    231.35800      2.01900      1.51900
   1002.40       1.04500      0.21800    226.91400      1.81700      1.55700
   1002.60       1.31500      0.22100    220.00000      1.71600      1.64100
