~Version information
VERS.              2.00:   CWLS LOG ASCII STANDARD -VERSION 2.00
WRAP.                NO:   one line per depth step
~Well Information Block
#MNEM.UNIT     DATA         DESCRIPTION OF MNEMONIC
#--------  --------------   ------------------------
STRT.M                 4.40:START DEPTH
STOP.M              1112.80:STOP DEPTH
STEP.M                 0.20:STEP VALUE
NULL.           -9999.00000:NULL VALUE
WELL.                 13419:WELL NAME
FLD .             VYATSKAYA:FIELD NAME
CTRY.                RUSSIA:COUNTRY
DATE.            01.12.1988:DATE
UWI .                 13419:UNIQUE WELL IDENTIFIER
SRVC.         ÄêãÄçëäÄü èÉä:çÄáÇÄçàÖ ëÖêÇàëçéâ äéåèÄçàà Éàë
SRVC_OC.                ààí:çÄáÇÄçàÖ ëÖêÇàëçéâ äéåèÄçàà-éñàîêéÇäÄ
~Parameter Information Block
#MNEM.UNIT       Value     Description of mnemonic
#---------   -----------   ------------------------------------
EKB .M               158.08: Elevation Kelly Bushing
TDL.M                  1114: Total Depth
SCD .M          -9999.00000: Surface Casing Diameter
SCDP.M          -9999.00000: Surface Casing Depth
CD  .M                0.228: Casing Diameter
CDP .M                  412: Casing Depth
BS  .M                0.216: Bit Size
                       CLAY: Drill Fluid Type
DFD .G/CM3      -9999.00000: Drill Fluid Density
DFV .S          -9999.00000: Drill Fluid Viscosity
RMF.OHMM               0.07: Mud Filtrate Resistivity
MT  .C                   18: Meas Temperature
                      DRST3: Cartridge Gamma
TAU_GR.S              1.5;3: GR Time Constant
K_GK                   1580: äéùî. èÖêÖïéÑÄ
SPEED.M/H           420;780: Speed M/Hour
                     NGK_60: Probe NGR
USL_ED.IMP/MIN         5500: 1 ìëã.ÖÑ.
OTN_KNL.GR/NGR            9: éíçéòÖçàÖ äÄçÄãéÇ
TAU_NGR.S             1.5;3: NGR Time Constant
SPEED.M/H           420;780: Speed M/Hour
                        K_3: Cartridge BK
                       BK_3: Probe BK
                       USBA: Cartridge DT
                 Sonde 1.4M: Probe DT
                      SKP_1: Cartridge DS
~Curve Information Block
#MNEM.UNIT       API CODE     Curve Description
#---------    -------------   --------------------------------
DEPT.M                    :    1    DEPTH M
BK.OHMM                   :    2    LATEROLOG DEEP
DS.M                      :    3    CALIPER
DT.MCS                    :    4    DELTA TIME INTERVAL TRANSIT TIME MCSEC/M
GR.MCR/H                  :    5    GAMMA RAY MICRO_ROENTGENS PER HOUR
NGR.UE                    :    6    NEUTRON GAMMA RAY
~A DEPT.M       BK           DS           DT           GR           NGR          
# ...
   628.40        3.81000      0.21900  -9999.00000      2.96900      1.67500
   628.60        4.46800      0.22000  -9999.00000      3.01900      1.72800
   628.80        5.63300      0.21900  -9999.00000      3.36900      1.79600
   629.00        7.41700      0.21800  -9999.00000      3.36900      1.84900
   629.20       10.05300      0.21600  -9999.00000      3.17000      1.90200
   629.40       13.04700      0.21600  -9999.00000      3.01900      1.96300
   629.60       15.98000      0.21600  -9999.00000      3.12500      2.03100
   629.80       19.01200      0.21600  -9999.00000      3.14000      2.11400
   630.00       21.65900      0.21500  -9999.00000      3.21700      2.21300
   630.20       25.76900      0.21400  -9999.00000      3.27800      2.34100
   630.40       28.10900      0.21400  -9999.00000      3.32300      2.46200
   630.60       21.65800      0.21400  -9999.00000      2.91800      2.56800
   630.80       19.01200      0.21400  -9999.00000      2.61600      2.72700
   631.00       17.17900      0.21500  -9999.00000      2.31400      2.67400
   631.20       15.52300      0.21500  -9999.00000      2.01300      2.59100
   631.40       18.46900      0.21600  -9999.00000      1.85700      2.51500
   631.60       20.74000      0.21700  -9999.00000      1.82700      2.45500
   631.80       25.76900      0.21800  -9999.00000      1.79600      2.37200
   632.00       20.73800      0.21700  -9999.00000      1.84200      2.46200
   632.20       16.21200      0.21600  -9999.00000      1.90300      2.53800
   632.40       13.43000      0.21500  -9999.00000      1.96400      2.61400
   632.60       11.45200      0.21800  -9999.00000      1.99500      2.68200
   632.80        9.90800      0.21900  -9999.00000      2.05600      2.76500
   633.00       14.23100      0.21800  -9999.00000      2.14700      2.81800
   633.20       19.01200      0.21700  -9999.00000      2.33100      2.69000
   633.40       24.67400      0.21500  -9999.00000      2.51400      2.53100
   633.60       16.21000      0.21500  -9999.00000      2.60600      2.36400
   633.80       10.80800      0.21400  -9999.00000      2.78900      2.22800
   634.00        6.89900      0.21500  -9999.00000      2.66700      2.12200
   634.20        4.66600      0.21600  -9999.00000      2.51600      2.00800
   634.40        3.54400      0.21700  -9999.00000      2.36500      2.01000
   634.60        3.57800      0.21800  -9999.00000      2.16400      2.01300
   634.80        3.76200      0.21800  -9999.00000      2.06300      2.01500
   635.00        3.76200      0.21900  -9999.00000      2.03500      2.03800
   635.20        3.76200      0.22000  -9999.00000      2.14700      2.06900
   635.40        4.21600      0.22100  -9999.00000      2.20300      2.09100
   635.60        5.24000      0.22000  -9999.00000      2.31500      2.10700
   635.80        7.85900      0.22000  -9999.00000      2.37100      2.20500
   636.00        9.62600      0.21900  -9999.00000      2.48300      2.06900
   636.20       17.17900      0.21900  -9999.00000      2.36500      1.98500
   636.40       19.01200      0.21800  -9999.00000      2.21400      1.91700
   636.60        2.43200      0.21600  -9999.00000      2.06300      1.87200
   636.80        2.45900      0.21500  -9999.00000      1.99500      1.84200
   637.00        2.60700      0.21500  -9999.00000      1.88800      1.83200
   637.20        2.67300      0.21800  -9999.00000      1.82700      1.85700
   637.40        3.02200      0.21900  -9999.00000      1.78100      1.91700
   637.60        3.49300      0.21900  -9999.00000      1.76600      2.03800
   637.80        3.92200      0.22000  -9999.00000      1.78100      2.09900
   638.00        4.27800      0.22000  -9999.00000      1.79600      2.12900
   638.20        4.66600      0.22100  -9999.00000      1.91800      2.14400
   638.40        5.47200      0.22100  -9999.00000      2.16300      2.16700
   638.60        6.51000      0.22000  -9999.00000      2.23900      2.22800
   638.80        7.52500      0.21900  -9999.00000      2.34600      2.19700
   639.00        8.32800      0.21900  -9999.00000      2.39200      2.14400
   639.20        9.76600      0.21800  -9999.00000      2.46800      2.11600
   639.40        9.76600      0.21800  -9999.00000      2.48300      2.11600
   639.60        5.96800      0.21600  -9999.00000      2.52900      2.11500
   639.80        3.97900      0.21700  -9999.00000      2.56600      2.11500
   640.00        5.47200      0.21900  -9999.00000      2.71700      2.11400
   640.20        6.99900      0.22000  -9999.00000      2.91800      2.13700
   640.40        7.74600      0.22200  -9999.00000      3.06900      2.16700
   640.60        7.41700      0.22100  -9999.00000      3.27000      2.22000
   640.80        7.74600      0.21900  -9999.00000      3.37100      2.12200
   641.00        8.69800      0.21600  -9999.00000      3.66000      2.03100
   641.20       10.20000      0.21500  -9999.00000      3.64400      1.97000
   641.40       12.85900      0.21400  -9999.00000      3.23200      1.87900
   641.60       16.21500      0.21300  -9999.00000      3.23200      1.94000
   641.80       25.39900      0.21200  -9999.00000      3.37100      2.02300
   642.00       13.04700      0.21300  -9999.00000      3.62300      1.94000
   642.20        6.70200      0.21400  -9999.00000      4.07500      1.86400
   642.40        4.53300      0.21500  -9999.00000      4.42800      1.80400
   642.60        3.49300      0.21500  -9999.00000      4.78000      1.73600
   642.80        3.06600      0.21500  -9999.00000      5.15600      1.69800
   643.00        2.69100      0.21600  -9999.00000      5.20200      1.64500
   643.20        2.85200      0.21800  -9999.00000      5.30900      1.66800
   643.40        3.06600      0.22000  -9999.00000      5.38500      1.70500
   643.60        3.34400      0.22000  -9999.00000      5.33300      1.62900
   643.80        3.70100      0.21900  -9999.00000      5.13200      1.62900
   644.00        3.92200      0.21800  -9999.00000      4.94200      1.70500
   644.20        4.46800      0.21800  -9999.00000      5.04900      1.81100
   644.40        4.53300      0.21700  -9999.00000      5.08000      1.84900
   644.60        3.29600      0.21700  -9999.00000      4.88100      1.54600
   644.80        2.77000      0.21700  -9999.00000      4.73000      1.56900
   645.00        2.50300      0.21600  -9999.00000      4.57900      1.61500
   645.20        2.32800      0.21600  -9999.00000      4.32700      1.66800
   645.40        2.19700      0.21600  -9999.00000      4.24000      1.71300
   645.60        2.10400      0.21700  -9999.00000      4.19400      1.77400
   645.80        2.06400      0.21700  -9999.00000      4.20900      1.81900
   646.00        2.29500      0.21800  -9999.00000      4.57900      1.84200
   646.20        3.20200      0.21800  -9999.00000      4.47800      1.85700
   646.40        5.01700      0.21800  -9999.00000      4.37700      1.75100
   646.60        3.02200      0.21800  -9999.00000      4.34700      1.69000
   646.80        1.79100      0.21900  -9999.00000      4.36200      1.54600
   647.00        1.79100      0.21800  -9999.00000      4.39300      1.64500
   647.20        1.98600      0.21700  -9999.00000      4.42800      1.72800
   647.40        2.16600      0.21700  -9999.00000      4.52800      1.79600
   647.60        2.32800      0.21700  -9999.00000      4.22600      1.72100
   647.80        2.19700      0.21700  -9999.00000      4.02500      1.67500
   648.00        2.16600      0.21700  -9999.00000      3.95000      1.64500
   648.20        2.36200      0.21700  -9999.00000      3.81200      1.61500
   648.40        2.04400      0.21800  -9999.00000      3.78200      1.57700
   648.60        1.79400      0.21800  -9999.00000      3.78200      1.52400
   648.80        1.59800      0.21800  -9999.00000      3.76600      1.47100
   649.00        1.48600      0.21800  -9999.00000      3.70500      1.43300
