~Version information
VERS.              2.00:   CWLS LOG ASCII STANDARD -VERSION 2.00
WRAP.                NO:   one line per depth step
~Well Information Block
#MNEM.UNIT     DATA         DESCRIPTION OF MNEMONIC
#--------  --------------   ------------------------
STRT.M                 4.40:START DEPTH
STOP.M              1112.80:STOP DEPTH
STEP.M                 0.20:STEP VALUE
NULL.           -9999.00000:NULL VALUE
WELL.                 13419:WELL NAME
FLD .             VYATSKAYA:FIELD NAME
CTRY.                RUSSIA:COUNTRY
DATE.            01.12.1988:DATE
UWI .                 13419:UNIQUE WELL IDENTIFIER
SRVC.         ÄêãÄçëäÄü èÉä:çÄáÇÄçàÖ ëÖêÇàëçéâ äéåèÄçàà Éàë
SRVC_OC.                ààí:çÄáÇÄçàÖ ëÖêÇàëçéâ äéåèÄçàà-éñàîêéÇäÄ
~Parameter Information Block
#MNEM.UNIT       Value     Description of mnemonic
#---------   -----------   ------------------------------------
EKB .M               158.08: Elevation Kelly Bushing
TDL.M                  1114: Total Depth
SCD .M          -9999.00000: Surface Casing Diameter
SCDP.M          -9999.00000: Surface Casing Depth
CD  .M                0.228: Casing Diameter
CDP .M                  412: Casing Depth
BS  .M                0.216: Bit Size
                       CLAY: Drill Fluid Type
DFD .G/CM3      -9999.00000: Drill Fluid Density
DFV .S          -9999.00000: Drill Fluid Viscosity
RMF.OHMM               0.07: Mud Filtrate Resistivity
MT  .C                   18: Meas Temperature
                      DRST3: Cartridge Gamma
TAU_GR.S              1.5;3: GR Time Constant
K_GK                   1580: äéùî. èÖêÖïéÑÄ
SPEED.M/H           420;780: Speed M/Hour
                     NGK_60: Probe NGR
USL_ED.IMP/MIN         5500: 1 ìëã.ÖÑ.
OTN_KNL.GR/NGR            9: éíçéòÖçàÖ äÄçÄãéÇ
TAU_NGR.S             1.5;3: NGR Time Constant
SPEED.M/H           420;780: Speed M/Hour
                        K_3: Cartridge BK
                       BK_3: Probe BK
                       USBA: Cartridge DT
                 Sonde 1.4M: Probe DT
                      SKP_1: Cartridge DS
~Curve Information Block
#MNEM.UNIT       API CODE     Curve Description
#---------    -------------   --------------------------------
DEPT.M                    :    1    DEPTH M
BK.OHMM                   :    2    LATEROLOG DEEP
DS.M                      :    3    CALIPER
DT.MCS                    :    4    DELTA TIME INTERVAL TRANSIT TIME MCSEC/M
GR.MCR/H                  :    5    GAMMA RAY MICRO_ROENTGENS PER HOUR
NGR.UE                    :    6    NEUTRON GAMMA RAY
~A DEPT.M       BK           DS           DT           GR           NGR          
# ...
   399.60    -9999.00000  -9999.00000  -9999.00000      2.05300      1.18100
   399.80    -9999.00000  -9999.00000  -9999.00000      1.73200      1.18100
   400.00    -9999.00000  -9999.00000  -9999.00000      1.62500      1.17600
   400.20    -9999.00000  -9999.00000  -9999.00000      1.51800      1.15500
   400.40    -9999.00000  -9999.00000  -9999.00000      1.44200      1.08900
   400.60    -9999.00000  -9999.00000  -9999.00000      1.50300      1.09300
   400.80    -9999.00000  -9999.00000  -9999.00000      1.56400      1.11200
   401.00    -9999.00000  -9999.00000  -9999.00000      1.83900      1.13000
   401.20    -9999.00000  -9999.00000  -9999.00000      1.66000      1.13000
   401.40    -9999.00000  -9999.00000  -9999.00000      1.40900      1.19700
   401.60    -9999.00000  -9999.00000  -9999.00000      1.45700      1.19700
   401.80    -9999.00000  -9999.00000  -9999.00000      1.59100      1.19000
   402.00    -9999.00000  -9999.00000  -9999.00000      1.90000      1.18500
   402.20    -9999.00000  -9999.00000  -9999.00000      1.90000      1.19200
   402.40    -9999.00000  -9999.00000  -9999.00000      1.90000      1.20600
   402.60    -9999.00000  -9999.00000  -9999.00000      1.80800      1.20600
   402.80    -9999.00000  -9999.00000  -9999.00000      1.67100      1.16800
   403.00    -9999.00000  -9999.00000  -9999.00000      1.57500      1.14500
   403.20    -9999.00000  -9999.00000  -9999.00000      1.56000      1.11500
   403.40    -9999.00000  -9999.00000  -9999.00000      1.57500      1.07700
   403.60    -9999.00000  -9999.00000  -9999.00000      1.59000      1.03700
   403.80    -9999.00000  -9999.00000  -9999.00000      2.00700      1.08700
   404.00    -9999.00000  -9999.00000  -9999.00000      2.08300      1.10300
   404.20    -9999.00000  -9999.00000  -9999.00000      2.20500      1.13400
   404.40    -9999.00000  -9999.00000  -9999.00000      2.25100      1.15000
   404.60    -9999.00000  -9999.00000  -9999.00000      2.07800      1.11500
   404.80    -9999.00000  -9999.00000  -9999.00000      1.99100      1.08800
   405.00    -9999.00000  -9999.00000  -9999.00000      1.66700      1.03300
   405.20    -9999.00000  -9999.00000  -9999.00000      1.66700      1.03300
   405.40    -9999.00000  -9999.00000  -9999.00000      1.69700      1.03300
   405.60    -9999.00000  -9999.00000  -9999.00000      1.71300      1.11200
   405.80    -9999.00000  -9999.00000  -9999.00000      1.75800      1.11900
   406.00    -9999.00000  -9999.00000  -9999.00000      1.86500      1.15300
   406.20    -9999.00000  -9999.00000  -9999.00000      1.92600      1.16400
   406.40    -9999.00000  -9999.00000  -9999.00000      2.09400      1.15600
   406.60    -9999.00000  -9999.00000  -9999.00000      2.15600      1.15600
   406.80    -9999.00000  -9999.00000  -9999.00000      2.17100      1.13000
   407.00    -9999.00000  -9999.00000  -9999.00000      2.17100      1.18100
   407.20    -9999.00000  -9999.00000  -9999.00000      2.17100      1.18100
   407.40    -9999.00000  -9999.00000  -9999.00000      2.11000      1.04300
   407.60    -9999.00000  -9999.00000  -9999.00000      2.09400      1.04300
   407.80    -9999.00000  -9999.00000  -9999.00000      2.00300      1.07800
   408.00    -9999.00000  -9999.00000  -9999.00000      1.97200      1.09400
   408.20    -9999.00000  -9999.00000  -9999.00000      1.83500      1.12600
   408.40    -9999.00000  -9999.00000  -9999.00000      1.69700      1.15900
   408.60    -9999.00000  -9999.00000  -9999.00000      1.93800      1.17500
   408.80    -9999.00000  -9999.00000  -9999.00000      2.35800      1.20700
   409.00    -9999.00000  -9999.00000  -9999.00000      2.56800      1.22300
   409.20    -9999.00000  -9999.00000  -9999.00000      2.49200      1.25600
   409.40    -9999.00000  -9999.00000  -9999.00000      2.46100      1.27200
   409.60    -9999.00000  -9999.00000  -9999.00000      2.38500      1.20000
   409.80    -9999.00000  -9999.00000  -9999.00000      2.29300      1.20500
   410.00    -9999.00000  -9999.00000  -9999.00000      2.01800      1.21100
   410.20    -9999.00000  -9999.00000  -9999.00000      1.86500      1.22500
   410.40    -9999.00000  -9999.00000  -9999.00000      1.83500      1.23700
   410.60    -9999.00000  -9999.00000  -9999.00000      2.06300      1.27800
   410.80    -9999.00000  -9999.00000  -9999.00000      2.69000      1.29600
   411.00    -9999.00000  -9999.00000  -9999.00000      2.85800      1.54600
   411.20    -9999.00000      0.22300  -9999.00000      2.95000      1.53900
   411.40    -9999.00000      0.22200  -9999.00000      3.01900      1.55100
   411.60    -9999.00000      0.22100  -9999.00000      3.27000      1.53000
   411.80    -9999.00000      0.21800  -9999.00000      3.57200      1.52100
   412.00    -9999.00000      0.21600  -9999.00000      3.87400      1.50900
   412.20       10.49900      0.21500  -9999.00000      4.27700      1.69800
   412.40       23.28500      0.21400  -9999.00000      4.52800      1.77400
   412.60       48.73400      0.21600  -9999.00000      4.02500      1.82600
   412.80       90.85200      0.21700  -9999.00000      3.62300      1.88700
   413.00      169.32500      0.21800  -9999.00000      3.27000      1.92500
   413.20      306.61000      0.22000  -9999.00000      2.86800      1.94800
   413.40      531.59700      0.22000  -9999.00000      2.46500      1.95500
   413.60      820.85000      0.21900  -9999.00000      1.96200      2.22800
   413.80     1402.81600      0.21800  -9999.00000      1.50900      2.73500
   414.00     2044.06200      0.21700  -9999.00000      1.30000      3.25000
   414.20      226.20900      0.21600  -9999.00000      1.13200      3.48500
   414.40      334.44300      0.21600  -9999.00000      1.01000      3.52200
   414.60      516.42100      0.21700  -9999.00000      0.96400      3.56000
   414.80      731.11600      0.21700  -9999.00000      0.94900      3.85600
   415.00     1145.30000      0.21800  -9999.00000      0.98000      4.00700
   415.20      446.79700      0.21900  -9999.00000      0.98000      3.99700
   415.40      516.42100      0.21900  -9999.00000      0.98000      3.99700
   415.60      660.57700      0.21800  -9999.00000      0.91800      3.66600
   415.80      962.61300      0.21700  -9999.00000      0.87300      3.44700
   416.00     1034.88800      0.21600  -9999.00000      0.84200      2.98500
   416.20      134.30500      0.21600  -9999.00000      0.84200      2.59100
   416.40       45.99200      0.21800  -9999.00000      0.87300      2.25000
   416.60       17.94200      0.21900  -9999.00000      1.05700      1.63000
   416.80        8.95300      0.22000  -9999.00000      1.74300      1.64500
   417.00       10.05300      0.22000  -9999.00000      1.80400      1.65200
   417.20       14.86300      0.22000  -9999.00000      1.92600      1.63000
   417.40       20.14600      0.22000  -9999.00000      1.97200      1.59900
   417.60       26.91400      0.21800  -9999.00000      1.86500      1.52400
   417.80       34.42700      0.21600  -9999.00000      1.74300      1.55400
   418.00       42.16400      0.21800  -9999.00000      1.69700      1.59200
   418.20       50.89800      0.21900  -9999.00000      1.56700      1.63700
   418.40       41.55800      0.22000  -9999.00000      1.55200      1.66800
   418.60       33.93100      0.22100  -9999.00000      1.55200      1.69800
   418.80       25.03700      0.22300  -9999.00000      1.67400      1.72800
   419.00       42.77900      0.22200  -9999.00000      1.73500      1.74300
   419.20       57.15000      0.22100  -9999.00000      1.83500      1.66800
   419.40       86.97800      0.22000  -9999.00000      1.73500      1.56900
   419.60       32.02200      0.21800  -9999.00000      1.61300      1.47100
   419.80       15.29900      0.21800  -9999.00000      1.53700      1.31200
   420.00        7.20500      0.21700  -9999.00000      1.50600      1.17500
   420.20        3.39300      0.21700  -9999.00000      1.50600      1.21300
