~Version information
VERS.              2.00:   CWLS LOG ASCII STANDARD -VERSION 2.00
WRAP.                NO:   one line per depth step
~Well Information Block
#MNEM.UNIT     DATA         DESCRIPTION OF MNEMONIC
#--------  --------------   ------------------------
STRT.M                 4.40:START DEPTH
STOP.M              1087.60:STOP DEPTH
STEP.M                 0.20:STEP VALUE
NULL.           -9999.00000:NULL VALUE
WELL.                 13416:WELL NAME
FLD .             VYATSKAYA:FIELD NAME
CTRY.                RUSSIA:COUNTRY
DATE.            13.12.1988:DATE
UWI .                 13416:UNIQUE WELL IDENTIFIER
SRVC.         ÄêãÄçëäÄü èÉä:çÄáÇÄçàÖ ëÖêÇàëçéâ äéåèÄçàà Éàë
SRVC_OC.                ààí:çÄáÇÄçàÖ ëÖêÇàëçéâ äéåèÄçàà-éñàîêéÇäÄ
~Parameter Information Block
#MNEM.UNIT       Value     Description of mnemonic
#---------   -----------   ------------------------------------
EKB .M               157.98: Elevation Kelly Bushing
TDL.M                  1087: Total Depth
SCD .M          -9999.00000: Surface Casing Diameter
SCDP.M          -9999.00000: Surface Casing Depth
CD  .M                0.228: Casing Diameter
CDP .M                  412: Casing Depth
BS  .M                0.216: Bit Size
                       CLAY: Drill Fluid Type
DFD .G/CM3        1.07-1.09: Drill Fluid Density
DFV .S                22-24: Drill Fluid Viscosity
RMF.OHMM               0.07: Mud Filtrate Resistivity
MT  .C                   18: Meas Temperature
                      DRST3: Cartridge Gamma
TAU_GR.S              1.5;3: GR Time Constant
K_GK                   1580: äéùî. èÖêÖïéÑÄ
SPEED.M/H               890: Speed M/Hour
                     NGK_60: Probe NGR
USL_ED.IMP/MIN         5500: 1 ìëã.ÖÑ.
OTN_KNL.GR/NGR            9: éíçéòÖçàÖ äÄçÄãéÇ
TAU_NGR.S             1.5;3: NGR Time Constant
SPEED.M/H               890: Speed M/Hour
                        K_3: Cartridge BK
                       BK_3: Probe BK
                       USBA: Cartridge DT
                 Sonde 1.4M: Probe DT
                      SKP_1: Cartridge DS
~Curve Information Block
#MNEM.UNIT       API CODE     Curve Description
#---------    -------------   --------------------------------
DEPT.M                    :    1    DEPTH M
BK.OHMM                   :    2    LATEROLOG DEEP
DS.M                      :    3    CALIPER
DT.MCS                    :    4    DELTA TIME INTERVAL TRANSIT TIME MCSEC/M
GR.MCR/H                  :    5    GAMMA RAY MICRO_ROENTGENS PER HOUR
NGR.UE                    :    6    NEUTRON GAMMA RAY
~A DEPT.M       BK           DS           DT           GR           NGR          
# ...
   1065.20       4.14300      0.21400    295.06200      8.98400      1.61000
   1065.40       4.32500      0.21200    290.12300     10.24600      1.67800
   1065.60       3.91200      0.21500    288.14800     11.55800      1.75400
   1065.80       4.32500      0.21800    285.24400     11.15500      1.83800
   1066.00       4.71400      0.21600    275.30900     10.70000      1.91400
   1066.20       4.99200      0.21600    265.43200     10.29700      1.95200
   1066.40       6.01600      0.21600    250.61700      9.08500      2.14900
   1066.60       5.21200      0.21800    239.75300      7.87400      2.19500
   1066.80       3.91200      0.21500    233.33300      6.00600      1.96700
   1067.00       3.06500      0.21400    229.38300      4.29000      1.83000
   1067.20       2.54400      0.21400    235.30900      3.23000      1.73200
   1067.40       2.20800      0.21200    244.69100      2.87700      1.67800
   1067.60       2.20800      0.21600    258.02500      3.63400      1.61800
   1067.80       2.42900      0.21800    270.37000      5.14800      1.70100
   1068.00       2.71400      0.22100    279.75300      7.97500      1.77700
   1068.20       3.23100      0.22000    284.19800     10.75100      1.86100
   1068.40       3.91200      0.21900    267.90100     12.46700      1.99000
   1068.60       4.14300      0.21800    255.06200     12.92100      2.10400
   1068.80       3.69400      0.21700    243.70400     11.25600      2.21800
   1069.00       3.48800      0.21600    234.66300      9.33800      2.30100
   1069.20       3.53800      0.21500    233.19700      7.97500      2.41500
   1069.40       3.64100      0.21800    232.84000      7.47000      2.34700
   1069.60       3.43800      0.22100    232.84000      7.77300      2.29400
   1069.80       3.64100      0.22100    234.32100      7.87400      2.39200
   1070.00       3.96900      0.21800    236.29600      8.02500      2.23300
   1070.20       3.29300      0.22200    240.24700      8.07600      2.30100
   1070.40       4.08300      0.22400    248.14800      8.27800      2.22500
   1070.60       4.02600      0.22200    255.55600      8.83300      2.18700
   1070.80       3.89400      0.22100    259.01200      9.28700      2.10400
   1071.00       4.23600      0.22400    260.00000     10.44800      1.97500
   1071.20       4.78200      0.22400    260.49400     11.45700      2.06600
   1071.40       6.10300      0.22300    261.97500     11.15500      2.18700
   1071.60       4.85100      0.22400    267.90100     10.80100      2.01300
   1071.80       4.71400      0.22600    275.80200     11.15500      1.94400
   1072.00       4.58100      0.22300    280.24700     11.45700      1.92200
   1072.20       4.99200      0.22500    284.69100     11.60900      1.88400
   1072.40       4.45100      0.22400    287.65400     12.06300      1.81500
   1072.60       4.26400      0.22300    288.64200     12.71900      1.73900
   1072.80       4.51500      0.22200    285.18500     12.82000      1.83000
   1073.00       5.44100      0.22500    284.19800     12.56800      1.89900
   1073.20       4.45100      0.22200    280.74100     12.16400      1.84600
   1073.40       4.85100      0.22000    274.81500     11.00300      1.80800
   1073.60       5.28700      0.22200    270.37000     11.30600      1.87600
   1073.80       6.74800      0.21900    267.90100     11.05400      1.93700
   1074.00       5.28700      0.22000    265.92600     10.24600      2.02800
   1074.20       5.28700      0.22100    263.45700      9.89300      1.92200
   1074.40       6.28100      0.22100    260.00000     10.14500      1.96700
   1074.60       7.14600      0.22000    248.64200      9.64000      2.00500
   1074.80      10.08400      0.21700    257.53100      9.13600      2.05100
   1075.00       7.25000      0.22100    270.37000      8.83300      1.89100
   1075.20       4.99200      0.22100    277.77800      8.73200      1.83000
   1075.40       4.32500      0.22000    286.17300      8.73200      1.66300
   1075.60       4.45100      0.21700    295.06200     11.30600      1.74700
   1075.80       3.96900      0.21500    299.01200     12.66900      1.86100
   1076.00       3.96900      0.21900    300.00000     13.47600      1.92900
   1076.20       3.91200      0.22200    300.00000     14.13200      1.88400
   1076.40       3.96900      0.21900    300.00000     13.98100      1.84600
   1076.60       3.96900      0.22000    300.00000     13.88000      1.80000
   1076.80       3.91200      0.22200    300.00000     13.77900      1.83000
   1077.00       3.85600      0.21900    298.02500     13.62800      1.82300
   1077.20       4.08400      0.22100    287.65400     13.47600      1.88400
   1077.40       5.93000      0.22100    269.87700     12.92100      2.30100
   1077.60      10.29400      0.22100    251.60500     13.02200      2.24800
   1077.80      13.62800      0.22300    259.01200     11.60900      2.26300
   1078.00       4.15500      0.22200    268.39500      9.79200      2.22500
   1078.20       2.93600      0.22000    277.77800      9.43800      1.85300
   1078.40       3.06500      0.22300    294.40900     10.85200      1.67100
   1078.60       3.15500      0.21700    278.09800     13.62800      1.58700
   1078.80       3.53800      0.21500    278.46500     14.33400      1.86800
   1079.00       5.21200      0.22600    277.28400     13.62800      2.17200
   1079.20       6.19100      0.22300    287.16000     12.51700      2.01300
   1079.40       5.44100      0.22100    299.35700     11.25600      2.04300
   1079.60       4.26400      0.22300    281.58000      9.64000      1.75400
   1079.80       3.64300      0.22200    280.11400      9.03500      1.73200
   1080.00       3.67700      0.22200    285.06200      8.93400      1.74700
   1080.20       6.09300      0.22200    276.26600      9.08500      1.70900
   1080.40       4.11400      0.22000    258.51900      9.23700      1.86800
   1080.60       3.81700      0.22400    243.70400      8.88300      1.97500
   1080.80       3.74700      0.22600    233.33300      8.73200      2.05100
   1081.00       3.80100      0.22500    284.19800      8.68100      2.09600
   1081.20       3.24600      0.22500    300.49400      8.73200      1.89100
   1081.40       2.85300      0.22600    297.53100      8.93400      1.73200
   1081.60       3.24600      0.22800    296.04900      9.79200      1.64800
   1081.80       3.74700      0.22500    300.00000     10.80100      1.61000
   1082.00       3.11000      0.22400    300.00000     11.25600      1.58000
   1082.20       2.50800      0.22100    300.00000     10.14500      1.54200
   1082.40       2.85300      0.22500    300.00000      9.79200      1.46600
   1082.60       3.34100      0.22200    300.00000     10.24600      1.44300
   1082.80       2.89400      0.22000    300.00000     10.75100      1.54900
   1083.00       2.47200      0.21800    300.00000     11.00300      1.64100
   1083.20       2.97900      0.21700    300.00000     11.25600      1.55700
   1083.40       3.96900      0.22400    300.00000     11.50800      1.68600
   1083.60       5.06500      0.22200    300.00000     11.10400      1.79200
   1083.80       6.55700      0.22400    300.00000     10.90200      1.93700
   1084.00       8.86200      0.22600    300.00000     11.30600      2.20300
   1084.20      12.68500      0.22500    300.00000     11.30600      2.28600
   1084.40      17.39300      0.22300    300.00000     11.15500      2.48400
   1084.60      14.02600      0.22500    300.00000     10.95300      2.62000
   1084.80      12.68500      0.22400    300.00000     11.20500      2.61300
   1085.00      11.47300      0.22100    300.00000     11.35600      2.58200
   1085.20   -9999.00000      0.22100    300.00000     12.21500      2.43000
   1085.40   -9999.00000      0.22200    300.00000     11.96200      2.36200
   1085.60   -9999.00000      0.22400    300.00000     11.55800      2.24800
   1085.80   -9999.00000      0.22500    300.00000     10.90200      2.37000
