~Version information
VERS.              2.00:   CWLS LOG ASCII STANDARD -VERSION 2.00
WRAP.                NO:   one line per depth step
~Well Information Block
#MNEM.UNIT     DATA         DESCRIPTION OF MNEMONIC
#--------  --------------   ------------------------
STRT.M                 4.40:START DEPTH
STOP.M              1112.80:STOP DEPTH
STEP.M                 0.20:STEP VALUE
NULL.           -9999.00000:NULL VALUE
WELL.                 13419:WELL NAME
FLD .             VYATSKAYA:FIELD NAME
CTRY.                RUSSIA:COUNTRY
DATE.            01.12.1988:DATE
UWI .                 13419:UNIQUE WELL IDENTIFIER
SRVC.         ÄêãÄçëäÄü èÉä:çÄáÇÄçàÖ ëÖêÇàëçéâ äéåèÄçàà Éàë
SRVC_OC.                ààí:çÄáÇÄçàÖ ëÖêÇàëçéâ äéåèÄçàà-éñàîêéÇäÄ
~Parameter Information Block
#MNEM.UNIT       Value     Description of mnemonic
#---------   -----------   ------------------------------------
EKB .M               158.08: Elevation Kelly Bushing
TDL.M                  1114: Total Depth
SCD .M          -9999.00000: Surface Casing Diameter
SCDP.M          -9999.00000: Surface Casing Depth
CD  .M                0.228: Casing Diameter
CDP .M                  412: Casing Depth
BS  .M                0.216: Bit Size
                       CLAY: Drill Fluid Type
DFD .G/CM3      -9999.00000: Drill Fluid Density
DFV .S          -9999.00000: Drill Fluid Viscosity
RMF.OHMM               0.07: Mud Filtrate Resistivity
MT  .C                   18: Meas Temperature
                      DRST3: Cartridge Gamma
TAU_GR.S              1.5;3: GR Time Constant
K_GK                   1580: äéùî. èÖêÖïéÑÄ
SPEED.M/H           420;780: Speed M/Hour
                     NGK_60: Probe NGR
USL_ED.IMP/MIN         5500: 1 ìëã.ÖÑ.
OTN_KNL.GR/NGR            9: éíçéòÖçàÖ äÄçÄãéÇ
TAU_NGR.S             1.5;3: NGR Time Constant
SPEED.M/H           420;780: Speed M/Hour
                        K_3: Cartridge BK
                       BK_3: Probe BK
                       USBA: Cartridge DT
                 Sonde 1.4M: Probe DT
                      SKP_1: Cartridge DS
~Curve Information Block
#MNEM.UNIT       API CODE     Curve Description
#---------    -------------   --------------------------------
DEPT.M                    :    1    DEPTH M
BK.OHMM                   :    2    LATEROLOG DEEP
DS.M                      :    3    CALIPER
DT.MCS                    :    4    DELTA TIME INTERVAL TRANSIT TIME MCSEC/M
GR.MCR/H                  :    5    GAMMA RAY MICRO_ROENTGENS PER HOUR
NGR.UE                    :    6    NEUTRON GAMMA RAY
~A DEPT.M       BK           DS           DT           GR           NGR          
# ...
   441.20       27.30600      0.22100  -9999.00000      1.52200      2.38700
   441.40       60.55900      0.22000  -9999.00000      1.30800      2.60600
   441.60      159.79600      0.21900  -9999.00000      1.21600      2.83300
   441.80      651.01500      0.21800  -9999.00000      1.00200      3.03000
   442.00      229.50900      0.21800  -9999.00000      0.98700      3.31800
   442.20      134.30500      0.21900  -9999.00000      0.96800      3.56800
   442.40       86.97800      0.21900  -9999.00000      0.99800      3.31800
   442.60      121.35700      0.21800  -9999.00000      1.07500      3.09800
   442.80      157.48500      0.21700  -9999.00000      1.20100      2.92400
   443.00       73.10400      0.21700  -9999.00000      1.20100      2.82600
   443.20       23.28500      0.21800  -9999.00000      1.26200      2.72700
   443.40       12.49200      0.21900  -9999.00000      1.27700      2.59900
   443.60       13.62600      0.21900  -9999.00000      1.35400      2.48500
   443.80       17.68600      0.21900  -9999.00000      1.46100      2.31100
   444.00       32.48900      0.21900  -9999.00000      1.61900      2.44000
   444.20       48.03400      0.21900  -9999.00000      1.58000      2.55300
   444.40      100.53200      0.21700  -9999.00000      1.50000      2.52300
   444.60       63.24800      0.21700  -9999.00000      1.46100      2.50000
   444.80       34.92600      0.21800  -9999.00000      1.45900      2.34900
   445.00       18.20400      0.21900  -9999.00000      1.56000      2.14400
   445.20        8.95300      0.21900  -9999.00000      1.66000      1.97000
   445.40        5.88300      0.21800  -9999.00000      1.96100      1.78900
   445.60        4.40400      0.21800  -9999.00000      1.99100      1.41000
   445.80        3.54400      0.21700  -9999.00000      1.86900      1.35700
   446.00        2.97800      0.21600  -9999.00000      1.86900      1.35700
   446.20        2.27300      0.21500  -9999.00000      1.82300      1.35000
   446.40        2.30800      0.21500  -9999.00000      1.80800      1.35700
   446.60        2.38000      0.21600  -9999.00000      1.71600      1.31900
   446.80        2.41700      0.21700  -9999.00000      1.67100      1.28100
   447.00        2.39700      0.21800  -9999.00000      1.62500      1.24400
   447.20        2.19700      0.21800  -9999.00000      1.62500      1.17500
   447.40        1.95700      0.21900  -9999.00000      1.68600      1.15300
   447.60        1.76800      0.21800  -9999.00000      1.85400      1.22800
   447.80        1.59800      0.21700  -9999.00000      1.88400      1.26600
   448.00        1.48600      0.21600  -9999.00000      1.93000      1.29700
   448.20        1.55200      0.21600  -9999.00000      1.93000      1.32700
   448.40        2.43200      0.21700  -9999.00000      2.01300      1.43300
   448.60        5.71500      0.21800  -9999.00000      2.31400      1.66800
   448.80       10.65300      0.21900  -9999.00000      2.61600      1.89500
   449.00       10.20000      0.21900  -9999.00000      3.17000      2.12200
   449.20        8.95300      0.22000  -9999.00000      2.96900      2.40900
   449.40        7.97400      0.22000  -9999.00000      2.81800      2.28800
   449.60        6.99900      0.22100  -9999.00000      2.71700      2.17500
   449.80        6.51000      0.21900  -9999.00000      2.61600      2.06100
   450.00        6.14400      0.21700  -9999.00000      2.41500      2.03100
   450.20        6.05600      0.21700  -9999.00000      2.21400      1.98500
   450.40        7.52500      0.21700  -9999.00000      2.11300      2.21300
   450.60        9.08400      0.21700  -9999.00000      2.11300      2.36400
   450.80       11.62000      0.21700  -9999.00000      2.21400      2.49300
   451.00       14.86300      0.21700  -9999.00000      2.46500      2.62900
   451.20       19.85600      0.21700  -9999.00000      2.66700      2.75800
   451.40       25.76900      0.21800  -9999.00000      3.10600      2.78800
   451.60       19.57100      0.21900  -9999.00000      2.97600      2.81800
   451.80       15.07900      0.21900  -9999.00000      2.91900      2.87100
   452.00       11.45200      0.21900  -9999.00000      3.04500      3.03800
   452.20        9.48700      0.21900  -9999.00000      3.21300      3.02300
   452.40        7.63500      0.21800  -9999.00000      3.47200      2.99200
   452.60        5.79800      0.21600  -9999.00000      3.92500      2.96200
   452.80        4.34000      0.21500  -9999.00000      4.32700      2.85600
   453.00        2.30300      0.21500  -9999.00000      4.78000      2.46200
   453.20        2.40900      0.21600  -9999.00000      5.33300      2.08400
   453.40        2.63700      0.21800  -9999.00000      6.08800      2.06900
   453.60        3.09900      0.22000  -9999.00000      6.99400      2.04600
   453.80        3.92200      0.22200  -9999.00000      7.84900      2.16700
   454.00        5.47200      0.22300  -9999.00000      8.70400      2.31100
   454.20        7.85900      0.22100  -9999.00000      8.90600      2.46200
   454.40       11.12600      0.22000  -9999.00000      9.00600      2.60600
   454.60       16.93200      0.21800  -9999.00000      8.45300      2.77300
   454.80       23.96700      0.21500  -9999.00000      8.10100      2.62900
   455.00        8.09000      0.21600  -9999.00000      7.79900      2.45500
   455.20        3.06600      0.21800  -9999.00000      7.64800      2.24300
   455.40        3.24900      0.21900  -9999.00000      7.14500      1.96300
   455.60        3.64800      0.21700  -9999.00000      6.71500      1.74300
   455.80        5.01700      0.21500  -9999.00000      6.44900      1.71300
   456.00        6.14400      0.21600  -9999.00000      6.31600      1.69000
   456.20        6.14400      0.21900  -9999.00000      6.05000      1.66000
   456.40        6.05600      0.21800  -9999.00000      6.18900      1.64500
   456.60        8.09000      0.21800  -9999.00000      6.69200      1.76600
   456.80       10.65300      0.21700  -9999.00000      7.24500      1.84200
   457.00        7.85900      0.21700  -9999.00000      7.49700      1.94800
   457.20        5.63300      0.21600  -9999.00000      7.59700      2.06900
   457.40        4.59900      0.21600  -9999.00000      7.69800      2.17500
   457.60        5.79800      0.21700  -9999.00000      7.89900      2.29600
   457.80        7.85900      0.21700  -9999.00000      8.00000      2.43200
   458.00        6.41700      0.21700  -9999.00000      8.05000      2.56100
   458.20        5.23900      0.21800  -9999.00000      7.64800      2.68200
   458.40        6.23400      0.21800  -9999.00000      7.19500      2.83300
   458.60        9.21600      0.21900  -9999.00000      7.64800      3.00800
   458.80       11.62100      0.21900  -9999.00000      8.60400      3.18200
   459.00       15.97900      0.21900  -9999.00000      8.65400      3.56800
   459.20       29.35700      0.21500  -9999.00000      7.29600      3.50000
   459.40       32.02200      0.21400  -9999.00000      6.23900      2.66700
   459.60        5.09000      0.21700  -9999.00000      6.54100      2.61400
   459.80        4.03700      0.21900  -9999.00000      7.14500      2.34100
   460.00        4.34000      0.22000  -9999.00000      7.69800      2.14400
   460.20        4.66600      0.21800  -9999.00000      7.95000      1.97000
   460.40        3.81000      0.21800  -9999.00000      9.56000      1.81100
   460.60        2.97800      0.21800  -9999.00000      9.30800      1.59900
   460.80        2.46700      0.21800  -9999.00000      6.28900      1.53900
   461.00        2.16600      0.21700  -9999.00000      5.48400      1.50100
   461.20        2.13500      0.21700  -9999.00000      5.08200      1.48600
   461.40        2.01500      0.21600  -9999.00000      4.42800      1.62200
   461.60        3.49300      0.21500  -9999.00000      4.23600      1.75100
   461.80        5.55200      0.21500  -9999.00000      4.14500      1.88700
