~Version information
VERS.              2.00:   CWLS LOG ASCII STANDARD -VERSION 2.00
WRAP.                NO:   one line per depth step
~Well Information Block
#MNEM.UNIT     DATA         DESCRIPTION OF MNEMONIC
#--------  --------------   ------------------------
STRT.M                 4.20:START DEPTH
STOP.M              1057.00:STOP DEPTH
STEP.M                 0.20:STEP VALUE
NULL.           -9999.00000:NULL VALUE
WELL.                 13420:WELL NAME
FLD .             VYATSKAYA:FIELD NAME
CTRY.                RUSSIA:COUNTRY
DATE.            06.03.1988:DATE
UWI .                 13420:UNIQUE WELL IDENTIFIER
SRVC.         ÄêãÄçëäÄü èÉä:çÄáÇÄçàÖ ëÖêÇàëçéâ äéåèÄçàà Éàë
SRVC_OC.                ààí:çÄáÇÄçàÖ ëÖêÇàëçéâ äéåèÄçàà-éñàîêéÇäÄ
~Parameter Information Block
#MNEM.UNIT       Value     Description of mnemonic
#---------   -----------   ------------------------------------
EKB .M               166.47: Elevation Kelly Bushing
TDL.M                  1055: Total Depth
SCD .M          -9999.00000: Surface Casing Diameter
SCDP.M          -9999.00000: Surface Casing Depth
CD  .M                0.228: Casing Diameter
CDP .M                  400: Casing Depth
BS  .M                0.216: Bit Size
                       CLAY: Drill Fluid Type
DFD .G/CM3        1.09-1.06: Drill Fluid Density
DFV .S                19-25: Drill Fluid Viscosity
RMF.OHMM               0.07: Mud Filtrate Resistivity
MT  .C                   18: Meas Temperature
                      DRST3: Cartridge Gamma
TAU_GR.S              1.5;3: GR Time Constant
K_GK                   1500: äéùî. èÖêÖïéÑÄ
SPEED.M/H           390;780: Speed M/Hour
                     NGK_60: Probe NGR
USL_ED.IMP/MIN         5775: 1 ìëã.ÖÑ.
OTN_KNL.GR/NGR            9: éíçéòÖçàÖ äÄçÄãéÇ
TAU_NGR.S             1.5;3: NGR Time Constant
SPEED.M/H           390;780: Speed M/Hour
                        K_3: Cartridge BK
                       BK_3: Probe BK
                       USBA: Cartridge DT
                 Sonde 1.4M: Probe DT
                      SKP_1: Cartridge DS
~Curve Information Block
#MNEM.UNIT       API CODE     Curve Description
#---------    -------------   --------------------------------
DEPT.M                    :    1    DEPTH M
BK.OHMM                   :    2    LATEROLOG DEEP
DS.M                      :    3    CALIPER
DT.MCS                    :    4    DELTA TIME INTERVAL TRANSIT TIME MCSEC/M
GR.MCR/H                  :    5    GAMMA RAY MICRO_ROENTGENS PER HOUR
NGR.UE                    :    6    NEUTRON GAMMA RAY
~A DEPT.M       BK           DS           DT           GR           NGR          
# ...
   1002.60      38.71800      0.21400    167.00000      1.58000      1.69600
   1002.80      31.75100      0.21300    165.50000      1.53100      1.80700
   1003.00      16.31300      0.21300    172.50000      1.33300      1.83000
   1003.20      11.28600      0.21300    178.50000      1.53100      1.89900
   1003.40       9.79500      0.21400    179.00000      1.82700      1.95600
   1003.60      11.44700      0.21400    166.00000      2.02500      1.93200
   1003.80      11.94400      0.21300    170.50000      2.32100      1.99400
   1004.00      13.66200      0.21500    172.00000      2.81500      2.04100
   1004.20      13.87900      0.21500    181.00000      3.01200      2.31400
   1004.40      12.82100      0.21300    183.00000      2.71600      2.41900
   1004.60      14.86500      0.21400    168.50000      2.22200      2.47100
   1004.80      12.64000      0.21300    172.00000      1.87700      2.17300
   1005.00       8.62200      0.21400    182.50000      1.72800      2.02400
   1005.20       6.05000      0.21300    193.00000      1.58000      1.88200
   1005.40       4.82300      0.21300    201.50000      1.38300      1.74800
   1005.60       7.07000      0.21500    184.50000      1.18500      1.66600
   1005.80       9.52100      0.21600    167.00000      1.08600      1.74800
   1006.00       5.79800      0.21600    155.50000      1.23500      1.78500
   1006.20       3.33600      0.21500    170.00000      1.33300      1.69000
   1006.40       2.30800      0.21500    185.00000      1.58000      1.71100
   1006.60       1.97500      0.21600    197.00000      1.87700      1.80700
   1006.80       3.19800      0.21400    192.50000      2.07400      1.88700
   1007.00       5.63600      0.21600    169.50000      2.27200      1.94200
   1007.20       8.14700      0.21800    147.00000      2.42000      1.84500
   1007.40       5.96500      0.21600    164.00000      2.46900      1.76300
   1007.60       3.53100      0.21300    183.00000      2.32100      1.68100
   1007.80       2.09000      0.21400    212.00000      2.22200      1.62100
   1008.00       2.66000      0.21400    235.50000      2.37000      1.65100
   1008.20       4.06900      0.21400    226.50000      2.56800      1.96400
   1008.40       8.99600      0.21500    204.00000      2.46900      2.11300
   1008.60      13.37700      0.21600    185.50000      2.27200      1.98600
   1008.80       7.80800      0.21500    197.00000      2.61700      2.01600
   1009.00       4.89100      0.21600    214.00000      2.86400      2.16500
   1009.20       9.12500      0.21500    197.00000      3.01200      2.40400
   1009.40      15.85700      0.21400    187.00000      2.86400      2.63500
   1009.60      21.96600      0.21300    228.50000      3.21000      2.53800
   1009.80      28.75300      0.21600    165.00000      3.11100      2.32200
   1010.00       5.25100      0.21300    193.50000      3.06200      2.05300
   1010.20       2.47800      0.21400    219.50000      2.96300      1.68800
   1010.40       1.66600      0.21300    261.50000      2.27200      1.42700
   1010.60       1.34200      0.21300    259.00000      1.67900      1.44200
   1010.80       1.29300      0.21400    254.50000      1.48100      1.50200
   1011.00       1.24600      0.21500    267.50000      1.58000      1.59900
   1011.20       1.94700      0.21600    278.50000      1.72800      1.74000
   1011.40       3.95500      0.21500    251.50000      1.82700      1.90400
   1011.60       6.87300      0.21400    211.00000      1.97500      2.07600
   1011.80       6.87300      0.21500    181.50000      2.12300      2.15800
   1012.00       3.89900      0.21700    199.50000      2.27200      1.90400
   1012.20       3.02100      0.21500    211.00000      2.42000      1.80700
   1012.40       3.24300      0.21600    206.00000      2.27200      1.91200
   1012.60       4.06900      0.21600    210.00000      2.22200      2.06100
   1012.80       6.87300      0.21500    200.00000      2.32100      2.18800
   1013.00      10.07600      0.21400    190.00000      2.61700      2.27000
   1013.20      11.44700      0.21400    188.00000      3.01200      2.20200
   1013.40       8.87000      0.21500    186.50000      3.50600      2.12000
   1013.60       8.03200      0.21400    205.50000      3.90100      1.95700
   1013.80       9.52100      0.21500    211.50000      4.04900      1.80700
   1014.00       5.03200      0.21500    204.00000      3.85200      1.68800
   1014.20       3.58100      0.21600    215.00000      3.90100      1.57600
   1014.40       3.06500      0.21300    230.50000      3.95100      1.48700
   1014.60       2.89600      0.21600    238.50000      3.95100      1.62900
   1014.80       3.38400      0.21600    235.50000      4.44400      1.73300
   1015.00       4.62200      0.21500    228.50000      4.64200      1.84500
   1015.20       8.14700      0.21500    217.50000      5.13600      1.98500
   1015.40      12.82100      0.21600    190.50000      5.87700      2.01600
   1015.60      10.36600      0.21500    177.00000      6.37000      1.92700
   1015.80       8.74500      0.21500    164.50000      6.91400      1.88900
   1016.00      11.61000      0.21600    249.00000      7.40700      2.00100
   1016.20      14.56400      0.21700    215.50000      6.32100      2.06400
   1016.40       4.49300      0.22000    189.50000      5.33300      1.97900
   1016.60       2.89600      0.21500    220.00000      4.84000      1.79300
   1016.80       2.27600      0.21700    242.00000      4.34600      1.68800
   1017.00       2.37500      0.21700    236.00000      3.65400      1.75500
   1017.20       2.81500      0.21500    226.50000      3.80200      1.83700
   1017.40       5.71700      0.21500    218.50000      3.95100      2.06800
   1017.60       8.99600      0.21300    205.00000      3.95100      2.32900
   1017.80      17.51000      0.21200    179.50000      3.90100      2.72400
   1018.00      24.95400      0.21400    167.50000      3.75300      2.65700
   1018.20      12.28700      0.21400    171.50000      4.84000      2.33700
   1018.40       5.88100      0.21600    186.00000      6.02500      2.03900
   1018.60       4.36700      0.21800    222.50000      7.30900      1.76300
   1018.80       3.79000      0.21400    238.00000      7.16000      1.66600
   1019.00       3.29000      0.21600    231.50000      7.01200      1.77000
   1019.20       2.97900      0.21600    224.50000      6.56800      1.83000
   1019.40       3.95500      0.21500    214.00000      5.28400      1.89700
   1019.60       5.79800      0.21400    202.00000      3.95100      2.02400
   1019.80       7.48300      0.21300    192.00000      2.86400      2.09800
   1020.00       8.74500      0.21300    189.50000      2.46900      2.09800
   1020.20       7.37700      0.21300    191.50000      2.71600      2.04600
   1020.40       6.68100      0.21400    191.00000      2.96300      1.94200
   1020.60       6.40300      0.21400    193.50000      2.66700      1.84500
   1020.80       6.05000      0.21400    200.00000      2.22200      1.78500
   1021.00       5.71700      0.21400    204.50000      2.32100      1.74800
   1021.20       5.32600      0.21400    209.00000      1.92600      1.83000
   1021.40       4.68800      0.21300    211.50000      2.12300      1.87500
   1021.60       4.01100      0.21400    207.00000      2.12300      1.87700
   1021.80       3.58100      0.21500    195.50000      2.02500      1.78300
   1022.00       3.29000      0.21500    196.00000      1.92600      1.75000
   1022.20       3.10800      0.21400    196.00000      1.72800      1.75500
   1022.40       2.89600      0.21300    192.50000      1.87700      1.82700
   1022.60       3.06500      0.21300    186.50000      2.02500      1.71800
   1022.80       3.38400      0.21400    181.00000      2.27200      1.78500
   1023.00       3.84400      0.21500    175.50000      2.46900      1.82400
   1023.20       4.36700      0.21400    170.00000      2.51900      1.73300
