~Version information
VERS.              2.00:   CWLS LOG ASCII STANDARD -VERSION 2.00
WRAP.                NO:   one line per depth step
~Well Information Block
#MNEM.UNIT     DATA         DESCRIPTION OF MNEMONIC
#--------  --------------   ------------------------
STRT.M                 3.40:START DEPTH
STOP.M              1049.40:STOP DEPTH
STEP.M                 0.20:STEP VALUE
NULL.           -9999.00000:NULL VALUE
WELL.                 13421:WELL NAME
FLD .             VYATSKAYA:FIELD NAME
CTRY.                RUSSIA:COUNTRY
DATE.            31.01.1988:DATE
UWI .                 13421:UNIQUE WELL IDENTIFIER
SRVC.         ÄêãÄçëäÄü èÉä:çÄáÇÄçàÖ ëÖêÇàëçéâ äéåèÄçàà Éàë
SRVC_OC.                ààí:çÄáÇÄçàÖ ëÖêÇàëçéâ äéåèÄçàà-éñàîêéÇäÄ
~Parameter Information Block
#MNEM.UNIT       Value     Description of mnemonic
#---------   -----------   ------------------------------------
EKB .M               167.49: Elevation Kelly Bushing
TDL.M                  1050: Total Depth
SCD .M          -9999.00000: Surface Casing Diameter
SCDP.M          -9999.00000: Surface Casing Depth
CD  .M                0.228: Casing Diameter
CDP .M                  408: Casing Depth
BS  .M                0.216: Bit Size
                       CLAY: Drill Fluid Type
DFD .G/CM3        1.08-1.12: Drill Fluid Density
DFV .S                22-26: Drill Fluid Viscosity
RMF.OHMM               0.07: Mud Filtrate Resistivity
MT  .C                   18: Meas Temperature
                      DRST3: Cartridge Gamma
TAU_GR.S              1.5;3: GR Time Constant
K_GK                   1500: äéùî. èÖêÖïéÑÄ
SPEED.M/H               690: Speed M/Hour
                     NGK_60: Probe NGR
USL_ED.IMP/MIN         5775: 1 ìëã.ÖÑ.
OTN_KNL.GR/NGR            9: éíçéòÖçàÖ äÄçÄãéÇ
TAU_NGR.S             1.5;3: NGR Time Constant
SPEED.M/H               690: Speed M/Hour
                        K_3: Cartridge BK
                       BK_3: Probe BK
                       USBA: Cartridge DT
                 Sonde 1.4M: Probe DT
                      SKP_1: Cartridge DS
~Curve Information Block
#MNEM.UNIT       API CODE     Curve Description
#---------    -------------   --------------------------------
DEPT.M                    :    1    DEPTH M
BK.OHMM                   :    2    LATEROLOG DEEP
DS.M                      :    3    CALIPER
DT.MCS                    :    4    DELTA TIME INTERVAL TRANSIT TIME MCSEC/M
GR.MCR/H                  :    5    GAMMA RAY MICRO_ROENTGENS PER HOUR
NGR.UE                    :    6    NEUTRON GAMMA RAY
~A DEPT.M       BK           DS           DT           GR           NGR          
# ...
   731.40        7.63000      0.21900  -9999.00000      4.55000      1.94100
   731.60       10.79100      0.21900  -9999.00000      4.65000      2.14700
   731.80       13.99200      0.21800  -9999.00000      4.20000      2.28400
   732.00       17.37500      0.21700  -9999.00000      4.65000      2.38300
   732.20       21.57600      0.21700  -9999.00000      5.10000      2.25400
   732.40       24.21700      0.21600  -9999.00000      4.70000      2.41400
   732.60       18.94500      0.21700  -9999.00000      4.80000      2.62700
   732.80       13.01800      0.21800  -9999.00000      5.15000      2.57400
   733.00       10.94700      0.22000  -9999.00000      5.45000      2.36000
   733.20       23.52800      0.22000  -9999.00000      5.50000      2.34500
   733.40       44.40700      0.21800  -9999.00000      4.25000      2.82500
   733.60       17.88200      0.21700  -9999.00000      3.30000      2.88400
   733.80       12.11100      0.21700  -9999.00000      3.35000      2.48200
   734.00       14.40200      0.21600  -9999.00000      3.55000      2.24600
   734.20       33.75400      0.21600  -9999.00000      3.75000      2.07800
   734.40       42.52500      0.21600  -9999.00000      4.00000      1.96400
   734.60       59.26100      0.21600  -9999.00000      4.35000      1.86500
   734.80       27.57700      0.21600  -9999.00000      4.00000      1.76600
   735.00       23.10700      0.21600  -9999.00000      3.75000      1.75800
   735.20       24.01300      0.21600  -9999.00000      3.50000      1.90300
   735.40       25.36900      0.21500  -9999.00000      3.35000      2.42900
   735.60       24.21200      0.21500  -9999.00000      3.05000      2.42900
   735.80        9.34000      0.21500  -9999.00000      3.00000      2.35300
   736.00        8.22900      0.21500  -9999.00000      3.50000      2.16200
   736.20        7.49500      0.21500  -9999.00000      4.05000      2.01700
   736.40        5.24500      0.21500  -9999.00000      3.60000      1.93400
   736.60        4.21100      0.21500  -9999.00000      3.15000      1.81200
   736.80       18.94700      0.21500  -9999.00000      2.85000      2.64200
   737.00       53.57400      0.21500  -9999.00000      2.65000      3.01600
   737.20       58.42100      0.21500  -9999.00000      2.40000      2.90100
   737.40       21.89000      0.21400  -9999.00000      2.75000      2.75700
   737.60       29.21600      0.21400  -9999.00000      2.95000      2.58900
   737.80       26.40800      0.21400  -9999.00000      3.20000      2.42100
   738.00       13.20700      0.21500  -9999.00000      3.75000      2.23800
   738.20        4.80800      0.21500  -9999.00000      4.35000      2.06300
   738.40        2.40400      0.21500  -9999.00000      4.80000      1.90300
   738.60        3.30300      0.21500  -9999.00000      5.35000      1.76600
   738.80        4.80800      0.21500  -9999.00000      6.10000      1.64400
   739.00        6.51000      0.21500  -9999.00000      5.95000      1.43100
   739.20        4.34500      0.21500  -9999.00000      5.25000      1.41500
   739.40        3.49900      0.21500  -9999.00000      5.20000      1.72800
   739.60        6.05800      0.21500  -9999.00000      5.40000      1.69000
   739.80        9.47500      0.21500  -9999.00000      6.30000      1.66700
   740.00       20.36500      0.21500  -9999.00000      6.20000      1.91800
   740.20        7.41300      0.21500  -9999.00000      5.05000      1.96400
   740.40        2.40400      0.21500  -9999.00000      5.10000      1.88000
   740.60        3.50000      0.21500  -9999.00000      5.15000      1.66700
   740.80        6.05700      0.21500  -9999.00000      5.00000      1.97200
   741.00       10.79000      0.21500  -9999.00000      4.15000      2.13900
   741.20       17.88400      0.21500  -9999.00000      4.45000      2.23100
   741.40       14.61100      0.21500  -9999.00000      4.40000      2.37600
   741.60        8.94300      0.21600  -9999.00000      4.35000      2.33800
   741.80        5.88400      0.21600  -9999.00000      4.30000      2.28400
   742.00        4.10200      0.21700  -9999.00000      4.30000      2.22300
   742.20        3.98500      0.21600  -9999.00000      4.55000      2.11700
   742.40        7.41300      0.21600  -9999.00000      4.95000      2.10900
   742.60       11.10800      0.21500  -9999.00000      5.35000      2.26100
   742.80       17.12600      0.21500  -9999.00000      6.65000      2.36800
   743.00       22.20800      0.21500  -9999.00000      8.15000      2.21600
   743.20       11.10600      0.21600  -9999.00000      6.40000      2.07100
   743.40        6.05700      0.21600  -9999.00000      5.35000      1.94900
   743.60        4.16100      0.21600  -9999.00000      4.55000      1.84200
   743.80        2.85900      0.21600  -9999.00000      3.65000      1.75100
   744.00        4.28300      0.21600  -9999.00000      3.80000      1.66700
   744.20        5.02000      0.21500  -9999.00000      4.50000      1.60600
   744.40        2.77800      0.21500  -9999.00000      5.00000      1.50700
   744.60        1.90800      0.21500  -9999.00000      5.25000      1.56000
   744.80        1.38900      0.21400  -9999.00000      5.25000      1.65900
   745.00        1.90800      0.21400  -9999.00000      4.90000      1.69000
   745.20        1.59300      0.21500  -9999.00000      4.60000      1.68200
   745.40        1.58400      0.21500  -9999.00000      4.30000      1.73500
   745.60        1.58400      0.21600  -9999.00000      4.00000      1.73500
   745.80        1.49300      0.21600  -9999.00000      3.40000      1.54500
   746.00        5.97000      0.21900  -9999.00000      3.65000      1.49800
   746.20       16.63800      0.21900  -9999.00000      4.15000      1.64400
   746.40        7.20200      0.21900  -9999.00000      3.80000      1.85700
   746.60        3.60100      0.21900  -9999.00000      3.25000      1.89600
   746.80        1.75000      0.21900  -9999.00000      3.35000      1.81200
   747.00        2.02200      0.21900  -9999.00000      3.50000      1.71300
   747.20        2.26900      0.21900  -9999.00000      3.65000      1.84200
   747.40        2.51100      0.21800  -9999.00000      3.75000      1.97900
   747.60        3.40000      0.21700  -9999.00000      3.40000      1.96400
   747.80        4.04300      0.21600  -9999.00000      3.20000      1.91100
   748.00        4.10200      0.21500  -9999.00000      2.65000      1.86500
   748.20        2.73800      0.21500  -9999.00000      2.55000      1.79600
   748.40        3.02900      0.21700  -9999.00000      2.60000      1.85700
   748.60        3.30300      0.21800  -9999.00000      2.80000      1.81900
   748.80        2.62200      0.21900  -9999.00000      3.10000      1.77400
   749.00        2.30200      0.21900  -9999.00000      3.35000      1.97200
   749.20        2.05100      0.21900  -9999.00000      3.55000      1.97200
   749.40        1.77500      0.21900  -9999.00000      3.85000      1.85700
   749.60        1.72500      0.21900  -9999.00000      4.30000      1.88000
   749.80        1.75000      0.21800  -9999.00000      4.85000      1.85000
   750.00        2.47500      0.21600  -9999.00000      5.40000      1.85700
   750.20       11.43100      0.21600  -9999.00000      6.35000      2.71300
   750.40       30.95300      0.21500  -9999.00000      7.45000      2.76100
   750.60       45.70500      0.21500  -9999.00000      8.50000      2.84600
   750.80       35.24800      0.21500  -9999.00000      9.50000      2.87900
   751.00       32.32300      0.21600  -9999.00000      9.35000      2.97000
   751.20       27.18200      0.21600  -9999.00000      8.65000      2.87900
   751.40       15.03900      0.21700  -9999.00000      7.50000      2.66500
   751.60        8.81500      0.21700  -9999.00000      6.20000      2.43700
   751.80        6.41700      0.21600  -9999.00000      4.95000      2.23800
   752.00        4.60400      0.21700  -9999.00000      4.15000      2.07800
