~Version information
VERS.              2.00:   CWLS LOG ASCII STANDARD -VERSION 2.00
WRAP.                NO:   one line per depth step
~Well Information Block
#MNEM.UNIT     DATA         DESCRIPTION OF MNEMONIC
#--------  --------------   ------------------------
STRT.M                 3.40:START DEPTH
STOP.M              1049.40:STOP DEPTH
STEP.M                 0.20:STEP VALUE
NULL.           -9999.00000:NULL VALUE
WELL.                 13421:WELL NAME
FLD .             VYATSKAYA:FIELD NAME
CTRY.                RUSSIA:COUNTRY
DATE.            31.01.1988:DATE
UWI .                 13421:UNIQUE WELL IDENTIFIER
SRVC.         ÄêãÄçëäÄü èÉä:çÄáÇÄçàÖ ëÖêÇàëçéâ äéåèÄçàà Éàë
SRVC_OC.                ààí:çÄáÇÄçàÖ ëÖêÇàëçéâ äéåèÄçàà-éñàîêéÇäÄ
~Parameter Information Block
#MNEM.UNIT       Value     Description of mnemonic
#---------   -----------   ------------------------------------
EKB .M               167.49: Elevation Kelly Bushing
TDL.M                  1050: Total Depth
SCD .M          -9999.00000: Surface Casing Diameter
SCDP.M          -9999.00000: Surface Casing Depth
CD  .M                0.228: Casing Diameter
CDP .M                  408: Casing Depth
BS  .M                0.216: Bit Size
                       CLAY: Drill Fluid Type
DFD .G/CM3        1.08-1.12: Drill Fluid Density
DFV .S                22-26: Drill Fluid Viscosity
RMF.OHMM               0.07: Mud Filtrate Resistivity
MT  .C                   18: Meas Temperature
                      DRST3: Cartridge Gamma
TAU_GR.S              1.5;3: GR Time Constant
K_GK                   1500: äéùî. èÖêÖïéÑÄ
SPEED.M/H               690: Speed M/Hour
                     NGK_60: Probe NGR
USL_ED.IMP/MIN         5775: 1 ìëã.ÖÑ.
OTN_KNL.GR/NGR            9: éíçéòÖçàÖ äÄçÄãéÇ
TAU_NGR.S             1.5;3: NGR Time Constant
SPEED.M/H               690: Speed M/Hour
                        K_3: Cartridge BK
                       BK_3: Probe BK
                       USBA: Cartridge DT
                 Sonde 1.4M: Probe DT
                      SKP_1: Cartridge DS
~Curve Information Block
#MNEM.UNIT       API CODE     Curve Description
#---------    -------------   --------------------------------
DEPT.M                    :    1    DEPTH M
BK.OHMM                   :    2    LATEROLOG DEEP
DS.M                      :    3    CALIPER
DT.MCS                    :    4    DELTA TIME INTERVAL TRANSIT TIME MCSEC/M
GR.MCR/H                  :    5    GAMMA RAY MICRO_ROENTGENS PER HOUR
NGR.UE                    :    6    NEUTRON GAMMA RAY
~A DEPT.M       BK           DS           DT           GR           NGR          
# ...
   939.40        1.00100      0.21700    269.56000      2.72700      1.33200
   939.60        1.00100      0.21500    263.52200      2.57200      1.44900
   939.80        1.43500      0.21400    249.93700      2.88100      1.53800
   940.00        6.03100      0.21400    237.86200      2.57200      1.67800
   940.20        6.09800      0.21600    212.70400      2.36700      1.98800
   940.40        4.50400      0.21600    192.07500      2.00600      1.84800
   940.60        2.66000      0.21600    199.12000      1.83200      1.67100
   940.80        3.09200      0.21500    210.69200      1.64600      1.80400
   941.00        3.93400      0.21400    204.15100      1.74900      1.78200
   941.20        4.71200      0.21600    201.13200      1.69800      1.63400
   941.40        2.95500      0.21600    219.74800      1.64600      1.38300
   941.60        1.93900      0.21600    244.90600      1.68200      1.29400
   941.80        1.29000      0.21500    260.50300      1.68200      1.50100
   942.00        1.52400      0.21700    245.91200      2.00600      1.59000
   942.20        1.93900      0.21600    219.24500      2.36700      1.72200
   942.40        3.33300      0.21400    201.63500      2.09500      1.83300
   942.60       16.93500      0.21500    198.61600      1.53200      1.75900
   942.80       45.54600      0.21900    221.76100      1.28600      1.72200
   943.00       89.69300      0.22200    225.78600      1.74900      2.03300
   943.20       45.72500      0.22100    217.23300      2.36700      2.32100
   943.40       14.78900      0.21900    203.64800      2.77800      2.27600
   943.60       11.17600      0.21900    190.56600      2.36700      2.23900
   943.80       10.69400      0.21600    182.01300      2.21200      2.57900
   944.00       28.99000      0.21600    178.49100      2.52100      2.96500
   944.20       23.00100      0.21700    178.49100      2.00600      3.01100
   944.40       19.82200      0.21800    193.58500      2.05800      3.10300
   944.60       27.00200      0.21700    198.11300      2.16100      3.34700
   944.80       78.60400      0.21400    178.99400      1.80100      3.47300
   945.00      127.61200      0.21400    166.91800      2.10900      3.52100
   945.20      114.51100      0.21400    169.93700      2.62400      3.09600
   945.40       50.04600      0.21400    173.45900      3.19000      2.93400
   945.60       27.13500      0.21500    184.52800      3.55000      2.78600
   945.80       34.20000      0.21500    181.00600      3.03500      2.55700
   946.00       11.61600      0.21600    188.05000      2.46900      2.33500
   946.20        9.95500      0.21800    207.17000      2.26400      2.46800
   946.40       11.30000      0.21700    189.56000      2.36700      2.64600
   946.60       60.99100      0.21400    171.44700      1.90400      2.81500
   946.80       66.61100      0.21400    175.97500      1.23500      2.93500
   947.00       39.25100      0.21500    181.00600      1.59500      2.52700
   947.20       52.27200      0.21700    184.52800      2.31500      2.18000
   947.40       41.01900      0.21800    196.60400      2.16100      2.24700
   947.60       52.27200      0.21700    200.62900      2.57200      2.03300
   947.80       62.35000      0.21700    189.56000      2.93200      1.97400
   948.00       66.61100      0.21400    181.50900      2.88100      1.87000
   948.20       27.41100      0.21400    176.47800      3.13800      1.71500
   948.40       10.30600      0.21600    191.06900      2.88100      1.64900
   948.60        2.96200      0.21700    199.62300      2.72700      1.59000
   948.80        1.83400      0.21500    197.61000      2.67500      1.51600
   949.00        3.38100      0.21700    214.92500      2.98400      1.49400
   949.20        3.45700      0.21700    231.32100      3.29300      1.42700
   949.40        1.61900      0.21800    248.93100      3.55000      1.39800
   949.60        1.18000      0.22200    254.46500      3.49800      1.44900
   949.80        0.97300      0.21900    235.34600      3.34400      1.69300
   950.00        1.12800      0.21500    241.38400      3.75600      1.91400
   950.20        8.47500      0.21600    219.74800      3.60100      2.32800
   950.40       13.55300      0.21500    198.61600      3.34400      2.49800
   950.60       22.74900      0.21500    189.05700      3.70400      2.62300
   950.80       24.84600      0.21400    184.02500      4.06400      2.70500
   951.00        7.40100      0.21400    189.05700      4.11600      2.30600
   951.20        6.73200      0.21500    196.10100      3.24100      2.06200
   951.40        6.08600      0.21500    200.12600      2.62400      1.86300
   951.60        3.81700      0.21400    208.67900      2.21200      1.87000
   951.80        2.70000      0.21400    216.73000      1.74900      1.83300
   952.00        2.11700      0.21700    209.18200      2.10900      1.94400
   952.20        2.15200      0.21500    210.69200      2.21200      1.97400
   952.40        2.35000      0.21600    214.21400      2.10900      1.78200
   952.60        2.48400      0.21700    210.18900      1.95500      1.82600
   952.80        2.59600      0.21700    215.22000      2.10900      1.91400
   953.00        2.63900      0.21700    220.25200      2.21200      1.89200
   953.20        1.78500      0.21700    218.23900      2.36700      1.73000
   953.40        1.74600      0.21700    221.25800      2.46900      1.76400
   953.60        1.76500      0.21500    223.27000      2.72700      1.75900
   953.80        1.65200      0.21600    218.74200      2.52100      1.63400
   954.00        1.56400      0.21700    224.27700      2.21200      1.55300
   954.20        1.66100      0.21700    232.32700      1.80100      1.64100
   954.40        1.93900      0.21700    228.30200      2.16100      1.49400
   954.60        3.23500      0.21600    224.78000      2.72700      1.52300
   954.80        8.96700      0.21400    221.76100      3.34400      1.67100
   955.00        9.16700      0.21700    215.72300      4.52700      1.77400
   955.20        3.93400      0.21800    212.70400      3.55900      1.79600
   955.40        2.30000      0.21600    224.27700      2.95900      1.61200
   955.60        2.45700      0.21500    228.30200      2.56400      1.78200
   955.80        2.77300      0.21800    214.21400      2.41800      1.63400
   956.00        2.12200      0.21800    207.17000      2.46900      1.57500
   956.20        1.65200      0.21900    222.26400      2.41800      1.78900
   956.40        2.05900      0.21600    231.32100      2.21200      1.67100
   956.60        3.93400      0.21800    216.22600      1.95500      1.75200
   956.80        5.08000      0.21800    209.18200      1.69800      1.56000
   957.00        5.28400      0.21400    225.78600      2.05800      1.47100
   957.20        5.23600      0.21500    233.33300      1.95500      1.41200
   957.40        4.05400      0.21600    226.79200      1.74900      1.39000
   957.60        3.04600      0.21400    233.83600      2.60200      1.47100
   957.80        2.30000      0.21500    222.26400      2.94000      1.56700
   958.00        2.20000      0.21700    213.20800      3.05200      1.61900
   958.20        2.09100      0.21400    206.66700      2.46900      1.55300
   958.40        1.71700      0.21300    200.12600      2.18900      1.47100
   958.60        2.82500      0.21500    212.70400      2.57200      1.69000
   958.80        2.25400      0.21400    220.25200      2.35800      1.59600
   959.00        3.81700      0.21400    212.20100      2.83000      1.73600
   959.20        7.97900      0.21600    203.14500      3.39500      1.94400
   959.40        9.63300      0.21700    193.08200      4.01300      2.04700
   959.60        9.42300      0.21400    202.13800      4.88700      1.84100
   959.80        5.90500      0.21600    213.71100      5.29900      1.64900
   960.00        2.95500      0.21700    223.27000      4.06400      1.38300
