~Version information
VERS.              2.00:   CWLS LOG ASCII STANDARD -VERSION 2.00
WRAP.                NO:   one line per depth step
~Well Information Block
#MNEM.UNIT     DATA         DESCRIPTION OF MNEMONIC
#--------  --------------   ------------------------
STRT.M                 4.20:START DEPTH
STOP.M              1057.00:STOP DEPTH
STEP.M                 0.20:STEP VALUE
NULL.           -9999.00000:NULL VALUE
WELL.                 13420:WELL NAME
FLD .             VYATSKAYA:FIELD NAME
CTRY.                RUSSIA:COUNTRY
DATE.            06.03.1988:DATE
UWI .                 13420:UNIQUE WELL IDENTIFIER
SRVC.         ÄêãÄçëäÄü èÉä:çÄáÇÄçàÖ ëÖêÇàëçéâ äéåèÄçàà Éàë
SRVC_OC.                ààí:çÄáÇÄçàÖ ëÖêÇàëçéâ äéåèÄçàà-éñàîêéÇäÄ
~Parameter Information Block
#MNEM.UNIT       Value     Description of mnemonic
#---------   -----------   ------------------------------------
EKB .M               166.47: Elevation Kelly Bushing
TDL.M                  1055: Total Depth
SCD .M          -9999.00000: Surface Casing Diameter
SCDP.M          -9999.00000: Surface Casing Depth
CD  .M                0.228: Casing Diameter
CDP .M                  400: Casing Depth
BS  .M                0.216: Bit Size
                       CLAY: Drill Fluid Type
DFD .G/CM3        1.09-1.06: Drill Fluid Density
DFV .S                19-25: Drill Fluid Viscosity
RMF.OHMM               0.07: Mud Filtrate Resistivity
MT  .C                   18: Meas Temperature
                      DRST3: Cartridge Gamma
TAU_GR.S              1.5;3: GR Time Constant
K_GK                   1500: äéùî. èÖêÖïéÑÄ
SPEED.M/H           390;780: Speed M/Hour
                     NGK_60: Probe NGR
USL_ED.IMP/MIN         5775: 1 ìëã.ÖÑ.
OTN_KNL.GR/NGR            9: éíçéòÖçàÖ äÄçÄãéÇ
TAU_NGR.S             1.5;3: NGR Time Constant
SPEED.M/H           390;780: Speed M/Hour
                        K_3: Cartridge BK
                       BK_3: Probe BK
                       USBA: Cartridge DT
                 Sonde 1.4M: Probe DT
                      SKP_1: Cartridge DS
~Curve Information Block
#MNEM.UNIT       API CODE     Curve Description
#---------    -------------   --------------------------------
DEPT.M                    :    1    DEPTH M
BK.OHMM                   :    2    LATEROLOG DEEP
DS.M                      :    3    CALIPER
DT.MCS                    :    4    DELTA TIME INTERVAL TRANSIT TIME MCSEC/M
GR.MCR/H                  :    5    GAMMA RAY MICRO_ROENTGENS PER HOUR
NGR.UE                    :    6    NEUTRON GAMMA RAY
~A DEPT.M       BK           DS           DT           GR           NGR          
# ...
   399.40    -9999.00000  -9999.00000  -9999.00000      1.25400      1.60800
   399.60    -9999.00000  -9999.00000  -9999.00000      1.15400      1.34500
   399.80    -9999.00000  -9999.00000  -9999.00000      1.30400      1.15700
   400.00    -9999.00000  -9999.00000  -9999.00000      1.45500      1.16400
   400.20    -9999.00000  -9999.00000  -9999.00000      1.60500      1.20200
   400.40    -9999.00000      0.22200  -9999.00000      1.90600      1.25500
   400.60    -9999.00000      0.22200  -9999.00000      2.25700      1.30700
   400.80       35.38700      0.22200  -9999.00000      2.65800      1.36000
   401.00       29.31500      0.22100  -9999.00000      2.95900      1.40500
   401.20       23.93500      0.21900  -9999.00000      3.21000      1.44300
   401.40       19.82800      0.21500  -9999.00000      3.36100      1.48800
   401.60       16.18900      0.21400  -9999.00000      3.51100      1.52500
   401.80       14.21300      0.21300  -9999.00000      3.66100      1.56300
   402.00       26.10800      0.21300  -9999.00000      3.76200      1.60100
   402.20       43.97400      0.21300  -9999.00000      3.61100      1.63100
   402.40       38.60000      0.21200  -9999.00000      3.51100      1.68300
   402.60       30.17600      0.21200  -9999.00000      3.66100      1.58600
   402.80       22.26300      0.21200  -9999.00000      3.81200      1.53300
   403.00       23.59100      0.21200  -9999.00000      4.01300      1.48000
   403.20       26.87500      0.21200  -9999.00000      3.31000      1.51800
   403.40       32.44300      0.21200  -9999.00000      2.85900      1.53300
   403.60       42.10400      0.21200  -9999.00000      2.89400      1.50300
   403.80       66.93000      0.21200  -9999.00000      2.94900      1.46500
   404.00      109.50200      0.21200  -9999.00000      3.00900      1.43500
   404.20      225.88700      0.21200  -9999.00000      2.20700      1.38200
   404.40      338.83900      0.21300  -9999.00000      1.70500      1.36700
   404.60       83.16200      0.21300  -9999.00000      2.00600      1.36700
   404.80       29.31300      0.21300  -9999.00000      2.30700      1.37500
   405.00       13.80500      0.21300  -9999.00000      2.60800      1.39000
   405.20        6.59600      0.21200  -9999.00000      2.75900      1.39700
   405.40        4.52600      0.21200  -9999.00000      2.90900      1.39700
   405.60       21.94300      0.21200  -9999.00000      3.00900      1.41300
   405.80       21.01000      0.21300  -9999.00000      2.50800      1.43500
   406.00       19.26200      0.21400  -9999.00000      2.30700      1.48800
   406.20       15.95600      0.21300  -9999.00000      2.20700      1.57800
   406.40       26.10800      0.21300  -9999.00000      2.05600      1.63800
   406.60       45.26600      0.21200  -9999.00000      1.90600      1.69800
   406.80       69.89400      0.21200  -9999.00000      1.70500      1.81100
   407.00       58.74600      0.21200  -9999.00000      1.60500      1.88700
   407.20       50.82600      0.21300  -9999.00000      1.45500      1.55500
   407.40       38.60000      0.21300  -9999.00000      1.40400      1.44300
   407.60       10.95000      0.21400  -9999.00000      1.80600      1.45000
   407.80        4.52600      0.21400  -9999.00000      2.10700      1.45000
   408.00        5.46400      0.21400  -9999.00000      2.45800      1.63800
   408.20        6.69200      0.21400  -9999.00000      2.05600      1.77400
   408.40        8.07900      0.21400  -9999.00000      1.75500      1.70600
   408.60        9.47400      0.21400  -9999.00000      1.75500      1.61600
   408.80       12.29500      0.21300  -9999.00000      2.35700      1.52500
   409.00       10.79300      0.21300  -9999.00000      2.70800      1.43500
   409.20        9.61200      0.21300  -9999.00000      2.60800      1.30000
   409.40        5.38600      0.21300  -9999.00000      2.50800      1.30700
   409.60        2.32500      0.21300  -9999.00000      2.85900      1.33000
   409.80        2.72700      0.21300  -9999.00000      3.11000      1.38200
   410.00        3.24400      0.21400  -9999.00000      3.46100      1.42000
   410.20        4.39700      0.21500  -9999.00000      3.31000      1.48800
   410.40        7.40600      0.21500  -9999.00000      3.11000      1.49500
   410.60       13.02800      0.21400  -9999.00000      2.75900      1.39000
   410.80       22.91800      0.21400  -9999.00000      2.40800      1.35200
   411.00       21.62800      0.21400  -9999.00000      2.10700      1.43500
   411.20       19.82800      0.21300  -9999.00000      1.95600      1.48000
   411.40       24.99800      0.21300  -9999.00000      1.80600      1.40500
   411.60       31.06300      0.21200  -9999.00000      2.00600      1.39700
   411.80       38.59800      0.21200  -9999.00000      2.15700      1.36700
   412.00       24.63900      0.21200  -9999.00000      2.30700      1.33000
   412.20       16.90800      0.21300  -9999.00000      2.40800      1.30700
   412.40       12.11800      0.21300  -9999.00000      2.50800      1.32200
   412.60        9.33700      0.21400  -9999.00000      2.30700      1.34500
   412.80        7.73500      0.21400  -9999.00000      2.05600      1.36700
   413.00        6.88900      0.21400  -9999.00000      2.00600      1.39000
   413.20        6.40800      0.21300  -9999.00000      2.20700      1.42800
   413.40        6.13500      0.21200  -9999.00000      2.35700      1.33000
   413.60        6.04700      0.21300  -9999.00000      2.55800      1.24700
   413.80        5.87900      0.21300  -9999.00000      2.80900      1.16400
   414.00        7.19500      0.21200  -9999.00000      3.00900      1.17200
   414.20        9.61200      0.21200  -9999.00000      3.06000      1.20200
   414.40       12.84100      0.21200  -9999.00000      3.11000      1.23200
   414.60       16.42500      0.21200  -9999.00000      2.95900      1.25500
   414.80       21.01000      0.21300  -9999.00000      2.85900      1.29200
   415.00       21.62800      0.21300  -9999.00000      2.75900      1.25500
   415.20       22.91800      0.21300  -9999.00000      2.75900      1.21700
   415.40       26.10800      0.21200  -9999.00000      2.75900      1.17200
   415.60       33.88300      0.21200  -9999.00000      2.60800      1.26200
   415.80       35.90200      0.21200  -9999.00000      2.40800      1.33700
   416.00       21.31700      0.21200  -9999.00000      2.60800      1.34500
   416.20       15.27800      0.21200  -9999.00000      2.80900      1.35200
   416.40       11.60300      0.21300  -9999.00000      3.00900      1.35200
   416.60        9.20300      0.21200  -9999.00000      3.16000      1.32200
   416.80        7.12100      0.21300  -9999.00000      3.21000      1.30700
   417.00        7.00800      0.21300  -9999.00000      3.21000      1.29200
   417.20        6.79000      0.21300  -9999.00000      3.06000      1.27000
   417.40        7.19500      0.21400  -9999.00000      2.95900      1.26200
   417.60        9.33700      0.21400  -9999.00000      2.90900      1.29200
   417.80       11.11000      0.21400  -9999.00000      2.75900      1.31500
   418.00       12.65600      0.21400  -9999.00000      2.75900      1.33000
   418.20       14.00700      0.21400  -9999.00000      3.00900      1.36700
   418.40       15.50100      0.21400  -9999.00000      3.11000      1.31500
   418.60       15.05800      0.21400  -9999.00000      3.21000      1.30000
   418.80       13.60700      0.21300  -9999.00000      3.36100      1.29200
   419.00       11.60300      0.21300  -9999.00000      3.56100      1.26200
   419.20       10.33400      0.21300  -9999.00000      3.76200      1.26200
   419.40        8.81200      0.21300  -9999.00000      3.91200      1.31500
   419.60        9.89400      0.21400  -9999.00000      4.06300      1.33700
   419.80       11.43700      0.21400  -9999.00000      4.26300      1.36700
   420.00       15.50100      0.21400  -9999.00000      4.06300      1.39700
