~Version information
VERS.              2.00:   CWLS LOG ASCII STANDARD -VERSION 2.00
WRAP.                NO:   one line per depth step
~Well Information Block
#MNEM.UNIT     DATA         DESCRIPTION OF MNEMONIC
#--------  --------------   ------------------------
STRT.M                 4.20:START DEPTH
STOP.M              1057.00:STOP DEPTH
STEP.M                 0.20:STEP VALUE
NULL.           -9999.00000:NULL VALUE
WELL.                 13420:WELL NAME
FLD .             VYATSKAYA:FIELD NAME
CTRY.                RUSSIA:COUNTRY
DATE.            06.03.1988:DATE
UWI .                 13420:UNIQUE WELL IDENTIFIER
SRVC.         ÄêãÄçëäÄü èÉä:çÄáÇÄçàÖ ëÖêÇàëçéâ äéåèÄçàà Éàë
SRVC_OC.                ààí:çÄáÇÄçàÖ ëÖêÇàëçéâ äéåèÄçàà-éñàîêéÇäÄ
~Parameter Information Block
#MNEM.UNIT       Value     Description of mnemonic
#---------   -----------   ------------------------------------
EKB .M               166.47: Elevation Kelly Bushing
TDL.M                  1055: Total Depth
SCD .M          -9999.00000: Surface Casing Diameter
SCDP.M          -9999.00000: Surface Casing Depth
CD  .M                0.228: Casing Diameter
CDP .M                  400: Casing Depth
BS  .M                0.216: Bit Size
                       CLAY: Drill Fluid Type
DFD .G/CM3        1.09-1.06: Drill Fluid Density
DFV .S                19-25: Drill Fluid Viscosity
RMF.OHMM               0.07: Mud Filtrate Resistivity
MT  .C                   18: Meas Temperature
                      DRST3: Cartridge Gamma
TAU_GR.S              1.5;3: GR Time Constant
K_GK                   1500: äéùî. èÖêÖïéÑÄ
SPEED.M/H           390;780: Speed M/Hour
                     NGK_60: Probe NGR
USL_ED.IMP/MIN         5775: 1 ìëã.ÖÑ.
OTN_KNL.GR/NGR            9: éíçéòÖçàÖ äÄçÄãéÇ
TAU_NGR.S             1.5;3: NGR Time Constant
SPEED.M/H           390;780: Speed M/Hour
                        K_3: Cartridge BK
                       BK_3: Probe BK
                       USBA: Cartridge DT
                 Sonde 1.4M: Probe DT
                      SKP_1: Cartridge DS
~Curve Information Block
#MNEM.UNIT       API CODE     Curve Description
#---------    -------------   --------------------------------
DEPT.M                    :    1    DEPTH M
BK.OHMM                   :    2    LATEROLOG DEEP
DS.M                      :    3    CALIPER
DT.MCS                    :    4    DELTA TIME INTERVAL TRANSIT TIME MCSEC/M
GR.MCR/H                  :    5    GAMMA RAY MICRO_ROENTGENS PER HOUR
NGR.UE                    :    6    NEUTRON GAMMA RAY
~A DEPT.M       BK           DS           DT           GR           NGR          
# ...
   877.80        3.58100      0.21800  -9999.00000      3.30900      2.08300
   878.00        4.30600      0.21600  -9999.00000      2.91400      2.04600
   878.20        4.62200      0.21500  -9999.00000      2.66700      1.91900
   878.40        4.06900      0.21400  -9999.00000      2.76500      1.68100
   878.60        3.53100      0.21500  -9999.00000      2.66700      1.15900
   878.80        3.10800      0.21800  -9999.00000      2.96300      1.74800
   879.00        3.06500      0.22100  -9999.00000      3.35800      2.00900
   879.20        4.01100      0.22000  -9999.00000      3.80200      2.22500
   879.40        4.96100      0.22000  -9999.00000      4.09900      2.19500
   879.60        6.22400      0.21800  -9999.00000      3.90100      2.12800
   879.80        6.77600      0.21600  -9999.00000      3.55600      1.96400
   880.00        4.82300      0.21400  -9999.00000      3.45700      1.80000
   880.20        2.73600      0.21300  -9999.00000      3.11100      1.61400
   880.40        1.66600      0.21300  -9999.00000      2.61700      1.55400
   880.60        1.23700      0.21500  -9999.00000      2.27200      1.53200
   880.80        1.08900      0.21400  -9999.00000      2.42000      1.68800
   881.00        1.29100      0.21500  -9999.00000      2.61700      1.83700
   881.20        1.81400      0.21600  -9999.00000      2.71600      2.04600
   881.40        5.17700      0.21500  -9999.00000      2.61700      2.03900
   881.60        6.05000      0.21300  -9999.00000      2.56800      2.00200
   881.80        4.54100      0.21400  -9999.00000      3.11100      1.88900
   882.00        4.62200      0.21500    204.50000      3.85200      1.77800
   882.20        5.17700      0.21700    201.00000      4.93800      1.69600
   882.40        4.55700      0.21500    208.00000      5.67900      1.68100
   882.60        4.18600      0.21200    194.50000      5.92600      1.65100
   882.80        3.43200      0.21200    187.00000      4.84000      1.61400
   883.00        2.62200      0.21300    193.50000      3.65400      1.64300
   883.20        2.06100      0.21400    197.50000      2.96300      1.60600
   883.40        1.84000      0.21400    193.50000      2.61700      1.66600
   883.60        2.12000      0.21300    191.00000      2.96300      1.74000
   883.80        2.34100      0.21600    184.00000      2.76500      1.78500
   884.00        2.37500      0.21300    176.50000      2.56800      1.78500
   884.20        2.66000      0.21100    183.00000      2.91400      1.74000
   884.40        3.53100      0.21300    180.00000      3.16000      1.85200
   884.60        5.25100      0.21300    193.00000      3.50600      1.95700
   884.80        6.77600      0.21200    204.50000      3.50600      1.99400
   885.00        5.32600      0.21200    205.50000      3.40700      2.06100
   885.20        4.43000      0.21500    203.00000      3.21000      2.03900
   885.40        3.68400      0.21500    211.50000      3.01200      2.01600
   885.60        4.96100      0.21400    217.00000      2.91400      2.21000
   885.80        7.37700      0.21600    201.50000      2.86400      2.38900
   886.00        9.12500      0.21800    188.00000      3.06200      2.32600
   886.20        6.40300      0.21500    195.00000      3.55600      2.32600
   886.40        5.71700      0.21300    198.00000      4.14800      2.32200
   886.60        5.32600      0.21300    199.00000      4.44400      2.28400
   886.80        5.03200      0.21400    196.00000      3.75300      2.38900
   887.00        6.97100      0.21300    191.50000      3.35800      2.43400
   887.20        8.87000      0.21300    193.50000      3.35800      2.44800
   887.40       10.22000      0.21400    188.50000      3.85200      2.43600
   887.60        8.38100      0.21400    186.50000      3.65400      2.33700
   887.80        5.40200      0.21400    197.00000      3.85200      2.27700
   888.00        4.36700      0.21600    208.00000      4.24700      2.05300
   888.20        5.25100      0.21400    221.50000      4.49400      1.97700
   888.40        6.58700      0.21300    195.50000      4.29600      2.18000
   888.60        8.26300      0.21400    183.50000      4.00000      1.97100
   888.80        2.69800      0.21100    208.50000      3.75300      1.69600
   889.00        3.10800      0.21300    225.50000      4.09900      1.73300
   889.20        4.18600      0.21600    185.50000      4.14800      1.75500
   889.40        3.95500      0.21400    175.00000      3.35800      1.65800
   889.60        3.58100      0.21300    190.00000      2.91400      1.66600
   889.80        3.84400      0.21300    185.50000      2.66700      1.59900
   890.00        1.55200      0.21600    215.00000      2.91400      1.60200
   890.20        1.40600      0.21500    251.00000      2.66700      1.68800
   890.40        3.43200      0.21500    230.00000      2.51900      1.81500
   890.60        6.68100      0.21400    213.00000      3.01200      1.95700
   890.80       10.07600      0.21500    205.50000      3.60500      2.16500
   891.00       13.18900      0.21300    199.00000      4.93800      2.29900
   891.20        8.99600      0.21400    190.50000      4.04900      2.29200
   891.40        5.96500      0.21600    190.50000      3.16000      2.15000
   891.60        4.24500      0.21400    215.00000      2.51900      1.95700
   891.80        2.97900      0.21300    195.00000      2.07400      1.77000
   892.00        1.89300      0.21300    224.00000      2.02500      1.63600
   892.20        2.03200      0.21300    210.50000      1.92600      1.55400
   892.40        2.18100      0.21300    199.50000      2.32100      1.52400
   892.60        1.66600      0.21500    190.00000      2.76500      1.48700
   892.80        2.12000      0.21500    210.00000      3.11100      1.64300
   893.00        2.93700      0.21100    220.00000      3.30900      1.77000
   893.20        5.10400      0.21300    212.50000      3.85200      1.88900
   893.40        8.99600      0.21300    196.00000      4.39500      2.03100
   893.60       13.56800      0.21300    178.50000      4.84000      1.91200
   893.80        9.25500      0.21300    168.50000      5.08600      1.82200
   894.00        6.22400      0.21300    163.50000      4.49400      1.93400
   894.20        4.49300      0.21300    180.00000      4.24700      2.03900
   894.40        3.38400      0.21500    191.50000      4.04900      1.96400
   894.60        2.85500      0.21300    203.00000      4.44400      1.97100
   894.80        3.58100      0.21000    214.00000      5.28400      1.90400
   895.00        5.59400      0.21200    207.00000      6.66700      1.92700
   895.20        6.31300      0.21200    213.00000      8.00000      1.84500
   895.40        4.50700      0.21200    217.00000      8.69100      1.68100
   895.60        4.68800      0.21200    215.00000      5.87700      1.67300
   895.80        5.47900      0.21100    214.00000      3.90100      1.59100
   896.00        2.69800      0.21100    212.50000      3.35800      1.54700
   896.20        1.66600      0.21200    210.50000      3.70400      1.54700
   896.40        1.34700      0.21300    210.00000      3.40700      1.62900
   896.60        1.64300      0.21400    210.50000      3.25900      1.74000
   896.80        1.84000      0.21500    213.00000      3.11100      1.78500
   897.00        2.00300      0.21800    216.00000      2.81500      1.65100
   897.20        2.12000      0.21400    218.50000      2.76500      1.76300
   897.40        2.12000      0.21200    214.00000      3.01200      1.78500
   897.60        2.12000      0.21300    218.00000      3.25900      1.79300
   897.80        2.27600      0.21100    221.50000      3.60500      1.80000
   898.00        2.44300      0.21200    223.50000      3.40700      1.80000
   898.20        1.94700      0.21400    212.50000      2.96300      1.75500
   898.40        1.71400      0.21200    202.00000      2.66700      1.79300
