~Version information
VERS.              2.00:   CWLS LOG ASCII STANDARD -VERSION 2.00
WRAP.                NO:   one line per depth step
~Well Information Block
#MNEM.UNIT     DATA         DESCRIPTION OF MNEMONIC
#--------  --------------   ------------------------
STRT.M                 4.20:START DEPTH
STOP.M              1057.00:STOP DEPTH
STEP.M                 0.20:STEP VALUE
NULL.           -9999.00000:NULL VALUE
WELL.                 13420:WELL NAME
FLD .             VYATSKAYA:FIELD NAME
CTRY.                RUSSIA:COUNTRY
DATE.            06.03.1988:DATE
UWI .                 13420:UNIQUE WELL IDENTIFIER
SRVC.         ÄêãÄçëäÄü èÉä:çÄáÇÄçàÖ ëÖêÇàëçéâ äéåèÄçàà Éàë
SRVC_OC.                ààí:çÄáÇÄçàÖ ëÖêÇàëçéâ äéåèÄçàà-éñàîêéÇäÄ
~Parameter Information Block
#MNEM.UNIT       Value     Description of mnemonic
#---------   -----------   ------------------------------------
EKB .M               166.47: Elevation Kelly Bushing
TDL.M                  1055: Total Depth
SCD .M          -9999.00000: Surface Casing Diameter
SCDP.M          -9999.00000: Surface Casing Depth
CD  .M                0.228: Casing Diameter
CDP .M                  400: Casing Depth
BS  .M                0.216: Bit Size
                       CLAY: Drill Fluid Type
DFD .G/CM3        1.09-1.06: Drill Fluid Density
DFV .S                19-25: Drill Fluid Viscosity
RMF.OHMM               0.07: Mud Filtrate Resistivity
MT  .C                   18: Meas Temperature
                      DRST3: Cartridge Gamma
TAU_GR.S              1.5;3: GR Time Constant
K_GK                   1500: äéùî. èÖêÖïéÑÄ
SPEED.M/H           390;780: Speed M/Hour
                     NGK_60: Probe NGR
USL_ED.IMP/MIN         5775: 1 ìëã.ÖÑ.
OTN_KNL.GR/NGR            9: éíçéòÖçàÖ äÄçÄãéÇ
TAU_NGR.S             1.5;3: NGR Time Constant
SPEED.M/H           390;780: Speed M/Hour
                        K_3: Cartridge BK
                       BK_3: Probe BK
                       USBA: Cartridge DT
                 Sonde 1.4M: Probe DT
                      SKP_1: Cartridge DS
~Curve Information Block
#MNEM.UNIT       API CODE     Curve Description
#---------    -------------   --------------------------------
DEPT.M                    :    1    DEPTH M
BK.OHMM                   :    2    LATEROLOG DEEP
DS.M                      :    3    CALIPER
DT.MCS                    :    4    DELTA TIME INTERVAL TRANSIT TIME MCSEC/M
GR.MCR/H                  :    5    GAMMA RAY MICRO_ROENTGENS PER HOUR
NGR.UE                    :    6    NEUTRON GAMMA RAY
~A DEPT.M       BK           DS           DT           GR           NGR          
# ...
   690.60       28.47100      0.21200  -9999.00000      3.11000      1.77400
   690.80        6.04700      0.21300  -9999.00000      3.11000      1.81100
   691.00        6.13500      0.21300  -9999.00000      3.06000      1.84100
   691.20        7.40600      0.21300  -9999.00000      3.06000      1.87900
   691.40        5.15700      0.21200  -9999.00000      3.06000      1.78900
   691.60        3.69600      0.21000  -9999.00000      3.00900      1.72100
   691.80        2.39300      0.21000  -9999.00000      2.95900      1.75100
   692.00        3.53900      0.21000  -9999.00000      2.95900      1.81900
   692.20        4.93700      0.21200  -9999.00000      2.95900      1.89400
   692.40       12.29500      0.21400  -9999.00000      2.95900      1.95400
   692.60       31.98300      0.21200  -9999.00000      3.11000      2.06700
   692.80       54.64300      0.21100  -9999.00000      3.16000      2.24000
   693.00       46.59600      0.21100  -9999.00000      3.31000      2.48100
   693.20       39.16300      0.21000  -9999.00000      3.46100      2.69900
   693.40       35.38800      0.21100  -9999.00000      3.71200      2.66100
   693.60       45.27000      0.21100  -9999.00000      4.11300      2.60100
   693.80       57.90200      0.21200  -9999.00000      4.66500      2.54100
   694.00       50.82600      0.21200  -9999.00000      5.36700      2.48100
   694.20       45.26600      0.21100  -9999.00000      5.26600      2.42800
   694.40       33.88300      0.21100  -9999.00000      4.96600      2.42100
   694.60       25.73100      0.21000  -9999.00000      4.46400      2.41300
   694.80       19.54300      0.20900  -9999.00000      3.96200      2.41300
   695.00       22.58800      0.20800  -9999.00000      3.66100      2.40600
   695.20       33.88300      0.20800  -9999.00000      3.56100      2.39800
   695.40       36.42800      0.20700  -9999.00000      3.71200      2.39800
   695.60       37.49900      0.20800  -9999.00000      3.86200      2.39100
   695.80       39.73400      0.20800  -9999.00000      4.01300      2.38300
   696.00       42.71800      0.20900  -9999.00000      4.16300      2.29300
   696.20       52.32000      0.21000  -9999.00000      4.06300      2.21800
   696.40       35.38800      0.21100  -9999.00000      3.86200      2.11200
   696.60       14.41900      0.21000  -9999.00000      4.61400      2.01400
   696.80       16.18900      0.21000  -9999.00000      5.41700      1.94700
   697.00       20.41100      0.21100  -9999.00000      5.81800      1.88700
   697.20       27.66500      0.21100  -9999.00000      5.16600      1.85600
   697.40       17.91600      0.21100  -9999.00000      4.56400      1.81900
   697.60       14.21000      0.21100  -9999.00000      4.66500      1.79600
   697.80       10.33400      0.21100  -9999.00000      4.81500      1.76600
   698.00       10.48400      0.21000  -9999.00000      4.96600      1.76600
   698.20       11.11000      0.20900  -9999.00000      5.11600      1.87900
   698.40       13.41100      0.20900  -9999.00000      5.41700      1.91700
   698.60       17.15600      0.21000  -9999.00000      5.21600      1.93200
   698.80       21.31700      0.21000  -9999.00000      5.01600      1.93200
   699.00       17.91600      0.21000  -9999.00000      4.86500      1.92400
   699.20       15.50100      0.21000  -9999.00000      4.71500      1.91700
   699.40       13.41100      0.21000  -9999.00000      4.66500      1.90900
   699.60       11.60200      0.21100  -9999.00000      4.61400      1.89400
   699.80        9.20300      0.21200  -9999.00000      4.56400      1.90200
   700.00       11.27200      0.21200  -9999.00000      4.71500      1.90900
   700.20       14.00700      0.21200  -9999.00000      4.86500      1.93200
   700.40       18.17800      0.21200  -9999.00000      5.01600      1.96900
   700.60       12.65500      0.21200  -9999.00000      5.26600      1.99900
   700.80        8.81200      0.21100  -9999.00000      5.56700      2.01400
   701.00       10.03900      0.21000  -9999.00000      5.76800      2.02900
   701.20       12.65600      0.21000  -9999.00000      6.01900      2.04500
   701.40       15.50100      0.20900  -9999.00000      6.21900      2.02200
   701.60       13.41100      0.20900  -9999.00000      6.27000      1.99900
   701.80       11.94400      0.20800  -9999.00000      6.01900      1.98400
   702.00       12.65600      0.20800  -9999.00000      5.81800      1.96200
   702.20       14.84200      0.20900  -9999.00000      5.56700      1.94700
   702.40       15.27800      0.20900  -9999.00000      5.36700      1.91700
   702.60       11.77100      0.21000  -9999.00000      5.16600      1.87900
   702.80        8.94000      0.21100  -9999.00000      4.71500      1.87900
   703.00        8.81200      0.21100  -9999.00000      4.96600      1.93900
   703.20       10.03900      0.21100  -9999.00000      5.51700      1.96900
   703.40       10.48400      0.21000  -9999.00000      6.21900      2.01400
   703.60       11.11000      0.21000  -9999.00000      6.32000      1.99200
   703.80       10.48400      0.21000  -9999.00000      6.16900      1.99900
   704.00        9.47400      0.21000  -9999.00000      6.06900      2.00700
   704.20        8.68500      0.21000  -9999.00000      6.01900      2.04500
   704.40        7.62400      0.21000  -9999.00000      5.81800      2.02200
   704.60       13.21900      0.21100  -9999.00000      5.51700      1.99900
   704.80       17.91600      0.21300  -9999.00000      5.21600      1.96900
   705.00       22.58800      0.21300  -9999.00000      4.96600      1.99900
   705.20       26.48900      0.21200  -9999.00000      4.76500      2.07500
   705.40       31.06300      0.21100  -9999.00000      4.56400      2.05200
   705.60       23.25000      0.21100  -9999.00000      4.66500      1.92400
   705.80       16.66500      0.21100  -9999.00000      4.71500      1.87100
   706.00       10.79300      0.21000  -9999.00000      4.76500      1.82600
   706.20        7.40600      0.21100  -9999.00000      4.81500      1.76600
   706.40        5.15700      0.21200  -9999.00000      4.86500      1.75900
   706.60        8.08000      0.21000  -9999.00000      4.86500      1.80400
   706.80       12.84100      0.20900  -9999.00000      4.81500      1.81900
   707.00       10.33400      0.20900  -9999.00000      4.76500      1.84100
   707.20        8.81200      0.20900  -9999.00000      4.76500      1.87900
   707.40        7.62400      0.20900  -9999.00000      4.71500      1.86400
   707.60        6.50100      0.20900  -9999.00000      4.56400      1.85600
   707.80        5.79000      0.20900  -9999.00000      4.36400      1.84900
   708.00        8.19600      0.21000  -9999.00000      4.21300      1.83400
   708.20       10.95000      0.21000  -9999.00000      4.66500      2.13500
   708.40       14.84200      0.21000  -9999.00000      5.21600      2.24000
   708.60       19.26400      0.21100  -9999.00000      5.97000      2.31500
   708.80       26.48900      0.21200  -9999.00000      8.82800      2.40600
   709.00       28.06900      0.21300  -9999.00000      8.57700      2.31500
   709.20       23.59100      0.21000  -9999.00000      7.67400      2.21000
   709.40       21.31700      0.20800  -9999.00000      6.87100      2.12700
   709.60       24.64000      0.20900  -9999.00000      6.01900      1.84900
   709.80       26.87500      0.20900  -9999.00000      5.26600      1.93900
   710.00       29.31500      0.20900  -9999.00000      4.86500      2.04500
   710.20       32.44300      0.20900  -9999.00000      5.01600      2.15700
   710.40       35.38800      0.21000  -9999.00000      5.11600      2.22500
   710.60       38.04600      0.20900  -9999.00000      5.46700      2.27800
   710.80       42.71800      0.20900  -9999.00000      6.42000      2.22500
   711.00       22.58800      0.20900  -9999.00000      6.62100      2.10500
   711.20       14.41800      0.20900  -9999.00000      5.61800      1.99200
