~Version information
VERS.              2.00:   CWLS LOG ASCII STANDARD -VERSION 2.00
WRAP.                NO:   one line per depth step
~Well Information Block
#MNEM.UNIT     DATA         DESCRIPTION OF MNEMONIC
#--------  --------------   ------------------------
STRT.M                 3.40:START DEPTH
STOP.M              1049.40:STOP DEPTH
STEP.M                 0.20:STEP VALUE
NULL.           -9999.00000:NULL VALUE
WELL.                 13421:WELL NAME
FLD .             VYATSKAYA:FIELD NAME
CTRY.                RUSSIA:COUNTRY
DATE.            31.01.1988:DATE
UWI .                 13421:UNIQUE WELL IDENTIFIER
SRVC.         ÄêãÄçëäÄü èÉä:çÄáÇÄçàÖ ëÖêÇàëçéâ äéåèÄçàà Éàë
SRVC_OC.                ààí:çÄáÇÄçàÖ ëÖêÇàëçéâ äéåèÄçàà-éñàîêéÇäÄ
~Parameter Information Block
#MNEM.UNIT       Value     Description of mnemonic
#---------   -----------   ------------------------------------
EKB .M               167.49: Elevation Kelly Bushing
TDL.M                  1050: Total Depth
SCD .M          -9999.00000: Surface Casing Diameter
SCDP.M          -9999.00000: Surface Casing Depth
CD  .M                0.228: Casing Diameter
CDP .M                  408: Casing Depth
BS  .M                0.216: Bit Size
                       CLAY: Drill Fluid Type
DFD .G/CM3        1.08-1.12: Drill Fluid Density
DFV .S                22-26: Drill Fluid Viscosity
RMF.OHMM               0.07: Mud Filtrate Resistivity
MT  .C                   18: Meas Temperature
                      DRST3: Cartridge Gamma
TAU_GR.S              1.5;3: GR Time Constant
K_GK                   1500: äéùî. èÖêÖïéÑÄ
SPEED.M/H               690: Speed M/Hour
                     NGK_60: Probe NGR
USL_ED.IMP/MIN         5775: 1 ìëã.ÖÑ.
OTN_KNL.GR/NGR            9: éíçéòÖçàÖ äÄçÄãéÇ
TAU_NGR.S             1.5;3: NGR Time Constant
SPEED.M/H               690: Speed M/Hour
                        K_3: Cartridge BK
                       BK_3: Probe BK
                       USBA: Cartridge DT
                 Sonde 1.4M: Probe DT
                      SKP_1: Cartridge DS
~Curve Information Block
#MNEM.UNIT       API CODE     Curve Description
#---------    -------------   --------------------------------
DEPT.M                    :    1    DEPTH M
BK.OHMM                   :    2    LATEROLOG DEEP
DS.M                      :    3    CALIPER
DT.MCS                    :    4    DELTA TIME INTERVAL TRANSIT TIME MCSEC/M
GR.MCR/H                  :    5    GAMMA RAY MICRO_ROENTGENS PER HOUR
NGR.UE                    :    6    NEUTRON GAMMA RAY
~A DEPT.M       BK           DS           DT           GR           NGR          
# ...
   689.80       73.60200      0.21800  -9999.00000      4.25000      2.51300
   690.00      135.66600      0.21800  -9999.00000      4.60000      2.52000
   690.20      166.23500      0.21800  -9999.00000      5.05000      2.37600
   690.40      174.65900      0.21800  -9999.00000      5.35000      2.34500
   690.60       18.14100      0.22000  -9999.00000      4.80000      2.52800
   690.80        9.34000      0.22000  -9999.00000      4.35000      2.52000
   691.00       16.88000      0.22000  -9999.00000      3.90000      2.29200
   691.20       13.39900      0.22000  -9999.00000      3.35000      2.15500
   691.40        3.07300      0.22000  -9999.00000      3.10000      2.03300
   691.60       10.96300      0.22000  -9999.00000      3.95000      1.94100
   691.80       64.63400      0.22000  -9999.00000      4.80000      1.81200
   692.00       57.58400      0.22000  -9999.00000      5.65000      1.94900
   692.20       46.37200      0.21900  -9999.00000      6.35000      2.17000
   692.40       31.40300      0.21800  -9999.00000      7.25000      2.16200
   692.60       42.53100      0.21800  -9999.00000      7.20000      2.16200
   692.80       62.79400      0.21700  -9999.00000      6.75000      2.17000
   693.00       73.60200      0.21700  -9999.00000      6.70000      2.22300
   693.20       13.59400      0.21800  -9999.00000      6.65000      2.23800
   693.40        7.96800      0.22000  -9999.00000      6.45000      2.07100
   693.60        5.02000      0.22000  -9999.00000      6.25000      1.96400
   693.80        3.40000      0.22100  -9999.00000      5.75000      1.85000
   694.00        2.58400      0.22300  -9999.00000      6.20000      1.75800
   694.20        1.85400      0.22300  -9999.00000      6.70000      1.72800
   694.40        3.60200      0.22200  -9999.00000      7.50000      1.57500
   694.60       11.26800      0.22100  -9999.00000      7.00000      1.74300
   694.80       13.81100      0.22200  -9999.00000      6.10000      1.92600
   695.00       13.59400      0.22200  -9999.00000      5.25000      1.97200
   695.20       19.50200      0.22200  -9999.00000      4.50000      1.98700
   695.40       70.48200      0.22100  -9999.00000      4.00000      2.01000
   695.60      102.57200      0.22000  -9999.00000      3.60000      2.11700
   695.80       56.75900      0.21900  -9999.00000      3.10000      2.18500
   696.00       18.67500      0.22100  -9999.00000      3.00000      2.29900
   696.20        8.94400      0.22500  -9999.00000      3.27700      2.17000
   696.40        3.87100      0.22500  -9999.00000      3.58000      2.05600
   696.60        5.39700      0.22600  -9999.00000      3.69400      1.97200
   696.80        7.30400      0.22600  -9999.00000      3.90200      1.81200
   697.00        7.30400      0.22800  -9999.00000      3.20100      1.82700
   697.20        4.22200      0.23000  -9999.00000      3.20100      1.82700
   697.40        2.43900      0.23500  -9999.00000      3.20100      1.81900
   697.60        3.17100      0.23600  -9999.00000      3.70000      1.93400
   697.80       29.21700      0.22800  -9999.00000      4.05000      1.96400
   698.00       28.79800      0.22500  -9999.00000      4.50000      1.85700
   698.20       24.56900      0.22200  -9999.00000      5.00000      1.81200
   698.40       22.53100      0.22200  -9999.00000      5.35000      1.91100
   698.60       21.59500      0.22200  -9999.00000      5.55000      2.05600
   698.80       83.81400      0.22300  -9999.00000      5.10000      1.92600
   699.00       91.85900      0.22300  -9999.00000      4.45000      1.90300
   699.20       92.36500      0.22300  -9999.00000      4.80000      2.00200
   699.40       15.70500      0.22300  -9999.00000      5.10000      1.91800
   699.60       12.23900      0.22100  -9999.00000      5.51400      1.81900
   699.80       14.35300      0.22100  -9999.00000      5.75000      1.77400
   700.00       21.90700      0.22400  -9999.00000      4.05000      2.01700
   700.20        6.79800      0.22400  -9999.00000      3.55000      2.24600
   700.40        4.47300      0.22600  -9999.00000      2.95000      2.48200
   700.60        3.07800      0.22900  -9999.00000      3.35000      2.25400
   700.80       18.40800      0.22600  -9999.00000      3.85000      2.07800
   701.00       62.79400      0.22300  -9999.00000      3.82700      1.91100
   701.20       43.77000      0.22100  -9999.00000      3.70000      1.84200
   701.40       26.79200      0.22100  -9999.00000      3.10000      1.97900
   701.60       16.63600      0.22200  -9999.00000      3.50000      1.98700
   701.80       10.18500      0.22300  -9999.00000      4.05000      2.06300
   702.00       11.76600      0.22300  -9999.00000      4.60000      2.29200
   702.20       24.92700      0.22100  -9999.00000      5.40000      2.22300
   702.40       18.67500      0.22000  -9999.00000      4.80000      2.13200
   702.60       14.40300      0.22100  -9999.00000      4.25000      2.04000
   702.80       18.14400      0.22100  -9999.00000      3.50000      1.97200
   703.00       44.49200      0.22100  -9999.00000      3.65000      1.91100
   703.20       31.86000      0.22200  -9999.00000      3.80000      1.83500
   703.40       11.59800      0.22100  -9999.00000      3.95000      1.63600
   703.60        8.85200      0.22100  -9999.00000      4.18700      1.69700
   703.80       18.14400      0.22000  -9999.00000      3.00000      1.81900
   704.00       29.64100      0.22100  -9999.00000      3.05000      1.94100
   704.20       47.04700      0.22100  -9999.00000      3.35000      2.01000
   704.40       34.24500      0.22200  -9999.00000      3.30000      2.07800
   704.60       30.51300      0.22200  -9999.00000      3.45000      2.23800
   704.80       40.13900      0.22200  -9999.00000      3.60000      2.34500
   705.00       48.42500      0.22200  -9999.00000      3.90000      2.35300
   705.20       61.89400      0.22100  -9999.00000      4.20000      2.42100
   705.40       43.77000      0.22100  -9999.00000      4.60000      2.42900
   705.60       29.64000      0.22100  -9999.00000      3.80000      2.11700
   705.80       26.03000      0.22200  -9999.00000      3.45000      1.98700
   706.00       44.40700      0.22300  -9999.00000      4.00000      1.97900
   706.20       54.51700      0.22500  -9999.00000      4.85000      2.32200
   706.40       53.57400      0.22500  -9999.00000      5.85000      2.33000
   706.60        9.75400      0.22200  -9999.00000      5.35000      2.07800
   706.80       12.64700      0.22000  -9999.00000      4.95000      1.94900
   707.00       11.43100      0.21800  -9999.00000      4.60000      1.85700
   707.20       10.33300      0.21600  -9999.00000      4.40000      1.75100
   707.40       13.39900      0.21600  -9999.00000      5.20000      1.79600
   707.60       15.70600      0.21600  -9999.00000      6.55000      1.83500
   707.80       19.22200      0.21600  -9999.00000      7.10000      1.89600
   708.00       15.48000      0.21600  -9999.00000      7.80000      2.01000
   708.20        8.68900      0.21700  -9999.00000      7.60000      1.94100
   708.40       15.25800      0.21700  -9999.00000      6.90000      1.82700
   708.60       23.19500      0.21700  -9999.00000      6.35000      1.91100
   708.80       35.24800      0.21700  -9999.00000      5.95000      2.01000
   709.00       26.79200      0.21700  -9999.00000      4.95000      2.09400
   709.20       31.40300      0.21600  -9999.00000      5.05000      2.19300
   709.40       41.31400      0.21600  -9999.00000      5.30000      2.10900
   709.60       32.79400      0.21600  -9999.00000      5.20000      2.11700
   709.80       36.80800      0.21600  -9999.00000      4.80000      2.11700
   710.00       34.74300      0.21600  -9999.00000      3.80000      1.90300
   710.20       28.79800      0.21600  -9999.00000      4.00000      1.82700
   710.40       26.40800      0.21600  -9999.00000      4.05000      1.79600
