~Version information
VERS.              2.00:   CWLS LOG ASCII STANDARD -VERSION 2.00
WRAP.                NO:   one line per depth step
~Well Information Block
#MNEM.UNIT     DATA         DESCRIPTION OF MNEMONIC
#--------  --------------   ------------------------
STRT.M                 3.40:START DEPTH
STOP.M              1049.40:STOP DEPTH
STEP.M                 0.20:STEP VALUE
NULL.           -9999.00000:NULL VALUE
WELL.                 13421:WELL NAME
FLD .             VYATSKAYA:FIELD NAME
CTRY.                RUSSIA:COUNTRY
DATE.            31.01.1988:DATE
UWI .                 13421:UNIQUE WELL IDENTIFIER
SRVC.         ÄêãÄçëäÄü èÉä:çÄáÇÄçàÖ ëÖêÇàëçéâ äéåèÄçàà Éàë
SRVC_OC.                ààí:çÄáÇÄçàÖ ëÖêÇàëçéâ äéåèÄçàà-éñàîêéÇäÄ
~Parameter Information Block
#MNEM.UNIT       Value     Description of mnemonic
#---------   -----------   ------------------------------------
EKB .M               167.49: Elevation Kelly Bushing
TDL.M                  1050: Total Depth
SCD .M          -9999.00000: Surface Casing Diameter
SCDP.M          -9999.00000: Surface Casing Depth
CD  .M                0.228: Casing Diameter
CDP .M                  408: Casing Depth
BS  .M                0.216: Bit Size
                       CLAY: Drill Fluid Type
DFD .G/CM3        1.08-1.12: Drill Fluid Density
DFV .S                22-26: Drill Fluid Viscosity
RMF.OHMM               0.07: Mud Filtrate Resistivity
MT  .C                   18: Meas Temperature
                      DRST3: Cartridge Gamma
TAU_GR.S              1.5;3: GR Time Constant
K_GK                   1500: äéùî. èÖêÖïéÑÄ
SPEED.M/H               690: Speed M/Hour
                     NGK_60: Probe NGR
USL_ED.IMP/MIN         5775: 1 ìëã.ÖÑ.
OTN_KNL.GR/NGR            9: éíçéòÖçàÖ äÄçÄãéÇ
TAU_NGR.S             1.5;3: NGR Time Constant
SPEED.M/H               690: Speed M/Hour
                        K_3: Cartridge BK
                       BK_3: Probe BK
                       USBA: Cartridge DT
                 Sonde 1.4M: Probe DT
                      SKP_1: Cartridge DS
~Curve Information Block
#MNEM.UNIT       API CODE     Curve Description
#---------    -------------   --------------------------------
DEPT.M                    :    1    DEPTH M
BK.OHMM                   :    2    LATEROLOG DEEP
DS.M                      :    3    CALIPER
DT.MCS                    :    4    DELTA TIME INTERVAL TRANSIT TIME MCSEC/M
GR.MCR/H                  :    5    GAMMA RAY MICRO_ROENTGENS PER HOUR
NGR.UE                    :    6    NEUTRON GAMMA RAY
~A DEPT.M       BK           DS           DT           GR           NGR          
# ...
   814.60        1.59300      0.22000  -9999.00000     10.60000      1.49200
   814.80        1.35000      0.22000  -9999.00000     10.70000      1.56800
   815.00        3.40000      0.22100  -9999.00000     10.15000      1.60600
   815.20       13.59400      0.22100  -9999.00000      9.10000      2.08600
   815.40       20.07300      0.22100  -9999.00000      6.10000      2.47500
   815.60       24.21700      0.22000  -9999.00000      5.55000      2.55100
   815.80       23.87000      0.22000  -9999.00000      5.15000      2.68700
   816.00       19.78600      0.22000  -9999.00000      4.25000      2.68700
   816.20       13.20700      0.21900  -9999.00000      3.65000      2.52800
   816.40        8.94400      0.21900  -9999.00000      3.25000      2.23800
   816.60        5.39600      0.21900  -9999.00000      2.95000      2.17700
   816.80        5.71700      0.21900  -9999.00000      2.70000      2.23100
   817.00        6.99700      0.21900  -9999.00000      2.50000      2.29200
   817.20        7.63000      0.21900  -9999.00000      2.05000      2.15500
   817.40        7.74100      0.21900  -9999.00000      2.25000      2.14700
   817.60        6.60500      0.21900  -9999.00000      2.30000      2.35300
   817.80        5.97000      0.21900  -9999.00000      3.30000      2.36800
   818.00       10.63500      0.21900  -9999.00000      6.55000      2.37600
   818.20       13.79100      0.21900  -9999.00000      7.30000      2.25400
   818.40       14.40200      0.21900  -9999.00000      7.60000      2.06300
   818.60        6.41600      0.21900  -9999.00000      7.10000      1.90300
   818.80        3.40000      0.21900  -9999.00000      5.60000      1.80400
   819.00        2.26900      0.21900  -9999.00000      4.65000      1.72000
   819.20        1.70000      0.21900  -9999.00000      3.95000      1.65200
   819.40        1.47200      0.21900  -9999.00000      4.95000      1.59800
   819.60        1.37100      0.21900  -9999.00000      5.60000      1.40000
   819.80        8.81600      0.21900  -9999.00000      6.30000      1.67500
   820.00       21.57600      0.21900  -9999.00000      4.75000      2.26100
   820.20       23.52800      0.21900  -9999.00000      4.00000      2.74700
   820.40       24.21700      0.21900  -9999.00000      4.30000      2.74400
   820.60       20.36400      0.21900  -9999.00000      4.80000      2.74400
   820.80       17.62800      0.22000  -9999.00000      5.70000      2.59700
   821.00        3.55000      0.22000  -9999.00000      6.00000      2.49300
   821.20        2.43900      0.22100  -9999.00000      4.50000      2.09400
   821.40        1.90800      0.22100  -9999.00000      4.70000      1.88000
   821.60        1.51500      0.22200  -9999.00000      5.05000      1.72000
   821.80        1.25600      0.22100  -9999.00000      5.40000      1.65200
   822.00        1.01100      0.22100  -9999.00000      4.65000      1.53000
   822.20        1.07100      0.22100  -9999.00000      3.90000      1.49900
   822.40        1.05600      0.22100  -9999.00000      3.10000      1.42300
   822.60        0.99700      0.22100  -9999.00000      3.20000      1.52200
   822.80        0.95400      0.22100  -9999.00000      3.80000      1.58300
   823.00        1.01100      0.22000  -9999.00000      3.60000      1.50700
   823.20        1.18500      0.21900  -9999.00000      3.45000      1.59100
   823.40        1.38900      0.21900  -9999.00000      3.35000      1.63600
   823.60        1.53700      0.21800  -9999.00000      4.30000      1.58300
   823.80        1.55900      0.21800  -9999.00000      5.00000      1.55300
   824.00        2.20500      0.21900  -9999.00000      5.45000      2.04800
   824.20       29.74900      0.21800  -9999.00000      3.25000      2.47500
   824.40       13.79100      0.21800  -9999.00000      3.45000      2.61900
   824.60        5.47400      0.21800  -9999.00000      3.75000      2.67300
   824.80        3.49900      0.21700  -9999.00000      3.90000      2.04800
   825.00       14.61100      0.21700  -9999.00000      3.95000      1.89600
   825.20       22.53100      0.21800  -9999.00000      3.80000      1.80400
   825.40       23.87000      0.21800  -9999.00000      4.10000      1.67500
   825.60       11.59700      0.21900  -9999.00000      3.30000      2.08600
   825.80        7.74100      0.21900  -9999.00000      2.70000      2.52000
   826.00        6.05700      0.21900  -9999.00000      1.95000      2.33000
   826.20        6.23400      0.21800  -9999.00000      2.05000      2.18500
   826.40       10.79000      0.21800  -9999.00000      2.35000      2.10100
   826.60       10.48100      0.21700  -9999.00000      2.65000      2.27700
   826.80        4.60400      0.21700  -9999.00000      2.75000      2.26100
   827.00        2.73800      0.21700  -9999.00000      2.55000      1.99500
   827.20        1.80100      0.21700  -9999.00000      2.35000      1.76600
   827.40        2.66000      0.21700  -9999.00000      2.55000      1.59100
   827.60        3.44900      0.21700  -9999.00000      2.75000      1.63600
   827.80        4.87700      0.21700  -9999.00000      2.55000      1.80400
   828.00        3.40000      0.21700  -9999.00000      2.40000      1.78900
   828.20        2.08100      0.21700  -9999.00000      1.90000      1.62100
   828.40        2.37000      0.21700  -9999.00000      2.05000      1.52200
   828.60        3.49900      0.21700  -9999.00000      2.55000      1.40800
   828.80        3.20900      0.21700  -9999.00000      2.25000      1.48400
   829.00        2.30200      0.21800  -9999.00000      2.00000      1.62100
   829.20        1.67600      0.21800  -9999.00000      2.35000      1.50700
   829.40        1.93600      0.21900  -9999.00000      2.65000      1.49900
   829.60        2.14200      0.21900  -9999.00000      3.05000      1.57500
   829.80        1.93600      0.21900  -9999.00000      3.90000      1.44600
   830.00        1.99300      0.21900  -9999.00000      3.80000      1.52200
   830.20        2.08100      0.21900  -9999.00000      3.60000      1.72000
   830.40        2.23700      0.21900  -9999.00000      3.15000      1.86500
   830.60        2.40400      0.21900  -9999.00000      2.55000      2.01700
   830.80        2.66000      0.21900  -9999.00000      2.75000      1.99500
   831.00        2.94300      0.21800  -9999.00000      2.90000      1.85000
   831.20        4.87700      0.21800  -9999.00000      3.05000      1.81200
   831.40        5.97000      0.21800  -9999.00000      3.45000      1.77400
   831.60        2.81800      0.21800  -9999.00000      4.00000      1.97200
   831.80        2.30200      0.21800  -9999.00000      4.60000      1.96400
   832.00        4.22200      0.21800  -9999.00000      4.40000      1.91800
   832.20        4.53800      0.21900  -9999.00000      3.75000      1.85700
   832.40        4.53800      0.21900  -9999.00000      3.10000      1.75100
   832.60        1.55900      0.21800  -9999.00000      2.70000      1.85700
   832.80        1.15100      0.21800  -9999.00000      2.40000      1.72800
   833.00        0.94100      0.21800  -9999.00000      2.50000      1.59800
   833.20        0.91400      0.21800  -9999.00000      2.65000      1.49900
   833.40        1.11900      0.21900  -9999.00000      2.95000      1.43100
   833.60        1.13500      0.21900  -9999.00000      2.75000      1.54500
   833.80        1.02600      0.21800  -9999.00000      2.40000      1.60600
   834.00        0.99700      0.21800  -9999.00000      2.45000      1.50700
   834.20        0.95400      0.21800  -9999.00000      2.60000      1.36200
   834.40        0.94100      0.21900  -9999.00000      3.05000      1.48400
   834.60        2.20500      0.21900  -9999.00000      2.65000      1.55300
   834.80        3.11800      0.21900  -9999.00000      2.45000      1.61400
   835.00        3.49900      0.21900  -9999.00000      2.50000      1.65900
   835.20        3.02900      0.21900  -9999.00000      2.90000      1.69700
