~Version information
VERS.              2.00:   CWLS LOG ASCII STANDARD -VERSION 2.00
WRAP.                NO:   one line per depth step
~Well Information Block
#MNEM.UNIT     DATA         DESCRIPTION OF MNEMONIC
#--------  --------------   ------------------------
STRT.M                 3.40:START DEPTH
STOP.M              1049.40:STOP DEPTH
STEP.M                 0.20:STEP VALUE
NULL.           -9999.00000:NULL VALUE
WELL.                 13421:WELL NAME
FLD .             VYATSKAYA:FIELD NAME
CTRY.                RUSSIA:COUNTRY
DATE.            31.01.1988:DATE
UWI .                 13421:UNIQUE WELL IDENTIFIER
SRVC.         ÄêãÄçëäÄü èÉä:çÄáÇÄçàÖ ëÖêÇàëçéâ äéåèÄçàà Éàë
SRVC_OC.                ààí:çÄáÇÄçàÖ ëÖêÇàëçéâ äéåèÄçàà-éñàîêéÇäÄ
~Parameter Information Block
#MNEM.UNIT       Value     Description of mnemonic
#---------   -----------   ------------------------------------
EKB .M               167.49: Elevation Kelly Bushing
TDL.M                  1050: Total Depth
SCD .M          -9999.00000: Surface Casing Diameter
SCDP.M          -9999.00000: Surface Casing Depth
CD  .M                0.228: Casing Diameter
CDP .M                  408: Casing Depth
BS  .M                0.216: Bit Size
                       CLAY: Drill Fluid Type
DFD .G/CM3        1.08-1.12: Drill Fluid Density
DFV .S                22-26: Drill Fluid Viscosity
RMF.OHMM               0.07: Mud Filtrate Resistivity
MT  .C                   18: Meas Temperature
                      DRST3: Cartridge Gamma
TAU_GR.S              1.5;3: GR Time Constant
K_GK                   1500: äéùî. èÖêÖïéÑÄ
SPEED.M/H               690: Speed M/Hour
                     NGK_60: Probe NGR
USL_ED.IMP/MIN         5775: 1 ìëã.ÖÑ.
OTN_KNL.GR/NGR            9: éíçéòÖçàÖ äÄçÄãéÇ
TAU_NGR.S             1.5;3: NGR Time Constant
SPEED.M/H               690: Speed M/Hour
                        K_3: Cartridge BK
                       BK_3: Probe BK
                       USBA: Cartridge DT
                 Sonde 1.4M: Probe DT
                      SKP_1: Cartridge DS
~Curve Information Block
#MNEM.UNIT       API CODE     Curve Description
#---------    -------------   --------------------------------
DEPT.M                    :    1    DEPTH M
BK.OHMM                   :    2    LATEROLOG DEEP
DS.M                      :    3    CALIPER
DT.MCS                    :    4    DELTA TIME INTERVAL TRANSIT TIME MCSEC/M
GR.MCR/H                  :    5    GAMMA RAY MICRO_ROENTGENS PER HOUR
NGR.UE                    :    6    NEUTRON GAMMA RAY
~A DEPT.M       BK           DS           DT           GR           NGR          
# ...
   897.80        3.54000      0.21600    185.53500      3.75600      1.67800
   898.00        2.78300      0.21600    192.07500      3.29300      1.80400
   898.20        2.41700      0.21900    188.05000      3.91000      1.78200
   898.40        5.15700      0.22100    185.03100      4.83600      1.85100
   898.60        8.34800      0.21800    210.18900      7.51100      1.72200
   898.80        7.40100      0.21600    229.30800      9.92900      1.66300
   899.00        5.00400      0.21400    225.78600     10.39200      1.72200
   899.20        3.28400      0.21600    218.74200      5.50500      1.82600
   899.40        2.28800      0.21600    216.22600      4.57900      1.64100
   899.60        1.56400      0.21600    235.34600      3.91000      1.67800
   899.80        1.80500      0.21600    222.26400      4.01300      1.72200
   900.00        2.39400      0.21600    197.61000      4.16700      1.58200
   900.20        2.51200      0.21700    214.21400      3.80700      1.73000
   900.40        2.12900      0.21600    224.78000      3.91000      1.72200
   900.60        2.33800      0.21700    218.74200      3.03500      1.78200
   900.80        2.15300      0.21600    212.20100      2.88100      1.74500
   901.00        2.35800      0.21700    205.15700      3.24100      1.68300
   901.20        2.74100      0.21700    201.13200      3.49800      1.81800
   901.40        3.29000      0.21700    199.62300      3.85900      1.78900
   901.60        2.32300      0.21600    198.11300      3.34400      1.77400
   901.80        1.84500      0.21700    215.22000      2.72700      1.85500
   902.00        2.78300      0.21900    209.18200      2.57200      1.93700
   902.20        4.17800      0.21800    204.65400      2.67500      1.87800
   902.40        3.33300      0.21600    240.37700      3.03500      1.87800
   902.60        2.89800      0.21500    246.41500      2.83000      2.06200
   902.80        6.96900      0.21900    221.76100      2.46900      2.24700
   903.00       22.88200      0.21700    204.65400      2.88100      2.55700
   903.20       29.15500      0.21600    216.73000      3.19000      2.60100
   903.40       14.01100      0.21600    210.18900      3.85500      2.48300
   903.60       11.24000      0.21800    196.10100      4.36100      2.39600
   903.80        9.42300      0.21900    181.00600      4.93900      2.26900
   904.00        8.21100      0.21900    184.02500      4.99000      2.20200
   904.20        7.56000      0.21700    200.12600      4.27000      2.40200
   904.40        6.33800      0.21500    216.73000      3.70400      2.47100
   904.60        6.73400      0.21400    213.71100      3.29300      2.33500
   904.80        7.19400      0.21600    208.17600      3.55000      2.45800
   905.00        7.81400      0.21700    211.19500      3.75600      2.15800
   905.20        7.07600      0.21600    213.71100      3.75600      2.18000
   905.40        6.77100      0.21600    214.71700      3.60100      2.07700
   905.60        6.55100      0.21600    211.19500      4.11600      2.11400
   905.80        7.68600      0.21600    210.69200      4.57900      2.14300
   906.00        8.62800      0.21600    212.20100      5.09300      2.04000
   906.20        7.72800      0.21600    212.20100      5.91600      2.19500
   906.40       11.45100      0.21600    210.69200      4.99000      2.46100
   906.60       12.82900      0.21600    211.69800      5.40200      2.49800
   906.80       11.45100      0.21700    211.69800      5.71100      2.55700
   907.00        7.97900      0.21600    206.66700      4.06400      2.29800
   907.20        5.99800      0.21600    198.61600      3.24100      2.21000
   907.40        5.15700      0.21600    191.57200      3.08700      2.29100
   907.60        4.23900      0.21600    187.54700      2.93200      1.98800
   907.80        3.96800      0.21600    193.58500      2.72700      2.19500
   908.00        5.08400      0.21900    211.69800      3.34400      2.09200
   908.20        4.60400      0.21800    218.23900      3.85900      1.98800
   908.40        4.19200      0.21600    219.74800      3.34400      2.04000
   908.60        6.56200      0.21800    216.73000      4.06400      2.15800
   908.80        8.73400      0.22000    213.20800      4.83600      2.40900
   909.00       12.16100      0.21900    211.19500      5.40200      2.33600
   909.20       13.48100      0.21800    219.24500      5.76200      2.24700
   909.40       11.68200      0.21700    217.23300      4.16700      2.30600
   909.60        9.26900      0.21700    215.72300      3.34400      2.08400
   909.80        7.77100      0.21600    211.69800      2.52100      2.10600
   910.00        6.69700      0.21700    205.66000      3.24100      2.13600
   910.20        5.96500      0.21600    202.64200      3.08700      2.21700
   910.40        5.28400      0.21600    209.18200      3.03500      2.14300
   910.60        6.27200      0.21800    212.20100      3.13800      2.05500
   910.80        6.58700      0.21700    208.17600      3.13800      2.12900
   911.00        6.44300      0.21600    216.73000      3.03500      2.15800
   911.20        6.66000      0.21600    222.26400      2.93200      2.23900
   911.40        5.99800      0.21600    220.75500      3.60100      2.14300
   911.60        5.80300      0.21700    222.26400      4.27000      2.09900
   911.80        6.58700      0.21900    211.19500      3.36600      2.22500
   912.00        8.62800      0.21700    206.16400      3.07400      2.33500
   912.20        8.72400      0.21700    210.69200      3.52800      2.06200
   912.40        9.41600      0.21900    204.15100      4.19400      2.12900
   912.60       11.30200      0.22000    187.54700      4.78500      2.20200
   912.80        9.13700      0.21800    194.08800      5.55600      2.07000
   913.00        4.93000      0.21800    204.15100      5.09300      1.92900
   913.20        2.70000      0.22000    210.18900      5.14500      1.72200
   913.40        1.64300      0.21900    207.17000      3.96100      1.47100
   913.60        1.18000      0.21700    205.66000      3.44700      1.56000
   913.80        1.07800      0.21600    230.81800      2.98400      1.62600
   914.00        2.09100      0.21800    239.87400      2.52100      1.61900
   914.20        1.77200      0.21900    224.78000      2.26400      1.78200
   914.40        1.68000      0.21800    220.75500      2.46900      1.97500
   914.60        5.47700      0.21800    237.86200      2.21200      2.04000
   914.80        2.78300      0.21900    190.06300      1.90400      2.12900
   915.00        2.15400      0.21600    212.20100      2.26400      1.87800
   915.20        3.04600      0.21700    217.73600      2.52100      1.68600
   915.40        2.25400      0.21700    212.70400      2.72700      1.78200
   915.60        1.96000      0.21800    228.30200      2.52100      1.73000
   915.80        2.78300      0.21900    241.88700      2.57200      1.77400
   916.00        5.00400      0.21900    230.81800      2.46900      1.69300
   916.20        7.40100      0.21700    221.25800      2.31500      1.57500
   916.40        9.90200      0.21500    216.22600      2.16100      1.43400
   916.60       10.34900      0.21800    208.17600      2.52100      1.53800
   916.80        5.99500      0.21800    203.64800      2.31500      1.48600
   917.00        4.37100      0.21500    198.61600      2.05800      1.44900
   917.20        3.64800      0.21400    219.74800      2.77800      1.48600
   917.40        2.70000      0.21700    231.82400      2.52100      1.36800
   917.60        2.18700      0.21900    218.74200      2.31500      1.47900
   917.80        2.15400      0.21800    215.72300      2.67500      1.41200
   918.00        5.73000      0.21800    229.81100      3.39500      1.36100
   918.20        6.76200      0.21600    219.74800      3.91000      1.49400
   918.40        8.72400      0.21500    211.69800      4.37300      1.56700
