~Version information
VERS.              2.00:   CWLS LOG ASCII STANDARD -VERSION 2.00
WRAP.                NO:   one line per depth step
~Well Information Block
#MNEM.UNIT     DATA         DESCRIPTION OF MNEMONIC
#--------  --------------   ------------------------
STRT.M                 3.40:START DEPTH
STOP.M              1049.40:STOP DEPTH
STEP.M                 0.20:STEP VALUE
NULL.           -9999.00000:NULL VALUE
WELL.                 13421:WELL NAME
FLD .             VYATSKAYA:FIELD NAME
CTRY.                RUSSIA:COUNTRY
DATE.            31.01.1988:DATE
UWI .                 13421:UNIQUE WELL IDENTIFIER
SRVC.         ÄêãÄçëäÄü èÉä:çÄáÇÄçàÖ ëÖêÇàëçéâ äéåèÄçàà Éàë
SRVC_OC.                ààí:çÄáÇÄçàÖ ëÖêÇàëçéâ äéåèÄçàà-éñàîêéÇäÄ
~Parameter Information Block
#MNEM.UNIT       Value     Description of mnemonic
#---------   -----------   ------------------------------------
EKB .M               167.49: Elevation Kelly Bushing
TDL.M                  1050: Total Depth
SCD .M          -9999.00000: Surface Casing Diameter
SCDP.M          -9999.00000: Surface Casing Depth
CD  .M                0.228: Casing Diameter
CDP .M                  408: Casing Depth
BS  .M                0.216: Bit Size
                       CLAY: Drill Fluid Type
DFD .G/CM3        1.08-1.12: Drill Fluid Density
DFV .S                22-26: Drill Fluid Viscosity
RMF.OHMM               0.07: Mud Filtrate Resistivity
MT  .C                   18: Meas Temperature
                      DRST3: Cartridge Gamma
TAU_GR.S              1.5;3: GR Time Constant
K_GK                   1500: äéùî. èÖêÖïéÑÄ
SPEED.M/H               690: Speed M/Hour
                     NGK_60: Probe NGR
USL_ED.IMP/MIN         5775: 1 ìëã.ÖÑ.
OTN_KNL.GR/NGR            9: éíçéòÖçàÖ äÄçÄãéÇ
TAU_NGR.S             1.5;3: NGR Time Constant
SPEED.M/H               690: Speed M/Hour
                        K_3: Cartridge BK
                       BK_3: Probe BK
                       USBA: Cartridge DT
                 Sonde 1.4M: Probe DT
                      SKP_1: Cartridge DS
~Curve Information Block
#MNEM.UNIT       API CODE     Curve Description
#---------    -------------   --------------------------------
DEPT.M                    :    1    DEPTH M
BK.OHMM                   :    2    LATEROLOG DEEP
DS.M                      :    3    CALIPER
DT.MCS                    :    4    DELTA TIME INTERVAL TRANSIT TIME MCSEC/M
GR.MCR/H                  :    5    GAMMA RAY MICRO_ROENTGENS PER HOUR
NGR.UE                    :    6    NEUTRON GAMMA RAY
~A DEPT.M       BK           DS           DT           GR           NGR          
# ...
   481.80        5.47500      0.22400  -9999.00000      4.95000      2.25400
   482.00        7.41300      0.22300  -9999.00000      4.65000      2.23800
   482.20       11.10600      0.22400  -9999.00000      4.35000      2.15500
   482.40       18.14400      0.22500  -9999.00000      3.90000      2.01700
   482.60       12.28700      0.22600  -9999.00000      3.45000      1.87300
   482.80        8.44300      0.22500  -9999.00000      2.95000      1.77400
   483.00       13.20700      0.22400  -9999.00000      3.50000      1.75800
   483.20       17.37500      0.22600  -9999.00000      3.10000      1.91100
   483.40       18.40800      0.22700  -9999.00000      2.65000      1.95600
   483.60       10.94700      0.22300  -9999.00000      2.95000      1.97900
   483.80        6.32500      0.21900  -9999.00000      3.60000      1.85700
   484.00        3.76100      0.22100  -9999.00000      3.20000      1.73500
   484.20        2.20500      0.22400  -9999.00000      3.40000      1.59800
   484.40        3.49900      0.22600  -9999.00000      3.25000      1.49200
   484.60        5.24300      0.23100  -9999.00000      3.05000      1.35400
   484.80        7.96800      0.22900  -9999.00000      2.80000      1.49900
   485.00        9.20600      0.22600  -9999.00000      2.55000      1.60600
   485.20        5.16700      0.22400  -9999.00000      3.00000      1.77400
   485.40        3.55000      0.22900  -9999.00000      3.80000      1.65900
   485.60        3.30300      0.23200  -9999.00000      3.15000      1.75800
   485.80        4.34500      0.23500  -9999.00000      2.75000      1.86500
   486.00        5.09300      0.23200  -9999.00000      2.45000      1.85700
   486.20        5.63500      0.23400  -9999.00000      2.30000      1.85000
   486.40        4.53800      0.23200  -9999.00000      2.20000      1.74300
   486.60        2.43900      0.23000  -9999.00000      2.05000      1.81900
   486.80        2.37000      0.22800  -9999.00000      1.90000      1.81900
   487.00        3.40000      0.23100  -9999.00000      1.75000      1.67500
   487.20        4.60400      0.23300  -9999.00000      1.70000      1.59100
   487.40        5.88400      0.23100  -9999.00000      1.55000      1.66700
   487.60        7.52100      0.22900  -9999.00000      1.70000      1.72800
   487.80        6.05700      0.22700  -9999.00000      2.00000      1.80400
   488.00        5.31900      0.22600  -9999.00000      2.20000      1.90300
   488.20        4.80800      0.22500  -9999.00000      2.55000      1.98700
   488.40        4.67100      0.22500  -9999.00000      2.25000      2.12400
   488.60        4.53800      0.22400  -9999.00000      2.00000      2.07100
   488.80        4.28300      0.22400  -9999.00000      1.60000      1.95600
   489.00        3.81600      0.22400  -9999.00000      1.75000      1.79600
   489.20        3.76100      0.22500  -9999.00000      1.95000      1.97200
   489.40        5.16700      0.22500  -9999.00000      2.20000      2.16200
   489.60        6.05700      0.22600  -9999.00000      1.70000      2.13200
   489.80        6.89600      0.22500  -9999.00000      2.20000      2.04000
   490.00        2.47500      0.22300  -9999.00000      2.65000      2.13200
   490.20        2.77800      0.22200  -9999.00000      3.20000      2.01700
   490.40        5.71700      0.22100  -9999.00000      3.30000      1.94900
   490.60        7.63000      0.22000  -9999.00000      3.40000      2.20800
   490.80       10.79000      0.22300  -9999.00000      3.50000      2.19300
   491.00       10.94700      0.22200  -9999.00000      3.70000      2.10900
   491.20        7.30700      0.22200  -9999.00000      4.25000      2.01700
   491.40        5.55400      0.22200  -9999.00000      4.15000      1.83500
   491.60        4.40900      0.22100  -9999.00000      3.85000      1.76600
   491.80        4.22200      0.22000  -9999.00000      3.80000      1.78900
   492.00        5.16700      0.22000  -9999.00000      4.25000      1.83500
   492.20        6.05700      0.21900  -9999.00000      4.40000      1.77400
   492.40        6.99700      0.21900  -9999.00000      4.55000      1.71300
   492.60        8.44200      0.22000  -9999.00000      4.50000      1.80400
   492.80        7.52100      0.22000  -9999.00000      4.90000      1.91100
   493.00        6.41700      0.22100  -9999.00000      4.80000      1.94100
   493.20        5.31900      0.22100  -9999.00000      3.98900      1.85700
   493.40        4.67100      0.22100  -9999.00000      4.10300      1.79600
   493.60        4.28300      0.22100  -9999.00000      3.70000      1.85700
   493.80        3.81600      0.22100  -9999.00000      3.50000      1.96400
   494.00        3.70700      0.22000  -9999.00000      3.70000      1.91100
   494.20        5.09300      0.22000  -9999.00000      3.90000      1.83500
   494.40        6.23400      0.22000  -9999.00000      4.10000      1.81900
   494.60        7.30700      0.21800  -9999.00000      4.15000      2.04000
   494.80        8.08400      0.22000  -9999.00000      4.00000      2.15500
   495.00        8.68900      0.22100  -9999.00000      3.90000      2.25400
   495.20       10.79000      0.22200  -9999.00000      4.10000      2.34500
   495.40       14.19500      0.22200  -9999.00000      3.90000      2.43700
   495.60       18.94700      0.22300  -9999.00000      3.75000      2.27700
   495.80       15.25700      0.22100  -9999.00000      3.60000      2.15500
   496.00        6.99700      0.22400  -9999.00000      3.95000      2.05600
   496.20        4.67100      0.22600  -9999.00000      4.45000      1.95600
   496.40        3.65400      0.22900  -9999.00000      4.80000      1.85700
   496.60        2.98600      0.23100  -9999.00000      4.95000      1.76600
   496.80        2.54700      0.23500  -9999.00000      3.45000      1.56800
   497.00        2.20500      0.23700  -9999.00000      3.15000      1.57500
   497.20        1.99300      0.23100  -9999.00000      2.25000      1.67500
   497.40        2.66000      0.22600  -9999.00000      2.25000      1.81900
   497.60        3.35100      0.22800  -9999.00000      2.35000      1.72800
   497.80        3.65400      0.23100  -9999.00000      2.30000      1.66700
   498.00        3.65400      0.23400  -9999.00000      2.30000      1.64400
   498.20        4.10200      0.23400  -9999.00000      2.20000      1.60600
   498.40        4.80800      0.23300  -9999.00000      1.80000      1.55300
   498.60        5.55400      0.23300  -9999.00000      1.65000      1.72000
   498.80        6.32500      0.23400  -9999.00000      1.50000      1.83500
   499.00        7.20200      0.23400  -9999.00000      1.30000      1.99400
   499.20        8.68900      0.22700  -9999.00000      1.95000      1.98300
   499.40        7.20200      0.22300  -9999.00000      2.50000      1.97700
   499.60        5.88400      0.21500  -9999.00000      3.05000      1.82700
   499.80        5.02000      0.21800  -9999.00000      3.50000      1.65900
   500.00        4.28300      0.22300  -9999.00000      3.90000      1.43800
   500.20        3.81600      0.23000  -9999.00000      3.00000      1.40000
   500.40        3.44900      0.23700  -9999.00000      2.40000      1.50700
   500.60        3.25600      0.23700  -9999.00000      2.60000      1.60600
   500.80        3.07300      0.23600  -9999.00000      2.75000      1.68200
   501.00        3.44900      0.22900  -9999.00000      2.90000      2.01700
   501.20        4.22200      0.22500  -9999.00000      3.10000      2.02000
   501.40        5.31900      0.22300  -9999.00000      3.42000      2.01700
   501.60        6.41700      0.22100  -9999.00000      3.07900      1.90000
   501.80        8.32100      0.22000  -9999.00000      2.83300      2.01000
   502.00        6.70100      0.22000  -9999.00000      2.83300      1.91800
   502.20        4.40900      0.22100  -9999.00000      2.85000      1.83500
   502.40        3.11800      0.22000  -9999.00000      2.80000      1.95600
