~Version information
VERS.              2.00:   CWLS LOG ASCII STANDARD -VERSION 2.00
WRAP.                NO:   one line per depth step
~Well Information Block
#MNEM.UNIT     DATA         DESCRIPTION OF MNEMONIC
#--------  --------------   ------------------------
STRT.M                 4.20:START DEPTH
STOP.M              1057.00:STOP DEPTH
STEP.M                 0.20:STEP VALUE
NULL.           -9999.00000:NULL VALUE
WELL.                 13420:WELL NAME
FLD .             VYATSKAYA:FIELD NAME
CTRY.                RUSSIA:COUNTRY
DATE.            06.03.1988:DATE
UWI .                 13420:UNIQUE WELL IDENTIFIER
SRVC.         ÄêãÄçëäÄü èÉä:çÄáÇÄçàÖ ëÖêÇàëçéâ äéåèÄçàà Éàë
SRVC_OC.                ààí:çÄáÇÄçàÖ ëÖêÇàëçéâ äéåèÄçàà-éñàîêéÇäÄ
~Parameter Information Block
#MNEM.UNIT       Value     Description of mnemonic
#---------   -----------   ------------------------------------
EKB .M               166.47: Elevation Kelly Bushing
TDL.M                  1055: Total Depth
SCD .M          -9999.00000: Surface Casing Diameter
SCDP.M          -9999.00000: Surface Casing Depth
CD  .M                0.228: Casing Diameter
CDP .M                  400: Casing Depth
BS  .M                0.216: Bit Size
                       CLAY: Drill Fluid Type
DFD .G/CM3        1.09-1.06: Drill Fluid Density
DFV .S                19-25: Drill Fluid Viscosity
RMF.OHMM               0.07: Mud Filtrate Resistivity
MT  .C                   18: Meas Temperature
                      DRST3: Cartridge Gamma
TAU_GR.S              1.5;3: GR Time Constant
K_GK                   1500: äéùî. èÖêÖïéÑÄ
SPEED.M/H           390;780: Speed M/Hour
                     NGK_60: Probe NGR
USL_ED.IMP/MIN         5775: 1 ìëã.ÖÑ.
OTN_KNL.GR/NGR            9: éíçéòÖçàÖ äÄçÄãéÇ
TAU_NGR.S             1.5;3: NGR Time Constant
SPEED.M/H           390;780: Speed M/Hour
                        K_3: Cartridge BK
                       BK_3: Probe BK
                       USBA: Cartridge DT
                 Sonde 1.4M: Probe DT
                      SKP_1: Cartridge DS
~Curve Information Block
#MNEM.UNIT       API CODE     Curve Description
#---------    -------------   --------------------------------
DEPT.M                    :    1    DEPTH M
BK.OHMM                   :    2    LATEROLOG DEEP
DS.M                      :    3    CALIPER
DT.MCS                    :    4    DELTA TIME INTERVAL TRANSIT TIME MCSEC/M
GR.MCR/H                  :    5    GAMMA RAY MICRO_ROENTGENS PER HOUR
NGR.UE                    :    6    NEUTRON GAMMA RAY
~A DEPT.M       BK           DS           DT           GR           NGR          
# ...
   836.20        1.57300      0.21200  -9999.00000      4.01300      1.90200
   836.40        2.46400      0.21000  -9999.00000      4.16300      2.21000
   836.60        4.93900      0.21100  -9999.00000      3.46100      2.51100
   836.80       12.47400      0.21100  -9999.00000      2.85900      2.64600
   837.00       11.77200      0.21100  -9999.00000      2.10100      2.48100
   837.20       10.63700      0.21000  -9999.00000      2.06400      2.28500
   837.40        9.20300      0.20900  -9999.00000      2.06400      2.09700
   837.60        7.62300      0.21000  -9999.00000      2.21200      1.87900
   837.80        5.87400      0.21100  -9999.00000      2.28600      1.92400
   838.00        4.39700      0.21100  -9999.00000      2.45200      1.99900
   838.20        3.43800      0.21000  -9999.00000      2.30700      2.15700
   838.40        2.72700      0.21000  -9999.00000      2.25700      2.20300
   838.60        2.97400      0.21100  -9999.00000      2.15700      2.15000
   838.80        3.34000      0.21100  -9999.00000      2.10700      2.08200
   839.00        3.10600      0.21100  -9999.00000      1.95600      2.02900
   839.20        2.84800      0.21100  -9999.00000      2.10700      1.99200
   839.40        2.57300      0.21200  -9999.00000      2.30700      1.99200
   839.60        2.39300      0.21200  -9999.00000      2.50800      1.99200
   839.80        2.19400      0.21300  -9999.00000      2.70800      1.99200
   840.00        2.10100      0.21400  -9999.00000      2.85900      1.84100
   840.20        1.98300      0.21300  -9999.00000      3.00900      1.75900
   840.40        1.76600      0.21300  -9999.00000      2.85900      1.67600
   840.60        1.19400      0.21300  -9999.00000      3.16000      1.60100
   840.80        0.83200      0.21400  -9999.00000      3.36100      1.54000
   841.00        0.69900      0.21400  -9999.00000      3.71200      1.47300
   841.20        0.63200      0.21500  -9999.00000      3.66100      1.49500
   841.40        0.58700      0.21500  -9999.00000      3.56100      1.52500
   841.60        0.56200      0.21600  -9999.00000      3.56100      1.55500
   841.80        0.65000      0.21500  -9999.00000      3.51100      1.59300
   842.00        0.71900      0.21500  -9999.00000      3.41100      1.62300
   842.20        0.82000      0.21500  -9999.00000      3.26000      1.62300
   842.40        0.90700      0.21400  -9999.00000      3.00900      1.68300
   842.60        1.04800      0.21400  -9999.00000      2.90900      1.75100
   842.80        1.98300      0.21500  -9999.00000      3.21000      1.85600
   843.00        1.74000      0.21400  -9999.00000      3.51100      2.00700
   843.20        1.52800      0.21400  -9999.00000      3.21000      1.85600
   843.40        1.30300      0.21300  -9999.00000      2.95900      1.76600
   843.60        1.36100      0.21300  -9999.00000      2.75900      1.71300
   843.80        1.52800      0.21300  -9999.00000      2.55800      1.69100
   844.00        1.48400      0.21400  -9999.00000      2.45800      1.65300
   844.20        1.40100      0.21500  -9999.00000      2.75900      1.67600
   844.40        1.46300      0.21600  -9999.00000      2.90900      1.69800
   844.60        1.55000      0.21600  -9999.00000      3.16000      1.82600
   844.80        1.64200      0.21600  -9999.00000      3.06000      1.98400
   845.00        1.74000      0.21500  -9999.00000      2.90900      1.76600
   845.20        1.57300      0.21400  -9999.00000      2.65800      1.77400
   845.40        1.52800      0.21400  -9999.00000      2.40800      1.78100
   845.60        1.48400      0.21400  -9999.00000      2.25700      1.78900
   845.80        1.46300      0.21300  -9999.00000      2.45800      1.79600
   846.00        1.42100      0.21400  -9999.00000      2.60800      1.72100
   846.20        1.38000      0.21400  -9999.00000      2.75900      1.69800
   846.40        1.32200      0.21500  -9999.00000      2.90900      1.77400
   846.60        2.01200      0.21600  -9999.00000      3.00900      1.83400
   846.80        3.06200      0.21300  -9999.00000      2.75900      1.89400
   847.00        3.48800      0.21300  -9999.00000      2.55800      1.96900
   847.20        3.97300      0.21200  -9999.00000      2.45800      1.96900
   847.40        2.88900      0.21200  -9999.00000      2.25700      1.96900
   847.60        2.01200      0.21400  -9999.00000      2.50800      1.84100
   847.80        1.44200      0.21500  -9999.00000      2.90900      1.71300
   848.00        1.03300      0.21600  -9999.00000      3.46100      1.60800
   848.20        1.06400      0.21500  -9999.00000      3.51100      1.54000
   848.40        1.12700      0.21400  -9999.00000      3.51100      1.45000
   848.60        1.22900      0.21400  -9999.00000      3.51100      1.57100
   848.80        1.38000      0.21500  -9999.00000      3.56100      1.64600
   849.00        1.59600      0.21600  -9999.00000      3.61100      1.71300
   849.20        1.81800      0.21600  -9999.00000      3.66100      1.75100
   849.40        2.01200      0.21800  -9999.00000      3.76200      1.77400
   849.60        2.19400      0.21500  -9999.00000      3.96200      1.78900
   849.80        2.22600      0.21300  -9999.00000      3.61100      1.79600
   850.00        2.22600      0.21200  -9999.00000      3.31000      1.80400
   850.20        2.32500      0.21200  -9999.00000      2.95900      1.81900
   850.40        2.35900      0.21200  -9999.00000      2.60800      1.78100
   850.60        2.10100      0.21300  -9999.00000      2.25700      1.75100
   850.80        1.95400      0.21300  -9999.00000      1.95600      1.71300
   851.00        2.46400      0.21400  -9999.00000      1.65500      1.84100
   851.20        3.15200      0.21600  -9999.00000      1.50500      1.96200
   851.40        4.27200      0.21600  -9999.00000      1.75500      2.09000
   851.60        5.96100      0.21800  -9999.00000      2.05600      2.27800
   851.80        7.84800      0.21800  -9999.00000      2.45800      2.48100
   852.00        9.61200      0.21700  -9999.00000      3.00900      2.41300
   852.20       11.11000      0.21500  -9999.00000      2.90900      2.27000
   852.40       13.21800      0.21300  -9999.00000      2.75900      2.10500
   852.60       12.47400      0.21300  -9999.00000      2.50800      1.88700
   852.80       12.65600      0.21400  -9999.00000      2.05600      1.88700
   853.00        9.75200      0.21500  -9999.00000      2.10700      1.88700
   853.20        7.40600      0.21500  -9999.00000      2.45800      1.88700
   853.40        5.87400      0.21700  -9999.00000      2.85900      1.87100
   853.60        5.00900      0.21900  -9999.00000      3.46100      1.81100
   853.80        4.03100      0.22200  -9999.00000      4.11300      1.78900
   854.00        4.21000      0.22000  -9999.00000      4.71500      1.76600
   854.20        4.52600      0.21800  -9999.00000      4.26300      1.73600
   854.40        3.80400      0.21600  -9999.00000      3.86200      1.70600
   854.60        2.76600      0.21500  -9999.00000      3.36100      1.69100
   854.80        2.04100      0.21200  -9999.00000      2.85900      1.67600
   855.00        1.98300      0.21300  -9999.00000      2.36000      1.64600
   855.20        2.61100      0.21500  -9999.00000      2.39700      1.68300
   855.40        3.43800      0.21700  -9999.00000      2.50800      1.72100
   855.60        4.46100      0.21700  -9999.00000      2.58200      1.75900
   855.80        5.87400      0.21300  -9999.00000      2.67400      1.83400
   856.00        6.69200      0.21400  -9999.00000      2.70800      1.81900
   856.20        6.59600      0.21400  -9999.00000      2.65800      1.77400
   856.40        3.24400      0.21500  -9999.00000      2.55800      1.72900
   856.60        2.19400      0.21500  -9999.00000      2.75900      1.69800
   856.80        1.46300      0.21500  -9999.00000      2.95900      1.66700
