~Version information
VERS.              2.00:   CWLS LOG ASCII STANDARD -VERSION 2.00
WRAP.                NO:   one line per depth step
~Well Information Block
#MNEM.UNIT     DATA         DESCRIPTION OF MNEMONIC
#--------  --------------   ------------------------
STRT.M                 4.20:START DEPTH
STOP.M              1057.00:STOP DEPTH
STEP.M                 0.20:STEP VALUE
NULL.           -9999.00000:NULL VALUE
WELL.                 13420:WELL NAME
FLD .             VYATSKAYA:FIELD NAME
CTRY.                RUSSIA:COUNTRY
DATE.            06.03.1988:DATE
UWI .                 13420:UNIQUE WELL IDENTIFIER
SRVC.         ÄêãÄçëäÄü èÉä:çÄáÇÄçàÖ ëÖêÇàëçéâ äéåèÄçàà Éàë
SRVC_OC.                ààí:çÄáÇÄçàÖ ëÖêÇàëçéâ äéåèÄçàà-éñàîêéÇäÄ
~Parameter Information Block
#MNEM.UNIT       Value     Description of mnemonic
#---------   -----------   ------------------------------------
EKB .M               166.47: Elevation Kelly Bushing
TDL.M                  1055: Total Depth
SCD .M          -9999.00000: Surface Casing Diameter
SCDP.M          -9999.00000: Surface Casing Depth
CD  .M                0.228: Casing Diameter
CDP .M                  400: Casing Depth
BS  .M                0.216: Bit Size
                       CLAY: Drill Fluid Type
DFD .G/CM3        1.09-1.06: Drill Fluid Density
DFV .S                19-25: Drill Fluid Viscosity
RMF.OHMM               0.07: Mud Filtrate Resistivity
MT  .C                   18: Meas Temperature
                      DRST3: Cartridge Gamma
TAU_GR.S              1.5;3: GR Time Constant
K_GK                   1500: äéùî. èÖêÖïéÑÄ
SPEED.M/H           390;780: Speed M/Hour
                     NGK_60: Probe NGR
USL_ED.IMP/MIN         5775: 1 ìëã.ÖÑ.
OTN_KNL.GR/NGR            9: éíçéòÖçàÖ äÄçÄãéÇ
TAU_NGR.S             1.5;3: NGR Time Constant
SPEED.M/H           390;780: Speed M/Hour
                        K_3: Cartridge BK
                       BK_3: Probe BK
                       USBA: Cartridge DT
                 Sonde 1.4M: Probe DT
                      SKP_1: Cartridge DS
~Curve Information Block
#MNEM.UNIT       API CODE     Curve Description
#---------    -------------   --------------------------------
DEPT.M                    :    1    DEPTH M
BK.OHMM                   :    2    LATEROLOG DEEP
DS.M                      :    3    CALIPER
DT.MCS                    :    4    DELTA TIME INTERVAL TRANSIT TIME MCSEC/M
GR.MCR/H                  :    5    GAMMA RAY MICRO_ROENTGENS PER HOUR
NGR.UE                    :    6    NEUTRON GAMMA RAY
~A DEPT.M       BK           DS           DT           GR           NGR          
# ...
   961.00        4.75500      0.21900    201.50000      1.63000      1.71100
   961.20        4.12700      0.22100    210.00000      1.87700      1.79300
   961.40        3.84400      0.21900    220.50900      2.07400      1.91200
   961.60        4.36700      0.21600    223.50000      2.27200      2.01600
   961.80        5.47900      0.21900    213.62200      2.37000      2.12800
   962.00        4.68800      0.22000    211.00000      2.32100      2.12800
   962.20        3.95500      0.22000    207.00000      2.32100      2.05300
   962.40        3.79000      0.21600    208.50000      2.22200      2.02400
   962.60        3.68400      0.21400    197.50000      2.17300      2.13500
   962.80        6.68100      0.21300    187.00000      2.22200      2.18800
   963.00        9.65700      0.21400    178.50000      1.87700      2.20500
   963.20       11.77600      0.21300    183.00000      1.67900      2.21900
   963.40        6.05000      0.21000    191.50000      1.43200      1.94200
   963.60        4.24500      0.21300    199.50000      1.58000      1.97900
   963.80        4.68800      0.21700    192.50000      1.58000      2.05300
   964.00        5.55700      0.21500    185.00000      1.43200      2.12600
   964.20        7.17100      0.21300    195.00000      1.18500      2.19700
   964.40        8.50000      0.21500    201.50000      0.93800      2.18900
   964.60        7.48300      0.21800    184.50000      0.84000      2.17300
   964.80        7.63100      0.21600    174.00000      0.93800      2.29900
   965.00        9.93400      0.21900    173.00000      0.93800      2.35900
   965.20       15.19700      0.21900    183.50000      1.08600      2.38900
   965.40       22.73700      0.21800    191.50000      0.93800      2.34200
   965.60       21.96600      0.21800    182.50000      1.13600      2.27700
   965.80       12.11400      0.22100    172.50000      1.28400      2.14300
   966.00        9.12500      0.22400    172.00000      1.48100      2.04600
   966.20        8.14700      0.21900    184.50000      1.82700      1.99400
   966.40        6.87300      0.22000    217.50000      2.32100      1.94900
   966.60        5.88100      0.22300    249.50000      1.92600      2.06800
   966.80        8.99600      0.22200    221.00000      1.38300      2.21000
   967.00       12.64000      0.21900    196.00000      0.98800      2.27700
   967.20       17.02100      0.22100    184.50000      0.93800      2.39600
   967.40       21.05200      0.22100    180.00000      0.98800      2.39600
   967.60       24.35000      0.22200    186.00000      1.03700      2.29900
   967.80        9.93400      0.22100    196.50000      1.13600      2.17300
   968.00        5.55700      0.22000    210.00000      1.28400      2.06800
   968.20        5.56100      0.21800    184.50000      1.38300      1.96400
   968.40        7.27400      0.22000    161.50000      1.63000      1.64300
   968.60        4.82300      0.21700    153.50000      1.72800      1.70300
   968.80        3.48100      0.21600    179.00000      1.92600      1.74000
   969.00        2.74300      0.21600    194.50000      2.07400      1.67300
   969.20        2.53400      0.21400    187.00000      2.22200      1.74800
   969.40        2.97900      0.21400    178.00000      2.37000      1.75500
   969.60        2.81500      0.21600    177.00000      2.51900      1.64300
   969.80        2.44300      0.21600    187.50000      2.66700      1.68800
   970.00        2.66000      0.21600    179.50000      2.81500      1.71100
   970.20        2.89600      0.21600    182.00000      2.91400      1.74000
   970.40        3.02100      0.21400    176.00000      2.91400      1.77000
   970.60        2.06100      0.21500    184.00000      2.91400      1.74800
   970.80        1.86600      0.21500    193.00000      2.86400      1.78500
   971.00        2.40800      0.21500    198.50000      2.66700      1.86700
   971.20        1.66600      0.21400    182.00000      2.32100      1.76300
   971.40        1.38600      0.21400    175.50000      1.97500      1.63600
   971.60        1.55200      0.21300    196.50000      1.67900      1.65100
   971.80        2.09000      0.21200    206.50000      1.87700      1.75500
   972.00        3.79000      0.21200    203.50000      1.77800      1.96400
   972.20        5.55700      0.21300    194.50000      1.82700      2.18800
   972.40        7.27400      0.21400    185.50000      1.82700      2.32900
   972.60        7.91800      0.21400    182.50000      1.82700      2.21000
   972.80        7.69800      0.21400    190.50000      1.77800      2.10100
   973.00        5.10400      0.21500    185.50000      1.82700      2.06300
   973.20        3.48100      0.21600    180.50000      1.87700      1.64300
   973.40        2.37500      0.21500    179.00000      1.97500      1.56900
   973.60        1.89300      0.21300    191.00000      2.07400      1.48000
   973.80        1.78900      0.21200    209.00000      2.02500      1.42000
   974.00        2.58500      0.21400    224.00000      2.07400      1.49400
   974.20        2.93700      0.21400    200.50000      2.32100      1.59100
   974.40        2.00300      0.21400    184.50000      2.27200      1.53900
   974.60        1.64300      0.21500    173.00000      2.22200      1.58400
   974.80        1.57400      0.21500    223.50000      2.17300      1.58400
   975.00        1.94700      0.21400    218.50000      2.07400      1.59100
   975.20        2.89600      0.21500    207.50000      1.97500      1.56900
   975.40        3.62700      0.21400    196.50000      2.42000      1.55400
   975.60        3.63300      0.21600    189.00000      2.22200      1.65800
   975.80        2.73600      0.21400    177.00000      2.27200      1.76300
   976.00        2.09000      0.21300    166.00000      1.82700      1.71800
   976.20        1.94700      0.21300    183.50000      1.58000      1.62100
   976.40        2.18100      0.21300    193.50000      1.33300      1.63600
   976.60        1.84000      0.21600    174.00000      1.23500      1.67300
   976.80        2.03200      0.21400    181.00000      1.38300      1.71100
   977.00        2.54900      0.21300    189.00000      1.33300      1.74800
   977.20        3.15300      0.21300    184.50000      1.33300      1.83000
   977.40        3.95500      0.21400    191.50000      1.33300      1.84500
   977.60        3.84400      0.21300    183.00000      1.33300      1.80700
   977.80        4.49300      0.21300    186.00000      1.58000      1.89300
   978.00        5.79800      0.21500    189.50000      1.53100      1.91800
   978.20        6.97100      0.21400    190.50000      1.33300      1.94900
   978.40        5.71700      0.21400    188.00000      1.28400      1.98600
   978.60        4.89100      0.21300    191.50000      1.13600      2.01600
   978.80        4.43000      0.21500    193.50000      1.33300      1.84500
   979.00        3.24300      0.21600    191.00000      1.13600      1.87500
   979.20        3.95500      0.21500    196.00000      1.23500      1.86700
   979.40        5.47900      0.21500    203.50000      1.33300      2.09100
   979.60        9.38700      0.21600    207.50000      1.18500      2.25500
   979.80       15.71700      0.21800    190.00000      1.23500      2.32200
   980.00       10.22000      0.21600    179.50000      1.43200      2.21700
   980.20        6.49400      0.21400    178.00000      1.63000      2.03100
   980.40        4.43000      0.21500    190.50000      1.82700      1.93400
   980.60        3.19800      0.21500    197.00000      2.02500      1.84500
   980.80        2.21200      0.21500    184.50000      2.27200      1.80000
   981.00        1.76300      0.21600    177.00000      1.53100      1.74800
   981.20        1.66600      0.21400    188.00000      1.23500      1.71100
   981.40        2.09000      0.21300    193.00000      1.33300      1.78500
   981.60        2.58500      0.21400    195.50000      1.53100      1.87500
