~Version information
VERS.              2.00:   CWLS LOG ASCII STANDARD -VERSION 2.00
WRAP.                NO:   one line per depth step
~Well Information Block
#MNEM.UNIT     DATA         DESCRIPTION OF MNEMONIC
#--------  --------------   ------------------------
STRT.M                 3.40:START DEPTH
STOP.M              1049.40:STOP DEPTH
STEP.M                 0.20:STEP VALUE
NULL.           -9999.00000:NULL VALUE
WELL.                 13421:WELL NAME
FLD .             VYATSKAYA:FIELD NAME
CTRY.                RUSSIA:COUNTRY
DATE.            31.01.1988:DATE
UWI .                 13421:UNIQUE WELL IDENTIFIER
SRVC.         ÄêãÄçëäÄü èÉä:çÄáÇÄçàÖ ëÖêÇàëçéâ äéåèÄçàà Éàë
SRVC_OC.                ààí:çÄáÇÄçàÖ ëÖêÇàëçéâ äéåèÄçàà-éñàîêéÇäÄ
~Parameter Information Block
#MNEM.UNIT       Value     Description of mnemonic
#---------   -----------   ------------------------------------
EKB .M               167.49: Elevation Kelly Bushing
TDL.M                  1050: Total Depth
SCD .M          -9999.00000: Surface Casing Diameter
SCDP.M          -9999.00000: Surface Casing Depth
CD  .M                0.228: Casing Diameter
CDP .M                  408: Casing Depth
BS  .M                0.216: Bit Size
                       CLAY: Drill Fluid Type
DFD .G/CM3        1.08-1.12: Drill Fluid Density
DFV .S                22-26: Drill Fluid Viscosity
RMF.OHMM               0.07: Mud Filtrate Resistivity
MT  .C                   18: Meas Temperature
                      DRST3: Cartridge Gamma
TAU_GR.S              1.5;3: GR Time Constant
K_GK                   1500: äéùî. èÖêÖïéÑÄ
SPEED.M/H               690: Speed M/Hour
                     NGK_60: Probe NGR
USL_ED.IMP/MIN         5775: 1 ìëã.ÖÑ.
OTN_KNL.GR/NGR            9: éíçéòÖçàÖ äÄçÄãéÇ
TAU_NGR.S             1.5;3: NGR Time Constant
SPEED.M/H               690: Speed M/Hour
                        K_3: Cartridge BK
                       BK_3: Probe BK
                       USBA: Cartridge DT
                 Sonde 1.4M: Probe DT
                      SKP_1: Cartridge DS
~Curve Information Block
#MNEM.UNIT       API CODE     Curve Description
#---------    -------------   --------------------------------
DEPT.M                    :    1    DEPTH M
BK.OHMM                   :    2    LATEROLOG DEEP
DS.M                      :    3    CALIPER
DT.MCS                    :    4    DELTA TIME INTERVAL TRANSIT TIME MCSEC/M
GR.MCR/H                  :    5    GAMMA RAY MICRO_ROENTGENS PER HOUR
NGR.UE                    :    6    NEUTRON GAMMA RAY
~A DEPT.M       BK           DS           DT           GR           NGR          
# ...
   440.20        8.56500      0.20700  -9999.00000      2.00000      1.59100
   440.40       10.48300      0.20800  -9999.00000      2.20000      1.56000
   440.60       13.20700      0.20800  -9999.00000      2.25000      1.52200
   440.80       16.39800      0.20800  -9999.00000      2.40000      1.46900
   441.00        6.23400      0.20800  -9999.00000      2.65000      1.40800
   441.20        4.67100      0.20800  -9999.00000      2.95000      1.33900
   441.40        8.81600      0.20700  -9999.00000      3.25000      1.25500
   441.60        8.32100      0.20700  -9999.00000      3.75000      1.21000
   441.80        6.41700      0.20800  -9999.00000      3.30000      1.21000
   442.00        4.87700      0.20800  -9999.00000      2.35000      2.29200
   442.20       37.88600      0.20900  -9999.00000      2.40000      2.07800
   442.40       27.18200      0.21100  -9999.00000      2.70000      1.95600
   442.60       18.94700      0.21300  -9999.00000      3.40000      1.82700
   442.80       22.20600      0.21300  -9999.00000      3.90000      1.65900
   443.00        9.07400      0.21200  -9999.00000      4.50000      1.74300
   443.20        8.08400      0.21200  -9999.00000      4.25000      1.69700
   443.40       12.11100      0.21200  -9999.00000      4.45000      1.67500
   443.60       22.20800      0.21200  -9999.00000      4.60000      1.63600
   443.80       27.18300      0.21200  -9999.00000      2.80000      2.17700
   444.00       34.74300      0.21100  -9999.00000      2.80000      2.07100
   444.20       29.64100      0.21000  -9999.00000      3.95000      1.94900
   444.40       21.26700      0.21200  -9999.00000      5.15000      1.79600
   444.60       14.61100      0.21300  -9999.00000      5.65000      1.65200
   444.80        9.89500      0.21400  -9999.00000      7.05000      1.53000
   445.00        7.41300      0.21500  -9999.00000      5.65000      1.47600
   445.20        7.85400      0.21500  -9999.00000      5.40000      1.38500
   445.40        8.94400      0.21400  -9999.00000      5.20000      1.37700
   445.60       12.46600      0.21300  -9999.00000      4.50000      1.58300
   445.80       16.63900      0.21200  -9999.00000      3.80000      1.74300
   446.00       21.57600      0.21100  -9999.00000      3.15000      2.13200
   446.20       29.64100      0.21000  -9999.00000      2.65000      2.33000
   446.40       38.43700      0.20900  -9999.00000      2.35000      2.45900
   446.60       60.13300      0.20900  -9999.00000      2.00000      2.56600
   446.80       36.80500      0.21000  -9999.00000      1.95000      2.37600
   447.00       20.07300      0.21100  -9999.00000      2.30000      2.38300
   447.20       16.88000      0.21300  -9999.00000      2.75000      2.42900
   447.40       16.88000      0.21200  -9999.00000      3.10000      2.59700
   447.60       44.40700      0.20900  -9999.00000      2.50000      2.73400
   447.80       53.57600      0.20800  -9999.00000      2.00000      2.79500
   448.00       65.57400      0.20800  -9999.00000      1.60000      2.95500
   448.20       83.81400      0.20800  -9999.00000      1.15000      2.92400
   448.40       61.89400      0.20800  -9999.00000      1.40000      2.77200
   448.60       47.04700      0.20800  -9999.00000      1.75000      2.61200
   448.80       34.24500      0.20800  -9999.00000      1.90000      2.69600
   449.00       35.76100      0.20800  -9999.00000      1.40000      2.90100
   449.20       68.47600      0.20800  -9999.00000      1.35000      2.88600
   449.40       68.47600      0.20700  -9999.00000      1.55000      2.74100
   449.60       47.04700      0.20700  -9999.00000      1.75000      2.54300
   449.80       41.31600      0.20900  -9999.00000      1.85000      2.74900
   450.00       51.30300      0.21000  -9999.00000      1.45000      2.90100
   450.20       74.67200      0.21200  -9999.00000      1.40000      3.09200
   450.40      110.26500      0.21100  -9999.00000      1.30000      3.00800
   450.60      147.17400      0.21100  -9999.00000      1.25000      2.78700
   450.80       61.00400      0.21100  -9999.00000      1.20000      2.53600
   451.00       43.14300      0.21000  -9999.00000      1.40000      2.07100
   451.20       83.81400      0.21000  -9999.00000      1.75000      2.01700
   451.40      136.92500      0.20900  -9999.00000      1.70000      2.32200
   451.60      277.77600      0.21000  -9999.00000      1.35000      3.42700
   451.80      467.09200      0.20900  -9999.00000      1.10000      3.71700
   452.00      460.39800      0.20800  -9999.00000      1.00000      3.70200
   452.20      205.13200      0.20700  -9999.00000      0.80000      2.79500
   452.40      105.59100      0.20900  -9999.00000      0.65000      2.43700
   452.60       38.99600      0.21200  -9999.00000      1.05000      2.19300
   452.80       15.93200      0.21400  -9999.00000      1.40000      2.01700
   453.00        8.94400      0.21700  -9999.00000      1.65000      1.88800
   453.20        6.23400      0.21500  -9999.00000      1.85000      1.78100
   453.40        4.73900      0.21400  -9999.00000      2.10000      1.63600
   453.60        4.34500      0.21300  -9999.00000      1.80000      1.65200
   453.80        5.97000      0.21200  -9999.00000      1.60000      1.75100
   454.00        7.52100      0.21100  -9999.00000      1.35000      1.80400
   454.20        9.61300      0.21000  -9999.00000      1.15000      1.88600
   454.40       10.79000      0.21200  -9999.00000      1.25000      1.88600
   454.60        7.96800      0.21200  -9999.00000      1.40000      1.85000
   454.80        6.51000      0.21200  -9999.00000      1.50000      1.80400
   455.00        4.94800      0.21200  -9999.00000      1.45000      1.72000
   455.20        4.10200      0.21200  -9999.00000      1.40000      1.56000
   455.40        5.47500      0.21200  -9999.00000      1.35000      1.55300
   455.60        5.97000      0.21200  -9999.00000      1.20000      1.69000
   455.80        5.24300      0.21300  -9999.00000      1.35000      1.75800
   456.00        5.09300      0.21400  -9999.00000      1.50000      1.84600
   456.20        6.89700      0.21600  -9999.00000      1.60000      1.84600
   456.40        9.75300      0.21500  -9999.00000      1.55000      1.64400
   456.60       15.48000      0.21500  -9999.00000      1.55000      1.56000
   456.80       13.01700      0.21400  -9999.00000      1.55000      1.53700
   457.00        8.94400      0.21400  -9999.00000      1.65000      1.81200
   457.20        6.14500      0.21400  -9999.00000      1.95000      1.94100
   457.40        4.40900      0.21400  -9999.00000      2.40000      2.00200
   457.60        3.55000      0.21400  -9999.00000      2.60000      1.81200
   457.80        2.98600      0.21500  -9999.00000      2.65000      1.71300
   458.00        2.58400      0.21600  -9999.00000      1.55000      1.57500
   458.20        5.31900      0.21600  -9999.00000      1.90000      1.63600
   458.40        7.09900      0.21700  -9999.00000      2.00000      1.78900
   458.60        7.74100      0.21800  -9999.00000      2.15000      1.78100
   458.80        7.30700      0.21900  -9999.00000      1.65000      1.64400
   459.00        6.60500      0.21900  -9999.00000      1.40000      1.44600
   459.20        6.14500      0.21900  -9999.00000      1.20000      1.54500
   459.40        6.70100      0.21900  -9999.00000      0.60000      1.65900
   459.60        7.63000      0.22000  -9999.00000      0.55000      1.78100
   459.80        8.08400      0.22000  -9999.00000      1.50000      1.88800
   460.00        6.89700      0.21400  -9999.00000      1.90000      1.93400
   460.20        5.31900      0.20900  -9999.00000      2.25000      2.04300
   460.40        3.55000      0.20900  -9999.00000      2.50000      1.90300
   460.60        2.85900      0.20900  -9999.00000      2.70000      1.94100
   460.80        4.22300      0.20800  -9999.00000      2.95000      2.01700
