~Version information
VERS.              2.00:   CWLS LOG ASCII STANDARD -VERSION 2.00
WRAP.                NO:   one line per depth step
~Well Information Block
#MNEM.UNIT     DATA         DESCRIPTION OF MNEMONIC
#--------  --------------   ------------------------
STRT.M                 3.40:START DEPTH
STOP.M              1049.40:STOP DEPTH
STEP.M                 0.20:STEP VALUE
NULL.           -9999.00000:NULL VALUE
WELL.                 13421:WELL NAME
FLD .             VYATSKAYA:FIELD NAME
CTRY.                RUSSIA:COUNTRY
DATE.            31.01.1988:DATE
UWI .                 13421:UNIQUE WELL IDENTIFIER
SRVC.         ÄêãÄçëäÄü èÉä:çÄáÇÄçàÖ ëÖêÇàëçéâ äéåèÄçàà Éàë
SRVC_OC.                ààí:çÄáÇÄçàÖ ëÖêÇàëçéâ äéåèÄçàà-éñàîêéÇäÄ
~Parameter Information Block
#MNEM.UNIT       Value     Description of mnemonic
#---------   -----------   ------------------------------------
EKB .M               167.49: Elevation Kelly Bushing
TDL.M                  1050: Total Depth
SCD .M          -9999.00000: Surface Casing Diameter
SCDP.M          -9999.00000: Surface Casing Depth
CD  .M                0.228: Casing Diameter
CDP .M                  408: Casing Depth
BS  .M                0.216: Bit Size
                       CLAY: Drill Fluid Type
DFD .G/CM3        1.08-1.12: Drill Fluid Density
DFV .S                22-26: Drill Fluid Viscosity
RMF.OHMM               0.07: Mud Filtrate Resistivity
MT  .C                   18: Meas Temperature
                      DRST3: Cartridge Gamma
TAU_GR.S              1.5;3: GR Time Constant
K_GK                   1500: äéùî. èÖêÖïéÑÄ
SPEED.M/H               690: Speed M/Hour
                     NGK_60: Probe NGR
USL_ED.IMP/MIN         5775: 1 ìëã.ÖÑ.
OTN_KNL.GR/NGR            9: éíçéòÖçàÖ äÄçÄãéÇ
TAU_NGR.S             1.5;3: NGR Time Constant
SPEED.M/H               690: Speed M/Hour
                        K_3: Cartridge BK
                       BK_3: Probe BK
                       USBA: Cartridge DT
                 Sonde 1.4M: Probe DT
                      SKP_1: Cartridge DS
~Curve Information Block
#MNEM.UNIT       API CODE     Curve Description
#---------    -------------   --------------------------------
DEPT.M                    :    1    DEPTH M
BK.OHMM                   :    2    LATEROLOG DEEP
DS.M                      :    3    CALIPER
DT.MCS                    :    4    DELTA TIME INTERVAL TRANSIT TIME MCSEC/M
GR.MCR/H                  :    5    GAMMA RAY MICRO_ROENTGENS PER HOUR
NGR.UE                    :    6    NEUTRON GAMMA RAY
~A DEPT.M       BK           DS           DT           GR           NGR          
# ...
   1022.60       4.17600      0.21700    232.83000      2.26400      1.70800
   1022.80       3.90900      0.21500    230.81800      2.21200      1.64100
   1023.00       3.78200      0.21400    226.28900      2.21200      1.59700
   1023.20       4.08500      0.21400    220.75500      2.21200      1.71500
   1023.40       4.34000      0.21400    217.23300      2.21200      1.68600
   1023.60       4.10800      0.21200    216.22600      2.31500      1.65600
   1023.80       3.78200      0.21200    212.20100      2.46900      1.75200
   1024.00       3.78200      0.21200    201.13200      2.52100      1.82600
   1024.20       3.48700      0.21200    191.57200      2.57200      1.66300
   1024.40       2.91100      0.21300    190.06300      2.62400      1.60400
   1024.60       2.85500      0.21400    192.57900      2.83000      1.56000
   1024.80       3.76000      0.21500    211.69800      2.88100      1.50800
   1025.00       5.97400      0.21200    208.17600      2.93200      1.70000
   1025.20       5.13100      0.21100    189.56000      3.03500      1.64100
   1025.40       2.09100      0.21400    192.07500      3.13800      1.52300
   1025.60       2.91100      0.21500    195.09400      2.62400      1.45700
   1025.80       3.33200      0.21300    209.18200      2.31500      1.53000
   1026.00       3.50100      0.21500    223.77400      1.90400      1.64900
   1026.20       5.03600      0.21600    219.24500      2.10900      1.72200
   1026.40       4.43700      0.21200    195.59700      2.52100      1.64100
   1026.60       3.80300      0.21300    185.03100      2.72700      1.61000
   1026.80       3.13900      0.21300    201.13200      2.98400      1.78900
   1027.00       3.97400      0.21100    207.67300      3.39500      1.76700
   1027.20       3.90900      0.21300    192.57900      3.70400      1.82600
   1027.40       7.01000      0.21700    181.50900      4.11600      1.86300
   1027.60       9.03100      0.21500    173.45900      4.93900      1.93700
   1027.80       7.07400      0.21300    186.03800      5.45300      1.80400
   1028.00       5.29200      0.21400    205.66000      6.20100      1.66300
   1028.20       5.29200      0.21400    220.75500      6.23700      1.58200
   1028.40       4.58600      0.21500    229.81100      6.74000      1.65600
   1028.60       2.95500      0.21600    242.89300      6.37900      1.56000
   1028.80       1.66800      0.21500    246.91800      4.88700      1.54500
   1029.00       1.27200      0.21600    236.85500      3.85900      1.53800
   1029.20       1.11100      0.21900    233.83600      3.62000      1.48600
   1029.40       1.52400      0.21500    258.99400      4.16900      1.44200
   1029.60       3.18600      0.21200    258.99400      5.35000      1.45700
   1029.80       5.17700      0.21400    241.88700      5.24800      1.56000
   1030.00       4.11500      0.21600    223.27000      5.50500      1.61900
   1030.20       2.43000      0.21400    229.30800      5.24800      1.56000
   1030.40       1.92000      0.21300    244.90600      5.09300      1.52300
   1030.60       2.40700      0.21500    259.49700      5.29900      1.56700
   1030.80       1.71900      0.21600    258.99400      5.40200      1.50800
   1031.00       1.69300      0.21300    259.49700      5.50500      1.36800
   1031.20       2.70000      0.21400    259.49700      5.81400      1.34600
   1031.40       3.18800      0.21600    259.49700      6.17400      1.48600
   1031.60       3.00000      0.21800    259.49700      6.89400      1.42700
   1031.80       1.96800      0.21900    259.49700      7.04800      1.40500
   1032.00       2.15400      0.21500    259.49700      6.32800      1.52300
   1032.20       2.86800      0.21500    259.49700      7.04800      1.56700
   1032.40       3.87400      0.21600    259.49700      7.66500      1.62600
   1032.60       4.09300      0.21500    259.49700      7.55500      1.50800
   1032.80       4.54500      0.21600    260.00000      7.28000      1.61200
   1033.00       4.82900      0.21800    259.49700      7.82000      1.73000
   1033.20       4.04800      0.21300    259.49700      9.46600      1.77400
   1033.40       4.34900      0.21300    256.98100     12.09000      1.51600
   1033.60       4.93600      0.21600    241.38400     13.11900      1.68600
   1033.80       5.07400      0.21800    221.76100     11.70900      1.77400
   1034.00       5.45100      0.21600    209.18200     11.72700      1.69300
   1034.20       4.90900      0.21500    204.65400     11.11300      1.64100
   1034.40       4.52000      0.21600    228.80500     10.23800      1.89100
   1034.60       5.27400      0.21500    240.88100      8.59200      1.86300
   1034.80       3.78900      0.21500    256.47800      6.63700      1.81100
   1035.00       4.04800      0.21500    259.49700      4.88700      1.85500
   1035.20       3.23500      0.21600    259.49700      4.27000      1.72200
   1035.40       2.46700      0.21400    259.49700      5.60800      1.63400
   1035.60       2.86800      0.21600    251.95000      7.61400      1.72200
   1035.80       3.07300      0.21900    232.83000     11.88400      1.76700
   1036.00       3.21200      0.21700    233.83600     15.12500      1.74500
   1036.20       3.50800      0.21600    246.91800     14.35400      1.95900
   1036.40       3.91700      0.21700    260.50300     13.53100      2.04000
   1036.60       4.49500      0.21800    247.92500     12.45000      1.87000
   1036.80       4.24100      0.21700    231.32100     10.70100      2.04000
   1037.00       3.62600      0.21300    239.37100      9.91500      1.98800
   1037.20       3.17700      0.21200    245.74700     10.85500      1.90700
   1037.40       3.45000      0.21300    253.25200     10.95800      1.83300
   1037.60       3.66600      0.21400    242.41100     10.80400      1.90000
   1037.80       3.15900      0.21500    259.36800      9.93400      1.95100
   1038.00       2.81400      0.21400    259.64600     10.85500      1.87800
   1038.20       2.75300      0.21400    228.80500     11.93600      1.96600
   1038.40       3.87500      0.21300    241.02100     12.81000      1.87000
   1038.60       4.18400      0.21500    258.11700     13.63300      1.79600
   1038.80       3.87500      0.21500    256.86600     14.45700      1.84800
   1039.00       3.70700      0.21400    257.48400     14.76500      1.88500
   1039.20       6.75800      0.21200    257.98700     13.47000      1.92200
   1039.40       5.81700      0.21300    257.98700     12.84300      1.82600
   1039.60       3.76800      0.21400    257.98700     14.61100      1.72200
   1039.80       4.20700      0.21400    257.98700     15.44200      1.64100
   1040.00       4.96400      0.21500    258.49100     14.67300      1.77200
   1040.20       4.64600      0.21600    258.49100     14.76500      1.59500
   1040.40       3.98200      0.21600    258.49100     14.58200      1.67100
   1040.60       4.02600      0.21500    258.99400     14.61800      1.73700
   1040.80       5.27400      0.21300    258.99400     13.97800      1.75200
   1041.00       4.42100      0.21300    256.47800     13.57500      1.81100
   1041.20       5.15900      0.21600    251.95000     13.63000      1.78200
   1041.40       5.21600      0.21600    256.98100     13.24600      1.73000
   1041.60       5.21600      0.21600    220.75500     12.95300      1.66300
   1041.80       4.72300      0.21700    258.99400     12.00100      1.75200
   1042.00       5.98600      0.21600    258.99400     11.98700      1.79600
   1042.20       6.57400      0.21600    259.49700     10.90700      1.84800
   1042.40       7.21900      0.21600    259.49700     10.17100      1.92900
   1042.60       8.24000      0.21600    260.00000     10.24500      1.97400
   1042.80       5.23600      0.21700    260.00000     12.91300      1.68600
   1043.00       4.02600      0.21800    259.49700     15.27700      1.70800
   1043.20       4.67200      0.21600    259.49700     15.73400      1.71500
