~Version information
VERS.              2.00:   CWLS LOG ASCII STANDARD -VERSION 2.00
WRAP.                NO:   one line per depth step
~Well Information Block
#MNEM.UNIT     DATA         DESCRIPTION OF MNEMONIC
#--------  --------------   ------------------------
STRT.M                 3.40:START DEPTH
STOP.M              1049.40:STOP DEPTH
STEP.M                 0.20:STEP VALUE
NULL.           -9999.00000:NULL VALUE
WELL.                 13421:WELL NAME
FLD .             VYATSKAYA:FIELD NAME
CTRY.                RUSSIA:COUNTRY
DATE.            31.01.1988:DATE
UWI .                 13421:UNIQUE WELL IDENTIFIER
SRVC.         ÄêãÄçëäÄü èÉä:çÄáÇÄçàÖ ëÖêÇàëçéâ äéåèÄçàà Éàë
SRVC_OC.                ààí:çÄáÇÄçàÖ ëÖêÇàëçéâ äéåèÄçàà-éñàîêéÇäÄ
~Parameter Information Block
#MNEM.UNIT       Value     Description of mnemonic
#---------   -----------   ------------------------------------
EKB .M               167.49: Elevation Kelly Bushing
TDL.M                  1050: Total Depth
SCD .M          -9999.00000: Surface Casing Diameter
SCDP.M          -9999.00000: Surface Casing Depth
CD  .M                0.228: Casing Diameter
CDP .M                  408: Casing Depth
BS  .M                0.216: Bit Size
                       CLAY: Drill Fluid Type
DFD .G/CM3        1.08-1.12: Drill Fluid Density
DFV .S                22-26: Drill Fluid Viscosity
RMF.OHMM               0.07: Mud Filtrate Resistivity
MT  .C                   18: Meas Temperature
                      DRST3: Cartridge Gamma
TAU_GR.S              1.5;3: GR Time Constant
K_GK                   1500: äéùî. èÖêÖïéÑÄ
SPEED.M/H               690: Speed M/Hour
                     NGK_60: Probe NGR
USL_ED.IMP/MIN         5775: 1 ìëã.ÖÑ.
OTN_KNL.GR/NGR            9: éíçéòÖçàÖ äÄçÄãéÇ
TAU_NGR.S             1.5;3: NGR Time Constant
SPEED.M/H               690: Speed M/Hour
                        K_3: Cartridge BK
                       BK_3: Probe BK
                       USBA: Cartridge DT
                 Sonde 1.4M: Probe DT
                      SKP_1: Cartridge DS
~Curve Information Block
#MNEM.UNIT       API CODE     Curve Description
#---------    -------------   --------------------------------
DEPT.M                    :    1    DEPTH M
BK.OHMM                   :    2    LATEROLOG DEEP
DS.M                      :    3    CALIPER
DT.MCS                    :    4    DELTA TIME INTERVAL TRANSIT TIME MCSEC/M
GR.MCR/H                  :    5    GAMMA RAY MICRO_ROENTGENS PER HOUR
NGR.UE                    :    6    NEUTRON GAMMA RAY
~A DEPT.M       BK           DS           DT           GR           NGR          
# ...
   648.20        9.75300      0.22200  -9999.00000      3.60000      1.90300
   648.40       14.40200      0.22000  -9999.00000      3.95000      1.99500
   648.60        9.20500      0.21700  -9999.00000      4.30000      2.05600
   648.80        7.20200      0.21800  -9999.00000      4.55000      2.10100
   649.00        4.87700      0.22000  -9999.00000      4.10000      2.17000
   649.20        3.40000      0.22200  -9999.00000      3.50000      1.90300
   649.40        2.66000      0.22500  -9999.00000      3.15000      1.85700
   649.60       12.29100      0.22100  -9999.00000      2.85000      1.85000
   649.80       23.87000      0.21900  -9999.00000      2.55000      1.97900
   650.00       13.99200      0.22100  -9999.00000      3.65000      1.84200
   650.20       10.79000      0.22300  -9999.00000      3.65000      2.01700
   650.40       13.79100      0.22500  -9999.00000      3.15000      2.07800
   650.60       19.78900      0.22200  -9999.00000      2.80000      2.17000
   650.80       28.79800      0.22100  -9999.00000      2.65000      2.16200
   651.00       27.18200      0.22100  -9999.00000      3.20000      2.02500
   651.20       19.50200      0.22000  -9999.00000      3.70000      1.97900
   651.40       28.38500      0.21900  -9999.00000      4.35000      2.06300
   651.60       38.44200      0.21800  -9999.00000      5.15000      2.08600
   651.80       54.35300      0.21800  -9999.00000      5.55000      1.91800
   652.00      155.92300      0.21800  -9999.00000      5.05000      2.00200
   652.20      102.58600      0.22100  -9999.00000      4.60000      2.17000
   652.40       73.60200      0.22300  -9999.00000      4.10000      2.18500
   652.60       41.31100      0.22200  -9999.00000      3.50000      2.09400
   652.80       31.40300      0.22100  -9999.00000      3.30000      2.00200
   653.00       26.73900      0.21900  -9999.00000      3.50000      1.92600
   653.20       17.62800      0.22000  -9999.00000      4.50000      1.80400
   653.40       15.70500      0.22100  -9999.00000      5.40000      1.79600
   653.60       29.22400      0.22200  -9999.00000      6.10000      2.01700
   653.80       51.30300      0.22100  -9999.00000      6.45000      2.13900
   654.00        3.87100      0.21700  -9999.00000      6.45000      2.18500
   654.20        3.02900      0.21700  -9999.00000      6.45000      2.10100
   654.40        2.51100      0.21700  -9999.00000      6.15000      2.01700
   654.60        2.51300      0.21800  -9999.00000      5.65000      1.93400
   654.80        8.20200      0.22000  -9999.00000      5.20000      1.84200
   655.00        2.98600      0.22000  -9999.00000      4.80000      1.68700
   655.20        3.87100      0.22000  -9999.00000      4.25000      1.77800
   655.40        4.40900      0.21900  -9999.00000      4.60000      1.79200
   655.60        2.98600      0.21800  -9999.00000      5.20000      1.78400
   655.80        1.77500      0.21700  -9999.00000      5.15000      1.65900
   656.00        3.02900      0.21500  -9999.00000      4.98200      1.56000
   656.20        4.22200      0.21600  -9999.00000      4.98200      1.64400
   656.40        4.53800      0.21800  -9999.00000      5.45000      1.72800
   656.60        2.54700      0.22100  -9999.00000      5.80000      1.78100
   656.80        1.80300      0.22200  -9999.00000      6.20000      1.70500
   657.00        1.23800      0.22000  -9999.00000      6.85000      1.62900
   657.20        2.94300      0.21900  -9999.00000      6.75000      1.59100
   657.40        3.60200      0.21800  -9999.00000      6.50000      1.55300
   657.60        3.25600      0.21600  -9999.00000      6.05000      1.62100
   657.80        2.30200      0.21500  -9999.00000      5.40000      1.67500
   658.00        1.77500      0.21500  -9999.00000      4.80000      1.62900
   658.20        2.02200      0.21500  -9999.00000      4.30000      1.57500
   658.40        2.11100      0.21600  -9999.00000      5.00000      1.70500
   658.60        2.26900      0.21700  -9999.00000      4.90000      1.69700
   658.80        2.58400      0.21800  -9999.00000      4.80000      1.64400
   659.00        2.90100      0.21700  -9999.00000      4.60000      1.63600
   659.20        2.23700      0.21600  -9999.00000      4.40000      1.75800
   659.40        1.85400      0.21500  -9999.00000      4.15000      1.59100
   659.60        3.40000      0.21600  -9999.00000      4.05000      1.55300
   659.80        3.60200      0.21600  -9999.00000      5.45000      1.62900
   660.00        3.44900      0.21700  -9999.00000      6.35000      1.72000
   660.20        1.96400      0.21900  -9999.00000      6.15000      1.72800
   660.40        1.93600      0.22100  -9999.00000      5.85000      1.67500
   660.60        1.99300      0.22300  -9999.00000      5.40000      1.78900
   660.80        1.67600      0.21800  -9999.00000      5.50000      1.74300
   661.00        1.23800      0.21700  -9999.00000      5.80000      1.70500
   661.20        1.20200      0.21600  -9999.00000      6.15000      1.76600
   661.40        1.18500      0.21800  -9999.00000      6.40000      1.82700
   661.60        4.04300      0.21800  -9999.00000      6.85000      1.80400
   661.80        3.65400      0.21800  -9999.00000      6.35000      1.77400
   662.00        3.35100      0.21800  -9999.00000      5.85000      1.73500
   662.20        2.37000      0.21700  -9999.00000      5.70000      1.70500
   662.40        1.77500      0.21600  -9999.00000      6.25000      1.66700
   662.60        1.40900      0.21500  -9999.00000      6.85000      1.59800
   662.80        1.38900      0.21500  -9999.00000      6.25000      1.54500
   663.00        1.65200      0.21400  -9999.00000      5.55000      1.44600
   663.20        2.02200      0.21500  -9999.00000      5.40000      1.43500
   663.40        1.55900      0.21500  -9999.00000      5.40000      1.73500
   663.60        1.23800      0.21700  -9999.00000      5.50000      1.67500
   663.80        0.95400      0.22000  -9999.00000      5.50000      1.53700
   664.00        1.31100      0.21900  -9999.00000      5.60000      1.53000
   664.20        1.72500      0.21900  -9999.00000      4.95000      1.72800
   664.40        2.47500      0.21700  -9999.00000      4.65000      1.67500
   664.60        2.33600      0.21700  -9999.00000      4.40000      1.58300
   664.80        2.20500      0.21700  -9999.00000      4.80000      1.72800
   665.00        2.11100      0.21900  -9999.00000      5.30000      1.65900
   665.20        2.02200      0.22200  -9999.00000      5.00000      1.70500
   665.40        1.88100      0.22000  -9999.00000      4.75000      1.69700
   665.60        1.70000      0.21800  -9999.00000      5.30000      1.75800
   665.80        1.93600      0.21600  -9999.00000      5.75000      1.62100
   666.00        3.16300      0.21600  -9999.00000      5.40000      1.51400
   666.20        2.17300      0.21900  -9999.00000      5.25000      1.46900
   666.40        1.49300      0.22100  -9999.00000      5.10000      1.65200
   666.60        1.18500      0.22100  -9999.00000      4.85000      1.61400
   666.80        1.31100      0.22200  -9999.00000      4.65000      1.55300
   667.00        1.47200      0.22000  -9999.00000      4.40000      1.53000
   667.20        1.41400      0.21900  -9999.00000      3.85000      1.62100
   667.40        1.49300      0.21900  -9999.00000      4.25000      1.66700
   667.60        1.65200      0.21600  -9999.00000      4.90000      1.72000
   667.80        1.80100      0.21800  -9999.00000      4.80000      1.81900
   668.00        1.58200      0.21900  -9999.00000      4.20000      1.68200
   668.20        1.38900      0.22000  -9999.00000      4.35000      1.61400
   668.40        1.22000      0.22000  -9999.00000      4.40000      1.52200
   668.60        1.20400      0.21900  -9999.00000      4.25600      1.59100
   668.80        7.52100      0.21800  -9999.00000      4.45000      1.69000
