~Version information
VERS.              2.00:   CWLS LOG ASCII STANDARD -VERSION 2.00
WRAP.                NO:   one line per depth step
~Well Information Block
#MNEM.UNIT     DATA         DESCRIPTION OF MNEMONIC
#--------  --------------   ------------------------
STRT.M                 3.40:START DEPTH
STOP.M              1049.40:STOP DEPTH
STEP.M                 0.20:STEP VALUE
NULL.           -9999.00000:NULL VALUE
WELL.                 13421:WELL NAME
FLD .             VYATSKAYA:FIELD NAME
CTRY.                RUSSIA:COUNTRY
DATE.            31.01.1988:DATE
UWI .                 13421:UNIQUE WELL IDENTIFIER
SRVC.         ÄêãÄçëäÄü èÉä:çÄáÇÄçàÖ ëÖêÇàëçéâ äéåèÄçàà Éàë
SRVC_OC.                ààí:çÄáÇÄçàÖ ëÖêÇàëçéâ äéåèÄçàà-éñàîêéÇäÄ
~Parameter Information Block
#MNEM.UNIT       Value     Description of mnemonic
#---------   -----------   ------------------------------------
EKB .M               167.49: Elevation Kelly Bushing
TDL.M                  1050: Total Depth
SCD .M          -9999.00000: Surface Casing Diameter
SCDP.M          -9999.00000: Surface Casing Depth
CD  .M                0.228: Casing Diameter
CDP .M                  408: Casing Depth
BS  .M                0.216: Bit Size
                       CLAY: Drill Fluid Type
DFD .G/CM3        1.08-1.12: Drill Fluid Density
DFV .S                22-26: Drill Fluid Viscosity
RMF.OHMM               0.07: Mud Filtrate Resistivity
MT  .C                   18: Meas Temperature
                      DRST3: Cartridge Gamma
TAU_GR.S              1.5;3: GR Time Constant
K_GK                   1500: äéùî. èÖêÖïéÑÄ
SPEED.M/H               690: Speed M/Hour
                     NGK_60: Probe NGR
USL_ED.IMP/MIN         5775: 1 ìëã.ÖÑ.
OTN_KNL.GR/NGR            9: éíçéòÖçàÖ äÄçÄãéÇ
TAU_NGR.S             1.5;3: NGR Time Constant
SPEED.M/H               690: Speed M/Hour
                        K_3: Cartridge BK
                       BK_3: Probe BK
                       USBA: Cartridge DT
                 Sonde 1.4M: Probe DT
                      SKP_1: Cartridge DS
~Curve Information Block
#MNEM.UNIT       API CODE     Curve Description
#---------    -------------   --------------------------------
DEPT.M                    :    1    DEPTH M
BK.OHMM                   :    2    LATEROLOG DEEP
DS.M                      :    3    CALIPER
DT.MCS                    :    4    DELTA TIME INTERVAL TRANSIT TIME MCSEC/M
GR.MCR/H                  :    5    GAMMA RAY MICRO_ROENTGENS PER HOUR
NGR.UE                    :    6    NEUTRON GAMMA RAY
~A DEPT.M       BK           DS           DT           GR           NGR          
# ...
   565.00       12.11100      0.21900  -9999.00000      4.20000      1.98700
   565.20        6.89700      0.22000  -9999.00000      4.50000      1.97200
   565.40        4.73900      0.22000  -9999.00000      4.85000      2.01000
   565.60        3.21200      0.22100  -9999.00000      5.10000      1.92600
   565.80       13.20700      0.21900  -9999.00000      5.65000      1.82700
   566.00       18.40800      0.21700  -9999.00000      4.60000      1.92600
   566.20       13.99200      0.22000  -9999.00000      4.45000      1.94100
   566.40        3.87100      0.22400  -9999.00000      4.20000      1.83500
   566.60        3.76200      0.23000  -9999.00000      4.65000      1.78900
   566.80        6.14500      0.22600  -9999.00000      4.70000      1.75800
   567.00       14.19500      0.22300  -9999.00000      4.00000      1.93400
   567.20       30.95300      0.22000  -9999.00000      3.85000      2.26900
   567.40       41.31400      0.21800  -9999.00000      4.05000      2.22300
   567.60       43.75800      0.21400  -9999.00000      3.95000      2.08600
   567.80        5.97000      0.22000  -9999.00000      3.85000      1.97200
   568.00        9.20600      0.22400  -9999.00000      3.60000      1.89600
   568.20       12.64700      0.23400  -9999.00000      3.55000      1.76600
   568.40       17.88400      0.23400  -9999.00000      3.80000      1.67500
   568.60       13.78900      0.21400  -9999.00000      3.95000      1.59800
   568.80        8.68900      0.21100  -9999.00000      4.10000      1.65900
   569.00        6.05700      0.21800  -9999.00000      4.40000      1.68200
   569.20        4.34500      0.22600  -9999.00000      4.80000      1.71300
   569.40        3.30300      0.22600  -9999.00000      4.95000      1.75100
   569.60        2.40400      0.23200  -9999.00000      5.15000      1.76600
   569.80        2.85900      0.23400  -9999.00000      5.50000      1.62900
   570.00        3.98500      0.21600  -9999.00000      5.95000      1.62100
   570.20        8.68900      0.21600  -9999.00000      5.95000      1.98700
   570.40       10.48300      0.21700  -9999.00000      5.80000      2.24600
   570.60        8.94400      0.21600  -9999.00000      5.45000      2.23800
   570.80        9.75300      0.21400  -9999.00000      5.20000      2.23100
   571.00        9.47500      0.21400  -9999.00000      5.15000      2.22300
   571.20        7.41300      0.21700  -9999.00000      5.75000      1.94100
   571.40        5.16700      0.22000  -9999.00000      7.35000      1.78900
   571.60        8.32200      0.22100  -9999.00000      7.85000      1.74300
   571.80       13.20700      0.21900  -9999.00000      7.90000      2.15500
   572.00       19.22200      0.21900  -9999.00000      6.95000      2.07800
   572.20       29.21700      0.21800  -9999.00000      6.15000      2.04800
   572.40       33.27000      0.21800  -9999.00000      5.60000      2.03300
   572.60       23.52600      0.21700  -9999.00000      5.30000      1.97200
   572.80       15.70500      0.21500  -9999.00000      4.95000      1.83500
   573.00       19.50200      0.21300  -9999.00000      5.55000      1.73500
   573.20       24.92700      0.21100  -9999.00000      6.15000      1.73500
   573.40       19.50200      0.21400  -9999.00000      6.00000      1.92600
   573.60       14.19800      0.21600  -9999.00000      5.20000      2.04000
   573.80       23.87000      0.22100  -9999.00000      5.10000      2.18500
   574.00       36.28100      0.21700  -9999.00000      6.45000      2.35300
   574.20       52.80600      0.21400  -9999.00000      7.50000      2.57400
   574.40       73.60200      0.21300  -9999.00000      6.70000      2.40600
   574.60       37.89300      0.21200  -9999.00000      5.65000      2.19300
   574.80       61.00700      0.21200  -9999.00000      5.60000      2.17000
   575.00       48.42500      0.21400  -9999.00000      6.10000      2.24600
   575.20       37.34300      0.21400  -9999.00000      6.40000      2.31500
   575.40       26.03000      0.21100  -9999.00000      6.55000      2.40600
   575.60       27.58500      0.20900  -9999.00000      6.70800      2.52800
   575.80       54.35300      0.20800  -9999.00000      6.78300      2.61900
   576.00       47.73100      0.20700  -9999.00000      6.12000      2.40600
   576.20        8.94400      0.20700  -9999.00000      5.75900      2.25400
   576.40        9.34000      0.20600  -9999.00000      5.58900      2.13200
   576.60       17.88500      0.20600  -9999.00000      6.00000      1.98700
   576.80       21.57600      0.20600  -9999.00000      6.05000      1.94100
   577.00       24.92700      0.20600  -9999.00000      5.30000      2.09400
   577.20       27.18200      0.20600  -9999.00000      4.80000      1.93400
   577.40       19.78600      0.20700  -9999.00000      4.20000      1.91100
   577.60       15.03800      0.20700  -9999.00000      4.00000      1.94900
   577.80       12.64700      0.20700  -9999.00000      5.40000      1.79600
   578.00       11.43100      0.20700  -9999.00000      5.70000      1.93400
   578.20       16.40000      0.20700  -9999.00000      5.95000      2.01000
   578.40       29.64100      0.20700  -9999.00000      6.10000      1.85700
   578.60       26.78900      0.20700  -9999.00000      6.65000      1.79600
   578.80       18.14400      0.20800  -9999.00000      7.40000      1.80400
   579.00       10.63500      0.21000  -9999.00000      7.90000      1.82700
   579.20        6.23400      0.21300  -9999.00000      7.45000      1.94100
   579.40        3.30300      0.21500  -9999.00000      6.60000      2.20800
   579.60       42.55300      0.21700  -9999.00000      5.60000      2.48200
   579.80      133.02800      0.21400  -9999.00000      5.60000      2.66500
   580.00      182.75800      0.21300  -9999.00000      6.00000      2.63300
   580.20      226.94500      0.21300  -9999.00000      6.15000      2.43300
   580.40      311.78300      0.21300  -9999.00000      5.85000      2.40800
   580.60      220.43700      0.21300  -9999.00000      5.00000      2.31500
   580.80       59.27100      0.21300  -9999.00000      4.60000      2.20800
   581.00       51.30300      0.21300  -9999.00000      4.85000      2.10100
   581.20       60.13300      0.21400  -9999.00000      5.20000      2.00200
   581.40       47.04700      0.21300  -9999.00000      5.50000      1.91100
   581.60       18.40900      0.21200  -9999.00000      5.90000      1.79600
   581.80       20.66100      0.21200  -9999.00000      6.45000      1.75800
   582.00       24.56900      0.21100  -9999.00000      6.90000      1.64900
   582.20       16.40000      0.21100  -9999.00000      7.35000      1.70500
   582.40       12.28700      0.21100  -9999.00000      8.15000      1.81200
   582.60        9.35000      0.21100  -9999.00000      8.00000      1.91100
   582.80       40.72200      0.21100  -9999.00000      7.35000      2.02500
   583.00       60.13300      0.21200  -9999.00000      6.85000      2.12400
   583.20       50.56800      0.21200  -9999.00000      5.90000      2.25400
   583.40       37.34300      0.21200  -9999.00000      5.90000      2.26100
   583.60       33.26800      0.21200  -9999.00000      6.20000      2.08600
   583.80       27.97800      0.21300  -9999.00000      6.45000      1.97200
   584.00       10.33300      0.21300  -9999.00000      6.25000      1.88000
   584.20        8.20200      0.21300  -9999.00000      6.50000      1.72000
   584.40        6.99700      0.21300  -9999.00000      7.05000      1.81200
   584.60        6.14700      0.21200  -9999.00000      7.00000      1.89600
   584.80       12.64700      0.21100  -9999.00000      6.40000      1.97200
   585.00       16.88000      0.21200  -9999.00000      5.95000      2.06800
   585.20       16.88000      0.21300  -9999.00000      5.55000      2.07100
   585.40       10.18500      0.21400  -9999.00000      4.90000      1.77400
   585.60        7.20200      0.21500  -9999.00000      4.75000      1.57500
