~Version information
VERS.              2.00:   CWLS LOG ASCII STANDARD -VERSION 2.00
WRAP.                NO:   one line per depth step
~Well Information Block
#MNEM.UNIT     DATA         DESCRIPTION OF MNEMONIC
#--------  --------------   ------------------------
STRT.M                 3.40:START DEPTH
STOP.M              1049.40:STOP DEPTH
STEP.M                 0.20:STEP VALUE
NULL.           -9999.00000:NULL VALUE
WELL.                 13421:WELL NAME
FLD .             VYATSKAYA:FIELD NAME
CTRY.                RUSSIA:COUNTRY
DATE.            31.01.1988:DATE
UWI .                 13421:UNIQUE WELL IDENTIFIER
SRVC.         ÄêãÄçëäÄü èÉä:çÄáÇÄçàÖ ëÖêÇàëçéâ äéåèÄçàà Éàë
SRVC_OC.                ààí:çÄáÇÄçàÖ ëÖêÇàëçéâ äéåèÄçàà-éñàîêéÇäÄ
~Parameter Information Block
#MNEM.UNIT       Value     Description of mnemonic
#---------   -----------   ------------------------------------
EKB .M               167.49: Elevation Kelly Bushing
TDL.M                  1050: Total Depth
SCD .M          -9999.00000: Surface Casing Diameter
SCDP.M          -9999.00000: Surface Casing Depth
CD  .M                0.228: Casing Diameter
CDP .M                  408: Casing Depth
BS  .M                0.216: Bit Size
                       CLAY: Drill Fluid Type
DFD .G/CM3        1.08-1.12: Drill Fluid Density
DFV .S                22-26: Drill Fluid Viscosity
RMF.OHMM               0.07: Mud Filtrate Resistivity
MT  .C                   18: Meas Temperature
                      DRST3: Cartridge Gamma
TAU_GR.S              1.5;3: GR Time Constant
K_GK                   1500: äéùî. èÖêÖïéÑÄ
SPEED.M/H               690: Speed M/Hour
                     NGK_60: Probe NGR
USL_ED.IMP/MIN         5775: 1 ìëã.ÖÑ.
OTN_KNL.GR/NGR            9: éíçéòÖçàÖ äÄçÄãéÇ
TAU_NGR.S             1.5;3: NGR Time Constant
SPEED.M/H               690: Speed M/Hour
                        K_3: Cartridge BK
                       BK_3: Probe BK
                       USBA: Cartridge DT
                 Sonde 1.4M: Probe DT
                      SKP_1: Cartridge DS
~Curve Information Block
#MNEM.UNIT       API CODE     Curve Description
#---------    -------------   --------------------------------
DEPT.M                    :    1    DEPTH M
BK.OHMM                   :    2    LATEROLOG DEEP
DS.M                      :    3    CALIPER
DT.MCS                    :    4    DELTA TIME INTERVAL TRANSIT TIME MCSEC/M
GR.MCR/H                  :    5    GAMMA RAY MICRO_ROENTGENS PER HOUR
NGR.UE                    :    6    NEUTRON GAMMA RAY
~A DEPT.M       BK           DS           DT           GR           NGR          
# ...
   856.20        9.20600      0.22100  -9999.00000      3.85000      2.13200
   856.40       11.43100      0.22000  -9999.00000      4.75000      2.04000
   856.60        8.20100      0.22000  -9999.00000      6.30000      2.00200
   856.80        4.73900      0.21900  -9999.00000      6.55000      2.10100
   857.00        2.73800      0.21900  -9999.00000      5.65000      1.88800
   857.20        1.85400      0.21800  -9999.00000      4.35000      1.80400
   857.40        1.33000      0.21700  -9999.00000      3.60000      1.75100
   857.60        1.25600      0.21700  -9999.00000      3.00000      1.68200
   857.80        2.66000      0.21600  -9999.00000      2.60000      1.83500
   858.00        4.22200      0.21600  -9999.00000      2.25000      1.82700
   858.20        6.41700      0.21600  -9999.00000      2.00000      1.55300
   858.40        5.55400      0.21600  -9999.00000      1.60000      1.61400
   858.60        5.47500      0.21600  -9999.00000      1.35000      1.68200
   858.80        6.51000      0.21600  -9999.00000      2.05000      1.58300
   859.00        7.30700      0.21600  -9999.00000      2.60000      1.56000
   859.20        4.47300      0.21700  -9999.00000      3.20000      1.46100
   859.40        1.82700      0.21700  -9999.00000      3.90000      1.58300
   859.60        1.16800      0.21700  -9999.00000      3.80000      1.56800
   859.80        1.40900      0.21700  -9999.00000      3.70000      1.55300
   860.00        1.58200      0.21700  -9999.00000      5.60000      1.64400
   860.20        2.08100      0.21800  -9999.00000      5.55000      1.55300
   860.40        1.49300      0.21800  -9999.00000      5.10000      1.54700
   860.60        1.43000      0.21700  -9999.00000      4.45000      1.53000
   860.80        1.55900      0.21700  -9999.00000      3.90000      1.65200
   861.00        2.30200      0.21700  -9999.00000      3.40000      1.68200
   861.20        3.35100      0.21700  -9999.00000      2.80000      1.79600
   861.40        3.07300      0.21700  -9999.00000      2.35000      1.73500
   861.60        2.81800      0.21800  -9999.00000      2.00000      1.62900
   861.80        2.77800      0.21800  -9999.00000      2.25000      1.56000
   862.00        2.85900      0.21900  -9999.00000      2.50000      1.47600
   862.20        2.33600      0.21900  -9999.00000      2.20000      1.51400
   862.40        1.72500      0.22000  -9999.00000      2.05000      1.58300
   862.60        1.25600      0.22000  -9999.00000      2.00000      1.49900
   862.80        0.74700      0.22000  -9999.00000      2.90000      1.40800
   863.00        0.82600      0.22000  -9999.00000      3.40000      1.40000
   863.20        0.96800      0.22000  -9999.00000      3.55000      1.51400
   863.40        0.87500      0.22000  -9999.00000      4.10000      1.59100
   863.60        1.53700      0.22200  -9999.00000      3.70000      1.68200
   863.80        1.72500      0.22200  -9999.00000      3.25000      1.78900
   864.00        1.55900      0.22100  -9999.00000      3.20000      1.96700
   864.20        1.72500      0.22000  -9999.00000      4.60000      1.89300
   864.40        1.85400      0.21900  -9999.00000      4.15000      1.96400
   864.60        1.99300      0.21900  -9999.00000      3.60000      1.94900
   864.80        1.88100      0.21800  -9999.00000      3.30000      1.86500
   865.00        3.30300      0.21800  -9999.00000      3.55000      1.82700
   865.20        3.81600      0.21800  -9999.00000      3.70000      1.78100
   865.40        1.05600      0.21900  -9999.00000      3.95000      1.71300
   865.60        1.10300      0.21900  -9999.00000      3.20000      1.63600
   865.80        1.60500      0.21900  -9999.00000      2.75000      1.54500
   866.00        1.58200      0.21900  -9999.00000      2.40000      1.48400
   866.20        1.99300      0.21900  -9999.00000      1.85000      1.42300
   866.40        1.43000      0.21900  -9999.00000      2.30000      1.31600
   866.60        1.07100      0.21900  -9999.00000      2.65000      1.50700
   866.80        0.82600      0.21900  -9999.00000      3.10000      1.64400
   867.00        0.69500      0.21900  -9999.00000      3.80000      1.84200
   867.20        2.98600      0.21900  -9999.00000      5.00000      2.10100
   867.40       13.20700      0.21900  -9999.00000      4.65000      2.43200
   867.60        9.61600      0.21900  -9999.00000      4.20000      2.36000
   867.80       17.88400      0.21900  -9999.00000      3.55000      2.22300
   868.00       21.89000      0.21900  -9999.00000      3.50000      2.15500
   868.20        8.56500      0.21900  -9999.00000      4.55000      2.31500
   868.40        7.20200      0.21900  -9999.00000      6.00000      2.36000
   868.60        6.89700      0.21900  -9999.00000      5.60000      2.29200
   868.80        7.74100      0.21900  -9999.00000      5.10000      2.28400
   869.00        8.68900      0.21900  -9999.00000      4.80000      2.36800
   869.20        4.80800      0.22000  -9999.00000      4.35000      2.17700
   869.40        2.69900      0.22000  -9999.00000      3.85000      2.07800
   869.60        1.67600      0.22100  -9999.00000      3.00000      2.18500
   869.80        1.77500      0.22100  -9999.00000      3.15000      2.19300
   870.00        2.14200      0.22200  -9999.00000      3.45000      1.97900
   870.20        3.35100      0.22200  -9999.00000      3.95000      1.90300
   870.40        4.10200      0.22200  -9999.00000      4.55000      1.78900
   870.60        5.24300      0.22200  -9999.00000      5.50000      1.86500
   870.80        4.47300      0.22200  -9999.00000      5.00000      1.91800
   871.00        4.04300      0.22200  -9999.00000      4.55000      1.97200
   871.20        3.49900      0.22200  -9999.00000      4.20000      2.02500
   871.40        3.92800      0.22100  -9999.00000      3.80000      2.04800
   871.60        3.81600      0.22100  -9999.00000      4.30000      1.99500
   871.80        3.87100      0.22100  -9999.00000      4.95000      1.98700
   872.00        4.10200      0.22100  -9999.00000      4.65000      2.07800
   872.20        4.16100      0.22000  -9999.00000      4.30000      1.98700
   872.40        1.77500      0.22000  -9999.00000      3.75000      1.85700
   872.60        1.60500      0.22000  -9999.00000      3.55000      1.78100
   872.80        1.85400      0.21900  -9999.00000      3.90000      1.72800
   873.00        2.62200      0.21900  -9999.00000      4.15000      1.65200
   873.20        2.58400      0.21900  -9999.00000      3.45000      1.65200
   873.40        2.17300      0.22000  -9999.00000      3.30000      1.75100
   873.60        2.20500      0.22000  -9999.00000      2.85000      1.82700
   873.80        2.30200      0.22100  -9999.00000      3.10000      1.85000
   874.00        2.40400      0.22200  -9999.00000      3.55000      1.75100
   874.20        2.54700      0.22300  -9999.00000      4.20000      1.80400
   874.40        2.66000      0.22300  -9999.00000      3.65000      1.86500
   874.60        1.33000      0.22100  -9999.00000      3.25000      1.96400
   874.80        1.77500      0.22000  -9999.00000      2.70000      2.07800
   875.00        2.85900      0.22000  -9999.00000      3.00000      2.07800
   875.20        3.40000      0.21900  -9999.00000      3.08800      1.98700
   875.40        1.93600      0.21900  -9999.00000      2.95600      1.81200
   875.60        1.72500      0.21900  -9999.00000      2.74700      1.77400
   875.80        1.70000      0.21900  -9999.00000      2.59500      2.01700
   876.00        2.14200      0.21600    223.27000      2.83000      2.26100
   876.20        5.59600      0.21400    227.29600      3.70400      2.35300
   876.40        8.22300      0.21400    231.32100      3.19000      2.18800
   876.60       15.70700      0.21600    216.73000      4.16700      2.42400
   876.80       23.22900      0.21600    200.12600      3.80700      2.31300
