~Version information
VERS.              2.00:   CWLS LOG ASCII STANDARD -VERSION 2.00
WRAP.                NO:   one line per depth step
~Well Information Block
#MNEM.UNIT     DATA         DESCRIPTION OF MNEMONIC
#--------  --------------   ------------------------
STRT.M                 4.20:START DEPTH
STOP.M              1057.00:STOP DEPTH
STEP.M                 0.20:STEP VALUE
NULL.           -9999.00000:NULL VALUE
WELL.                 13420:WELL NAME
FLD .             VYATSKAYA:FIELD NAME
CTRY.                RUSSIA:COUNTRY
DATE.            06.03.1988:DATE
UWI .                 13420:UNIQUE WELL IDENTIFIER
SRVC.         ÄêãÄçëäÄü èÉä:çÄáÇÄçàÖ ëÖêÇàëçéâ äéåèÄçàà Éàë
SRVC_OC.                ààí:çÄáÇÄçàÖ ëÖêÇàëçéâ äéåèÄçàà-éñàîêéÇäÄ
~Parameter Information Block
#MNEM.UNIT       Value     Description of mnemonic
#---------   -----------   ------------------------------------
EKB .M               166.47: Elevation Kelly Bushing
TDL.M                  1055: Total Depth
SCD .M          -9999.00000: Surface Casing Diameter
SCDP.M          -9999.00000: Surface Casing Depth
CD  .M                0.228: Casing Diameter
CDP .M                  400: Casing Depth
BS  .M                0.216: Bit Size
                       CLAY: Drill Fluid Type
DFD .G/CM3        1.09-1.06: Drill Fluid Density
DFV .S                19-25: Drill Fluid Viscosity
RMF.OHMM               0.07: Mud Filtrate Resistivity
MT  .C                   18: Meas Temperature
                      DRST3: Cartridge Gamma
TAU_GR.S              1.5;3: GR Time Constant
K_GK                   1500: äéùî. èÖêÖïéÑÄ
SPEED.M/H           390;780: Speed M/Hour
                     NGK_60: Probe NGR
USL_ED.IMP/MIN         5775: 1 ìëã.ÖÑ.
OTN_KNL.GR/NGR            9: éíçéòÖçàÖ äÄçÄãéÇ
TAU_NGR.S             1.5;3: NGR Time Constant
SPEED.M/H           390;780: Speed M/Hour
                        K_3: Cartridge BK
                       BK_3: Probe BK
                       USBA: Cartridge DT
                 Sonde 1.4M: Probe DT
                      SKP_1: Cartridge DS
~Curve Information Block
#MNEM.UNIT       API CODE     Curve Description
#---------    -------------   --------------------------------
DEPT.M                    :    1    DEPTH M
BK.OHMM                   :    2    LATEROLOG DEEP
DS.M                      :    3    CALIPER
DT.MCS                    :    4    DELTA TIME INTERVAL TRANSIT TIME MCSEC/M
GR.MCR/H                  :    5    GAMMA RAY MICRO_ROENTGENS PER HOUR
NGR.UE                    :    6    NEUTRON GAMMA RAY
~A DEPT.M       BK           DS           DT           GR           NGR          
# ...
   565.80        4.03100      0.21100  -9999.00000      5.36700      1.59300
   566.00        3.69600      0.21000  -9999.00000      5.51700      1.70600
   566.20        3.43800      0.21100  -9999.00000      5.66800      1.84900
   566.40        3.19800      0.21200  -9999.00000      5.91800      2.01400
   566.60        3.53900      0.21300  -9999.00000      5.46700      2.24800
   566.80        3.75000      0.21400  -9999.00000      4.86500      2.53400
   567.00        6.04700      0.21500  -9999.00000      4.26300      2.84200
   567.20        9.47400      0.21500  -9999.00000      3.76200      3.11300
   567.40       16.18900      0.21600  -9999.00000      3.16000      3.43600
   567.60       25.73800      0.21600  -9999.00000      2.60800      3.57200
   567.80       41.49900      0.21600  -9999.00000      2.05600      3.57900
   568.00       65.96200      0.21600  -9999.00000      1.45500      3.58700
   568.20       97.52300      0.21600  -9999.00000      1.75500      2.87200
   568.40      157.07900      0.21600  -9999.00000      2.10700      2.38300
   568.60       80.77500      0.21500  -9999.00000      2.50800      1.84900
   568.80       38.60000      0.21300  -9999.00000      3.51100      2.00700
   569.00       23.25200      0.21200  -9999.00000      4.51400      2.15700
   569.20       15.50100      0.21300  -9999.00000      4.41400      2.36100
   569.40       11.60300      0.21400  -9999.00000      4.21300      2.55600
   569.60       32.45600      0.21600  -9999.00000      3.81200      2.79700
   569.80       75.14500      0.21700  -9999.00000      3.06000      3.14300
   570.00      169.08500      0.21900  -9999.00000      2.50800      3.49700
   570.20      333.96800      0.22300  -9999.00000      2.20700      3.79700
   570.40      868.56700      0.22400  -9999.00000      1.95600      3.88800
   570.60     1048.22100      0.22500  -9999.00000      1.80600      3.86500
   570.80      159.56800      0.22600  -9999.00000      1.70500      3.80500
   571.00       90.71100      0.22700  -9999.00000      1.65500      3.85800
   571.20      159.56800      0.22600  -9999.00000      1.60500      3.91800
   571.40      207.08800      0.22500  -9999.00000      1.55500      3.82800
   571.60      284.81200      0.22300  -9999.00000      1.50500      3.64700
   571.80      364.28500      0.21900  -9999.00000      1.70500      3.48200
   572.00      414.99700      0.21900  -9999.00000      1.90600      3.30800
   572.20       63.15800      0.22100  -9999.00000      2.20700      3.15000
   572.40       26.10800      0.22200  -9999.00000      2.50800      2.80400
   572.60       14.84000      0.22200  -9999.00000      2.80900      2.02900
   572.80        6.88900      0.22200  -9999.00000      3.11000      2.21000
   573.00       10.95000      0.22200  -9999.00000      3.06000      2.44300
   573.20       22.91800      0.22200  -9999.00000      2.75900      2.72200
   573.40       49.37500      0.22200  -9999.00000      2.50800      3.00800
   573.60      104.89100      0.22200  -9999.00000      2.35700      3.31600
   573.80      249.98700      0.22200  -9999.00000      2.20700      3.60900
   574.00      264.89600      0.22100  -9999.00000      2.10700      3.90300
   574.20      280.69400      0.22200  -9999.00000      2.35700      4.09800
   574.40      343.78200      0.22100  -9999.00000      2.60800      4.27900
   574.60      554.51600      0.22000  -9999.00000      2.30700      4.46000
   574.80      894.09200      0.22000  -9999.00000      2.05600      4.55700
   575.00     1177.28100      0.21900  -9999.00000      1.85600      3.95500
   575.20      631.59300      0.21900  -9999.00000      1.70500      3.54200
   575.40      397.35400      0.21700  -9999.00000      1.70500      3.33100
   575.60       98.92300      0.21500  -9999.00000      1.90600      2.98500
   575.80       21.94300      0.21300  -9999.00000      2.10700      2.59400
   576.00       21.31700      0.21000  -9999.00000      2.25700      2.33800
   576.20       19.26200      0.21000  -9999.00000      2.40800      2.16500
   576.40       17.15500      0.21000  -9999.00000      2.50800      2.03700
   576.60       15.50100      0.21000  -9999.00000      2.35700      1.93200
   576.80       14.21100      0.21000  -9999.00000      2.20700      1.85600
   577.00       13.41100      0.21000  -9999.00000      2.15700      1.78900
   577.20       12.47400      0.20900  -9999.00000      2.40800      1.72900
   577.40       11.27200      0.20900  -9999.00000      2.55800      1.66800
   577.60        9.61100      0.20900  -9999.00000      2.70800      1.62300
   577.80        7.40600      0.20900  -9999.00000      2.85900      1.57800
   578.00        5.62500      0.21000  -9999.00000      2.95900      1.56300
   578.20        4.46100      0.21000  -9999.00000      3.11000      1.67600
   578.40        3.80400      0.21000  -9999.00000      3.31000      1.74400
   578.60        3.15200      0.21100  -9999.00000      3.51100      1.81100
   578.80        3.01800      0.21100  -9999.00000      3.66100      1.87900
   579.00        6.13500      0.21200  -9999.00000      3.81200      1.93200
   579.20       10.95000      0.21200  -9999.00000      3.51100      1.96900
   579.40       14.84200      0.21100  -9999.00000      3.26000      1.99900
   579.60        7.29900      0.21000  -9999.00000      3.00900      2.01400
   579.80        4.39700      0.21000  -9999.00000      2.40800      1.95400
   580.00        3.80400      0.21000  -9999.00000      2.60800      1.91700
   580.20        3.10600      0.20900  -9999.00000      2.70800      1.84900
   580.40        6.22500      0.21000  -9999.00000      2.85900      1.89400
   580.60       15.73300      0.20900  -9999.00000      3.11000      1.96900
   580.80       34.37700      0.20900  -9999.00000      3.41100      1.92400
   581.00       64.07900      0.20900  -9999.00000      3.81200      1.85600
   581.20      140.06900      0.20900  -9999.00000      4.26300      1.79600
   581.40      187.12400      0.21000  -9999.00000      5.01600      1.74400
   581.60       43.33900      0.20900  -9999.00000      4.76500      1.70600
   581.80       35.90400      0.20900  -9999.00000      4.16300      1.64600
   582.00       64.07900      0.20800  -9999.00000      3.71200      1.69100
   582.20       98.94600      0.20800  -9999.00000      3.41100      1.73600
   582.40      112.72000      0.20700  -9999.00000      3.16000      1.78900
   582.60       38.59300      0.20800  -9999.00000      2.95900      1.83400
   582.80       15.05800      0.20800  -9999.00000      2.85900      1.88700
   583.00       32.91600      0.20800  -9999.00000      2.70800      1.94700
   583.20       55.44000      0.20800  -9999.00000      2.75900      1.98400
   583.40       88.12200      0.20800  -9999.00000      2.80900      1.91700
   583.60       64.07500      0.20700  -9999.00000      2.80900      1.87100
   583.80       50.82600      0.20600  -9999.00000      2.75900      1.82600
   584.00       42.10400      0.20600  -9999.00000      2.70800      1.79600
   584.20       32.44300      0.20600  -9999.00000      2.65800      1.77400
   584.40       42.10400      0.20600  -9999.00000      2.55800      1.75900
   584.60       51.57400      0.20700  -9999.00000      2.50800      1.72900
   584.80       74.06400      0.20800  -9999.00000      2.45800      1.77400
   585.00       75.14500      0.20800  -9999.00000      2.35700      1.81900
   585.20       40.31400      0.20800  -9999.00000      2.40800      1.84900
   585.40       28.89400      0.20800  -9999.00000      2.55800      1.90900
   585.60       22.26200      0.20800  -9999.00000      2.80900      1.86400
   585.80       19.54300      0.20700  -9999.00000      3.11000      1.81900
   586.00       17.65900      0.20600  -9999.00000      3.36100      1.88700
   586.20       16.66500      0.20700  -9999.00000      3.51100      1.96900
   586.40       11.43600      0.20800  -9999.00000      3.76200      1.81900
