~Version information
VERS.              2.00:   CWLS LOG ASCII STANDARD -VERSION 2.00
WRAP.                NO:   one line per depth step
~Well Information Block
#MNEM.UNIT     DATA         DESCRIPTION OF MNEMONIC
#--------  --------------   ------------------------
STRT.M                 4.20:START DEPTH
STOP.M              1057.00:STOP DEPTH
STEP.M                 0.20:STEP VALUE
NULL.           -9999.00000:NULL VALUE
WELL.                 13420:WELL NAME
FLD .             VYATSKAYA:FIELD NAME
CTRY.                RUSSIA:COUNTRY
DATE.            06.03.1988:DATE
UWI .                 13420:UNIQUE WELL IDENTIFIER
SRVC.         ÄêãÄçëäÄü èÉä:çÄáÇÄçàÖ ëÖêÇàëçéâ äéåèÄçàà Éàë
SRVC_OC.                ààí:çÄáÇÄçàÖ ëÖêÇàëçéâ äéåèÄçàà-éñàîêéÇäÄ
~Parameter Information Block
#MNEM.UNIT       Value     Description of mnemonic
#---------   -----------   ------------------------------------
EKB .M               166.47: Elevation Kelly Bushing
TDL.M                  1055: Total Depth
SCD .M          -9999.00000: Surface Casing Diameter
SCDP.M          -9999.00000: Surface Casing Depth
CD  .M                0.228: Casing Diameter
CDP .M                  400: Casing Depth
BS  .M                0.216: Bit Size
                       CLAY: Drill Fluid Type
DFD .G/CM3        1.09-1.06: Drill Fluid Density
DFV .S                19-25: Drill Fluid Viscosity
RMF.OHMM               0.07: Mud Filtrate Resistivity
MT  .C                   18: Meas Temperature
                      DRST3: Cartridge Gamma
TAU_GR.S              1.5;3: GR Time Constant
K_GK                   1500: äéùî. èÖêÖïéÑÄ
SPEED.M/H           390;780: Speed M/Hour
                     NGK_60: Probe NGR
USL_ED.IMP/MIN         5775: 1 ìëã.ÖÑ.
OTN_KNL.GR/NGR            9: éíçéòÖçàÖ äÄçÄãéÇ
TAU_NGR.S             1.5;3: NGR Time Constant
SPEED.M/H           390;780: Speed M/Hour
                        K_3: Cartridge BK
                       BK_3: Probe BK
                       USBA: Cartridge DT
                 Sonde 1.4M: Probe DT
                      SKP_1: Cartridge DS
~Curve Information Block
#MNEM.UNIT       API CODE     Curve Description
#---------    -------------   --------------------------------
DEPT.M                    :    1    DEPTH M
BK.OHMM                   :    2    LATEROLOG DEEP
DS.M                      :    3    CALIPER
DT.MCS                    :    4    DELTA TIME INTERVAL TRANSIT TIME MCSEC/M
GR.MCR/H                  :    5    GAMMA RAY MICRO_ROENTGENS PER HOUR
NGR.UE                    :    6    NEUTRON GAMMA RAY
~A DEPT.M       BK           DS           DT           GR           NGR          
# ...
   649.00        1.50600      0.20900  -9999.00000      4.86500      1.64600
   649.20        1.59600      0.20900  -9999.00000      4.81500      1.60800
   649.40        1.66600      0.20900  -9999.00000      4.71500      1.57800
   649.60        1.61500      0.20900  -9999.00000      4.71500      1.55500
   649.80        1.60700      0.21000  -9999.00000      4.91500      1.54000
   650.00        1.59000      0.21000  -9999.00000      5.06600      1.51000
   650.20        1.59600      0.21100  -9999.00000      4.86500      1.53300
   650.40        1.52800      0.21100  -9999.00000      4.41400      1.54000
   650.60        1.46300      0.21000  -9999.00000      4.51400      1.57100
   650.80        1.42100      0.21000  -9999.00000      4.71500      1.57800
   651.00        1.34100      0.20900  -9999.00000      4.86500      1.58600
   651.20        1.42100      0.21000  -9999.00000      5.01600      1.52500
   651.40        1.50600      0.21000  -9999.00000      5.16600      1.45800
   651.60        1.69100      0.21000  -9999.00000      5.26600      1.55500
   651.80        1.95400      0.21100  -9999.00000      5.36700      1.63100
   652.00        2.25900      0.21100  -9999.00000      5.51700      1.69800
   652.20        2.61100      0.21100  -9999.00000      5.21600      1.72900
   652.40        3.24400      0.21100  -9999.00000      4.86500      1.79600
   652.60        2.76600      0.21000  -9999.00000      4.76500      1.74400
   652.80        2.35900      0.20900  -9999.00000      5.11600      1.72100
   653.00        2.07100      0.20800  -9999.00000      5.36700      1.69100
   653.20        1.87100      0.20800  -9999.00000      5.66800      1.66800
   653.40        1.69100      0.20700  -9999.00000      5.81800      1.63100
   653.60        1.55000      0.20600  -9999.00000      6.01900      1.58600
   653.80        1.48400      0.20800  -9999.00000      5.86800      1.48800
   654.00        1.38000      0.20800  -9999.00000      5.66800      1.51000
   654.20        1.42100      0.20900  -9999.00000      5.81800      1.58600
   654.40        1.48400      0.21000  -9999.00000      5.91800      1.65300
   654.60        1.57300      0.21000  -9999.00000      6.06900      1.70600
   654.80        1.66600      0.21100  -9999.00000      6.42000      1.75100
   655.00        1.71500      0.21100  -9999.00000      6.82100      1.78900
   655.20        1.76600      0.20900  -9999.00000      6.87100      1.84900
   655.40        1.66600      0.20800  -9999.00000      6.87100      1.78900
   655.60        1.50600      0.20800  -9999.00000      6.87100      1.75100
   655.80        1.40100      0.20800  -9999.00000      6.62100      1.71300
   656.00        1.26600      0.20800  -9999.00000      6.37000      1.67600
   656.20        1.30300      0.20900  -9999.00000      6.11900      1.65300
   656.40        1.36100      0.20900  -9999.00000      5.91800      1.61600
   656.60        1.28400      0.21000  -9999.00000      5.66800      1.59300
   656.80        1.24700      0.21000  -9999.00000      5.41700      1.55500
   657.00        1.17700      0.21000  -9999.00000      4.96600      1.57800
   657.20        1.06400      0.20900  -9999.00000      5.46700      1.60100
   657.40        1.00400      0.20800  -9999.00000      5.91800      1.63800
   657.60        1.22900      0.20800  -9999.00000      6.16900      1.67600
   657.80        1.38000      0.20900  -9999.00000      5.71800      1.69800
   658.00        1.61900      0.21000  -9999.00000      5.36700      1.72900
   658.20        1.46300      0.21000  -9999.00000      5.11600      1.72100
   658.40        1.36100      0.21000  -9999.00000      4.76500      1.72100
   658.60        1.46300      0.21000  -9999.00000      4.66500      1.70600
   658.80        1.52800      0.21000  -9999.00000      5.06600      1.69100
   659.00        1.61900      0.20900  -9999.00000      5.31700      1.68300
   659.20        1.52800      0.21000  -9999.00000      5.51700      1.66800
   659.40        1.42100      0.21000  -9999.00000      5.76800      1.66100
   659.60        1.61900      0.21100  -9999.00000      5.66800      1.64600
   659.80        1.89800      0.21100  -9999.00000      5.51700      1.63800
   660.00        1.52800      0.21000  -9999.00000      5.46700      1.63100
   660.20        1.22900      0.20900  -9999.00000      5.41700      1.63100
   660.40        1.14400      0.20900  -9999.00000      5.31700      1.65300
   660.60        1.09500      0.21000  -9999.00000      5.21600      1.66800
   660.80        1.06400      0.21100  -9999.00000      5.01600      1.68300
   661.00        1.21200      0.21400  -9999.00000      4.91500      1.70600
   661.20        1.46300      0.21300  -9999.00000      4.81500      1.73600
   661.40        1.50600      0.21100  -9999.00000      4.71500      1.70600
   661.60        1.57300      0.21100  -9999.00000      4.81500      1.66100
   661.80        1.52800      0.21100  -9999.00000      4.86500      1.65300
   662.00        1.44200      0.21100  -9999.00000      4.96600      1.69100
   662.20        1.30300      0.21100  -9999.00000      4.66500      1.70600
   662.40        1.26600      0.21200  -9999.00000      4.51400      1.72100
   662.60        1.98300      0.21100  -9999.00000      4.31300      1.73600
   662.80        2.53600      0.21000  -9999.00000      4.06300      1.75900
   663.00        3.10600      0.20900  -9999.00000      3.96200      1.79600
   663.20        3.97300      0.20900  -9999.00000      4.51400      1.83400
   663.40        4.52600      0.20900  -9999.00000      4.86500      1.85500
   663.60        5.08200      0.20900  -9999.00000      5.16600      1.85500
   663.80        5.46400      0.21200  -9999.00000      5.51700      1.77400
   664.00        5.87400      0.21300  -9999.00000      5.06600      1.73600
   664.20        6.88900      0.21300  -9999.00000      4.56400      1.72900
   664.40        6.31600      0.21300  -9999.00000      3.76200      1.79600
   664.60        5.46400      0.21300  -9999.00000      3.86200      1.84100
   664.80        4.39700      0.21200  -9999.00000      4.01300      1.90900
   665.00        4.27200      0.21200  -9999.00000      4.11300      1.88300
   665.20        5.15700      0.21300  -9999.00000      4.21300      1.84900
   665.40        5.70700      0.21400  -9999.00000      4.31300      1.78100
   665.60        6.31600      0.21400  -9999.00000      4.51400      1.72100
   665.80        6.90000      0.21400  -9999.00000      4.66500      1.66100
   666.00        6.90000      0.21400  -9999.00000      4.81500      1.66100
   666.20        6.86300      0.21400  -9999.00000      4.96600      1.77400
   666.40        7.09100      0.21400  -9999.00000      5.16600      1.83400
   666.60        7.40600      0.21400  -9999.00000      5.41700      1.88700
   666.80        7.73500      0.21400  -9999.00000      5.71800      1.94700
   667.00        7.84800      0.21400  -9999.00000      5.96900      1.97700
   667.20        7.96200      0.21400  -9999.00000      6.11900      2.05200
   667.40        8.19600      0.21400  -9999.00000      6.27000      2.09700
   667.60        5.62500      0.21400  -9999.00000      6.37000      1.62300
   667.80        3.29200      0.21300  -9999.00000      6.52000      1.64600
   668.00        3.20500      0.21300  -9999.00000      6.57100      1.65300
   668.20        3.03900      0.21700  -9999.00000      5.91800      1.67600
   668.40        2.91300      0.22100  -9999.00000      5.40900      1.64600
   668.60        2.76200      0.22000  -9999.00000      5.28000      1.62300
   668.80        2.66000      0.21800  -9999.00000      5.26600      1.59300
   669.00        2.60400      0.21600  -9999.00000      5.16600      1.73600
   669.20        2.59100      0.21800  -9999.00000      5.11600      1.80400
   669.40        2.59100      0.21800  -9999.00000      4.96600      1.86400
   669.60        2.72700      0.21600  -9999.00000      5.21600      1.89400
