~Version information
VERS.              2.00:   CWLS LOG ASCII STANDARD -VERSION 2.00
WRAP.                NO:   one line per depth step
~Well Information Block
#MNEM.UNIT     DATA         DESCRIPTION OF MNEMONIC
#--------  --------------   ------------------------
STRT.M                 4.20:START DEPTH
STOP.M              1057.00:STOP DEPTH
STEP.M                 0.20:STEP VALUE
NULL.           -9999.00000:NULL VALUE
WELL.                 13420:WELL NAME
FLD .             VYATSKAYA:FIELD NAME
CTRY.                RUSSIA:COUNTRY
DATE.            06.03.1988:DATE
UWI .                 13420:UNIQUE WELL IDENTIFIER
SRVC.         ÄêãÄçëäÄü èÉä:çÄáÇÄçàÖ ëÖêÇàëçéâ äéåèÄçàà Éàë
SRVC_OC.                ààí:çÄáÇÄçàÖ ëÖêÇàëçéâ äéåèÄçàà-éñàîêéÇäÄ
~Parameter Information Block
#MNEM.UNIT       Value     Description of mnemonic
#---------   -----------   ------------------------------------
EKB .M               166.47: Elevation Kelly Bushing
TDL.M                  1055: Total Depth
SCD .M          -9999.00000: Surface Casing Diameter
SCDP.M          -9999.00000: Surface Casing Depth
CD  .M                0.228: Casing Diameter
CDP .M                  400: Casing Depth
BS  .M                0.216: Bit Size
                       CLAY: Drill Fluid Type
DFD .G/CM3        1.09-1.06: Drill Fluid Density
DFV .S                19-25: Drill Fluid Viscosity
RMF.OHMM               0.07: Mud Filtrate Resistivity
MT  .C                   18: Meas Temperature
                      DRST3: Cartridge Gamma
TAU_GR.S              1.5;3: GR Time Constant
K_GK                   1500: äéùî. èÖêÖïéÑÄ
SPEED.M/H           390;780: Speed M/Hour
                     NGK_60: Probe NGR
USL_ED.IMP/MIN         5775: 1 ìëã.ÖÑ.
OTN_KNL.GR/NGR            9: éíçéòÖçàÖ äÄçÄãéÇ
TAU_NGR.S             1.5;3: NGR Time Constant
SPEED.M/H           390;780: Speed M/Hour
                        K_3: Cartridge BK
                       BK_3: Probe BK
                       USBA: Cartridge DT
                 Sonde 1.4M: Probe DT
                      SKP_1: Cartridge DS
~Curve Information Block
#MNEM.UNIT       API CODE     Curve Description
#---------    -------------   --------------------------------
DEPT.M                    :    1    DEPTH M
BK.OHMM                   :    2    LATEROLOG DEEP
DS.M                      :    3    CALIPER
DT.MCS                    :    4    DELTA TIME INTERVAL TRANSIT TIME MCSEC/M
GR.MCR/H                  :    5    GAMMA RAY MICRO_ROENTGENS PER HOUR
NGR.UE                    :    6    NEUTRON GAMMA RAY
~A DEPT.M       BK           DS           DT           GR           NGR          
# ...
   919.40        7.91900      0.21400    190.00000      2.22200      1.72500
   919.60        5.03200      0.21400    188.50000      1.77800      1.65100
   919.80        3.79000      0.21200    199.00000      1.58000      1.71800
   920.00        2.40800      0.21300    197.50000      1.38300      1.65100
   920.20        1.94700      0.21700    195.00000      1.58000      1.62100
   920.40        2.58500      0.21800    198.00000      1.63000      1.58400
   920.60        3.95500      0.21700    203.50000      1.48100      1.54700
   920.80        4.62200      0.21600    199.50000      1.33300      1.49400
   921.00        3.43200      0.21400    186.50000      1.63000      1.40500
   921.20        2.93700      0.21600    201.00000      1.53100      1.33800
   921.40        2.58500      0.21800    215.00000      1.63000      1.45700
   921.60        3.24300      0.21600    244.50000      1.82700      1.58400
   921.80        4.75500      0.21500    275.50000      2.22200      1.73300
   922.00        6.05000      0.21800    239.50000      2.56800      1.89700
   922.20        7.37700      0.21500    175.50000      2.86400      1.98800
   922.40        9.38700      0.21300    180.50000      3.21000      1.98800
   922.60       10.51400      0.21500    174.50000      3.40700      1.86000
   922.80        3.89900      0.21300    166.50000      3.45700      1.55400
   923.00        2.15000      0.21500    189.00000      3.50600      1.58400
   923.20        1.57400      0.21300    211.50000      3.35800      1.69600
   923.40        2.09000      0.21600    223.00000      3.70400      1.79300
   923.60        4.12700      0.21400    215.00000      3.95100      1.92700
   923.80        7.58900      0.21500    197.00000      4.14800      2.02400
   924.00        8.50000      0.21200    188.50000      3.95100      2.12800
   924.20        6.87300      0.21300    193.50000      4.09900      2.21700
   924.40        6.68100      0.21200    190.00000      4.24700      2.29200
   924.60        6.40300      0.21100    188.50000      4.09900      2.32200
   924.80        6.31300      0.21300    195.00000      4.00000      2.35200
   925.00        6.49400      0.21400    189.00000      3.60500      2.38900
   925.20        6.58700      0.21200    184.50000      3.35800      2.24000
   925.40        6.40300      0.21300    182.00000      3.25900      2.09100
   925.60        5.96500      0.21300    179.50000      3.45700      1.96400
   925.80        5.47900      0.21300    178.00000      3.30900      1.89700
   926.00        6.40300      0.21300    179.50000      2.96300      1.85200
   926.20        4.12700      0.21200    184.00000      3.16000      1.79300
   926.40        2.97900      0.21400    192.00000      3.47200      1.69600
   926.60        5.03200      0.21300    198.00000      3.80000      1.78500
   926.80        6.31300      0.21200    178.50000      3.40700      1.91200
   927.00        2.85500      0.20800    188.84400      3.06200      1.79300
   927.20        4.18600      0.20900    242.50000      2.66700      1.71100
   927.40        7.58900      0.21100    245.50000      2.32100      1.94900
   927.60       10.90500      0.21200    203.00000      2.07400      2.11300
   927.80        9.38700      0.21100    201.50000      2.02500      2.03100
   928.00        7.91900      0.21300    215.00000      2.07400      1.93400
   928.20        7.11300      0.21200    194.00000      2.17300      1.87500
   928.40        7.03900      0.21300    174.21300      1.92600      1.83000
   928.60        6.97100      0.21300    175.00000      1.97500      1.78500
   928.80        7.37700      0.21600    195.00000      2.07400      1.91200
   929.00        7.91900      0.21200    207.00000      2.37000      1.83000
   929.20        8.87000      0.21300    222.00000      2.66700      1.77800
   929.40        6.58700      0.21100    202.50000      3.01200      1.66600
   929.60        5.32600      0.21400    195.50000      3.50600      1.46500
   929.80        5.96500      0.21200    199.00000      3.85200      1.50200
   930.00        6.77600      0.21300    204.00000      3.65400      1.45700
   930.20        5.10400      0.21100    217.50000      3.60500      1.40500
   930.40        3.48100      0.21200    241.50000      3.50600      1.44200
   930.60        2.40800      0.21300    239.50000      3.55600      1.49400
   930.80        2.03200      0.21300    232.50000      3.45700      1.50200
   931.00        2.81500      0.21400    228.50000      3.11100      1.50200
   931.20        3.33600      0.21200    241.00000      3.35800      1.52400
   931.40        3.68400      0.21100    229.50000      3.35800      1.59900
   931.60        5.17700      0.21400    211.50000      3.30900      1.74000
   931.80        9.12500      0.21400    191.00000      3.80200      1.88200
   932.00       14.56400      0.21200    198.50000      4.39500      1.99100
   932.20        7.07000      0.21500    201.00000      5.67900      1.92700
   932.40        3.89900      0.21500    199.00000      6.76500      1.77000
   932.60        2.18100      0.21400    205.00000      6.37000      1.59900
   932.80        1.59700      0.21100    211.50000      5.87700      1.49400
   933.00        1.89300      0.21300    208.00000      4.64200      1.53900
   933.20        2.40800      0.21300    203.50000      3.35800      1.56900
   933.40        2.12000      0.21300    208.00000      2.81500      1.53900
   933.60        2.26500      0.21300    210.50000      2.51900      1.57600
   933.80        2.87100      0.21400    213.00000      2.46900      1.50200
   934.00        2.97900      0.21400    197.00000      2.66700      1.49400
   934.20        1.76300      0.21300    188.50000      2.81500      1.50900
   934.40        1.37500      0.21300    219.00000      2.86400      1.51700
   934.60        1.57400      0.21100    232.50000      2.61700      1.48000
   934.80        1.42600      0.21200    217.50000      2.32100      1.40500
   935.00        1.18600      0.21100    223.50000      2.61700      1.35300
   935.20        1.01500      0.21100    237.50000      2.96300      1.36800
   935.40        0.88100      0.21000    251.50000      2.76500      1.44200
   935.60        0.91900      0.21200    260.00000      2.56800      1.45700
   935.80        1.02900      0.20900    263.50000      2.66700      1.53900
   936.00        1.38600      0.21100    255.50000      2.76500      1.69600
   936.20        2.69800      0.21100    241.50000      2.91400      1.79300
   936.40        5.47900      0.21200    219.50000      2.56800      1.82200
   936.60        8.87000      0.21300    202.50000      2.32100      1.80000
   936.80        6.97100      0.21400    195.50000      2.02500      1.77800
   937.00        4.49300      0.21300    214.50000      2.12300      1.77800
   937.20        3.10800      0.21300    228.50000      2.17300      1.74800
   937.40        2.62200      0.21400    219.00000      1.87700      1.80000
   937.60        2.69800      0.21400    208.00000      1.77800      1.86700
   937.80        2.81500      0.21400    199.50000      1.58000      1.91900
   938.00        2.97900      0.21400    198.00000      1.82700      1.88900
   938.20        3.19800      0.21500    205.50000      1.72800      1.86700
   938.40        3.06600      0.21500    206.50000      1.72800      1.77800
   938.60        3.24900      0.21300    206.50000      1.72800      1.70300
   938.80        4.82300      0.21300    203.50000      1.72800      1.80000
   939.00        6.22400      0.21300    212.00000      1.53100      1.76300
   939.20       10.22000      0.21300    208.50000      1.72800      1.79300
   939.40       22.59800      0.21100    214.82300      1.87700      1.86000
   939.60       45.24900      0.21400    227.50000      1.92600      1.96400
   939.80       60.93100      0.21500    233.50000      2.17300      2.15000
   940.00       11.28600      0.21500    220.00000      2.61700      2.40400
