~Version information
VERS.              2.00:   CWLS LOG ASCII STANDARD -VERSION 2.00
WRAP.                NO:   one line per depth step
~Well Information Block
#MNEM.UNIT     DATA         DESCRIPTION OF MNEMONIC
#--------  --------------   ------------------------
STRT.M                 3.40:START DEPTH
STOP.M              1049.40:STOP DEPTH
STEP.M                 0.20:STEP VALUE
NULL.           -9999.00000:NULL VALUE
WELL.                 13421:WELL NAME
FLD .             VYATSKAYA:FIELD NAME
CTRY.                RUSSIA:COUNTRY
DATE.            31.01.1988:DATE
UWI .                 13421:UNIQUE WELL IDENTIFIER
SRVC.         ÄêãÄçëäÄü èÉä:çÄáÇÄçàÖ ëÖêÇàëçéâ äéåèÄçàà Éàë
SRVC_OC.                ààí:çÄáÇÄçàÖ ëÖêÇàëçéâ äéåèÄçàà-éñàîêéÇäÄ
~Parameter Information Block
#MNEM.UNIT       Value     Description of mnemonic
#---------   -----------   ------------------------------------
EKB .M               167.49: Elevation Kelly Bushing
TDL.M                  1050: Total Depth
SCD .M          -9999.00000: Surface Casing Diameter
SCDP.M          -9999.00000: Surface Casing Depth
CD  .M                0.228: Casing Diameter
CDP .M                  408: Casing Depth
BS  .M                0.216: Bit Size
                       CLAY: Drill Fluid Type
DFD .G/CM3        1.08-1.12: Drill Fluid Density
DFV .S                22-26: Drill Fluid Viscosity
RMF.OHMM               0.07: Mud Filtrate Resistivity
MT  .C                   18: Meas Temperature
                      DRST3: Cartridge Gamma
TAU_GR.S              1.5;3: GR Time Constant
K_GK                   1500: äéùî. èÖêÖïéÑÄ
SPEED.M/H               690: Speed M/Hour
                     NGK_60: Probe NGR
USL_ED.IMP/MIN         5775: 1 ìëã.ÖÑ.
OTN_KNL.GR/NGR            9: éíçéòÖçàÖ äÄçÄãéÇ
TAU_NGR.S             1.5;3: NGR Time Constant
SPEED.M/H               690: Speed M/Hour
                        K_3: Cartridge BK
                       BK_3: Probe BK
                       USBA: Cartridge DT
                 Sonde 1.4M: Probe DT
                      SKP_1: Cartridge DS
~Curve Information Block
#MNEM.UNIT       API CODE     Curve Description
#---------    -------------   --------------------------------
DEPT.M                    :    1    DEPTH M
BK.OHMM                   :    2    LATEROLOG DEEP
DS.M                      :    3    CALIPER
DT.MCS                    :    4    DELTA TIME INTERVAL TRANSIT TIME MCSEC/M
GR.MCR/H                  :    5    GAMMA RAY MICRO_ROENTGENS PER HOUR
NGR.UE                    :    6    NEUTRON GAMMA RAY
~A DEPT.M       BK           DS           DT           GR           NGR          
# ...
   523.40       26.03000      0.21600  -9999.00000      3.30000      1.99500
   523.60       23.52700      0.21500  -9999.00000      3.70000      2.05600
   523.80       21.57600      0.21300  -9999.00000      3.80000      2.17900
   524.00       19.22200      0.21200  -9999.00000      3.50000      2.19300
   524.20       20.66100      0.21500  -9999.00000      3.40000      2.06300
   524.40       11.10600      0.21800  -9999.00000      3.65000      1.93400
   524.60        6.51100      0.22000  -9999.00000      3.50000      1.80400
   524.80        8.32100      0.21700  -9999.00000      3.06000      1.69000
   525.00       10.33300      0.21500  -9999.00000      2.85200      1.85700
   525.20        8.20200      0.21300  -9999.00000      2.90000      1.96400
   525.40       11.59800      0.21500  -9999.00000      3.00000      2.06300
   525.60       16.16400      0.21600  -9999.00000      2.90000      2.15400
   525.80       13.39900      0.21800  -9999.00000      2.65000      2.06300
   526.00       13.59400      0.21800  -9999.00000      2.90000      1.95600
   526.20       14.61100      0.21700  -9999.00000      3.20000      1.88800
   526.40       10.79000      0.21600  -9999.00000      3.55000      1.76600
   526.60        8.08500      0.21500  -9999.00000      3.65000      1.76600
   526.80       12.11100      0.21400  -9999.00000      3.30000      1.76000
   527.00       11.93700      0.21600  -9999.00000      3.15000      1.75100
   527.20        7.74100      0.21900  -9999.00000      2.95000      1.69000
   527.40        5.97000      0.22200  -9999.00000      2.80000      1.80400
   527.60        5.24300      0.22400  -9999.00000      2.60000      1.84200
   527.80        6.79800      0.21700  -9999.00000      2.45000      1.88800
   528.00        8.32100      0.21600  -9999.00000      3.10000      2.01000
   528.20       10.48300      0.21600  -9999.00000      3.60000      1.96400
   528.40       12.83100      0.21600  -9999.00000      4.10000      1.87300
   528.60       15.04000      0.21500  -9999.00000      3.55000      1.80400
   528.80       17.62800      0.21600  -9999.00000      3.05000      1.71300
   529.00       19.78600      0.21800  -9999.00000      2.25000      1.78900
   529.20        8.32100      0.21800  -9999.00000      2.25000      1.85000
   529.40        6.79800      0.22000  -9999.00000      2.60000      1.90300
   529.60        5.47500      0.21900  -9999.00000      3.90000      1.98700
   529.80        5.09300      0.21800  -9999.00000      4.30000      2.03300
   530.00       10.33300      0.21800  -9999.00000      4.25000      1.98700
   530.20       17.62800      0.21700  -9999.00000      3.35000      1.91800
   530.40       13.99200      0.21800  -9999.00000      3.30000      2.02500
   530.60       12.46500      0.21900  -9999.00000      3.95000      2.23100
   530.80        9.89500      0.22000  -9999.00000      4.45000      2.11700
   531.00       12.64700      0.22100  -9999.00000      5.35000      2.09400
   531.20       18.40800      0.21800  -9999.00000      4.85000      2.25400
   531.40       14.82400      0.21700  -9999.00000      4.15000      2.25100
   531.60       12.46500      0.21800  -9999.00000      3.45000      1.94100
   531.80       10.33300      0.21800  -9999.00000      3.45000      2.06300
   532.00        8.44200      0.22000  -9999.00000      4.30000      2.13900
   532.20        6.89700      0.21900  -9999.00000      4.80000      2.12400
   532.40        8.68900      0.21800  -9999.00000      5.15000      2.23800
   532.60       11.43000      0.21800  -9999.00000      5.70000      2.34500
   532.80       10.86000      0.21800  -9999.00000      4.75000      2.42500
   533.00        8.29800      0.21800  -9999.00000      4.80000      2.42500
   533.20       11.93700      0.21800  -9999.00000      5.15000      2.13900
   533.40       23.19100      0.21900  -9999.00000      5.95000      2.06300
   533.60       25.28500      0.22000  -9999.00000      6.90000      2.16200
   533.80       12.28700      0.22100  -9999.00000      6.20000      2.33800
   534.00        7.52100      0.22100  -9999.00000      5.50000      2.34500
   534.20        5.80000      0.22100  -9999.00000      4.95000      2.23800
   534.40        7.74100      0.22000  -9999.00000      4.55000      2.16200
   534.60        6.14600      0.22100  -9999.00000      4.25000      2.09400
   534.80        9.47500      0.22100  -9999.00000      3.85000      1.96400
   535.00       14.40200      0.21900  -9999.00000      3.20000      2.08600
   535.20        9.34000      0.21700  -9999.00000      3.30000      2.10900
   535.40        7.52100      0.21700  -9999.00000      3.60000      1.93400
   535.60        6.41700      0.21900  -9999.00000      4.70000      1.84200
   535.80        5.63500      0.22000  -9999.00000      5.65000      1.81200
   536.00        4.67100      0.22200  -9999.00000      6.90000      2.05600
   536.20        4.47300      0.21900  -9999.00000      6.35000      2.22300
   536.40        8.20200      0.22200  -9999.00000      6.70000      2.33000
   536.60       11.93800      0.22300  -9999.00000      7.00000      2.38300
   536.80       15.70500      0.22100  -9999.00000      7.45000      2.23800
   537.00       12.11100      0.21700  -9999.00000      7.05000      2.11700
   537.20        9.75300      0.21400  -9999.00000      6.85000      2.01700
   537.40        7.63000      0.21200  -9999.00000      8.50000      1.89100
   537.60        5.31900      0.21000  -9999.00000     10.15000      1.97200
   537.80        5.80000      0.21000  -9999.00000     11.55000      2.25400
   538.00       18.67500      0.21100  -9999.00000     10.50000      2.43700
   538.20       27.57700      0.21100  -9999.00000      9.70000      2.57400
   538.40       21.57600      0.21100  -9999.00000      8.15000      2.79900
   538.60       10.48100      0.21100  -9999.00000      8.25000      2.68000
   538.80        5.47500      0.21100  -9999.00000      9.10000      2.26900
   539.00        2.81800      0.21400  -9999.00000      9.65000      2.01000
   539.20        5.97000      0.21800  -9999.00000      7.70000      1.89700
   539.40       16.88000      0.21700  -9999.00000      7.20000      1.89700
   539.60       15.47600      0.21300  -9999.00000      6.10000      2.42100
   539.80       10.39300      0.21200  -9999.00000      6.25000      2.39800
   540.00       13.30700      0.21300  -9999.00000      6.60000      2.19300
   540.20       15.03900      0.21600  -9999.00000      6.10000      2.03300
   540.40       12.46600      0.21900  -9999.00000      5.00000      2.08600
   540.60        8.81500      0.21900  -9999.00000      4.75000      2.13200
   540.80        5.31900      0.21900  -9999.00000      5.00000      2.05600
   541.00        5.47500      0.21900  -9999.00000      4.55000      1.97900
   541.20        5.80000      0.21900  -9999.00000      3.95000      1.90300
   541.40        5.97000      0.22100  -9999.00000      3.60000      1.81200
   541.60        8.94600      0.21900  -9999.00000      3.70000      1.89600
   541.80       15.70500      0.21800  -9999.00000      3.90000      1.93400
   542.00       13.01800      0.21600  -9999.00000      4.20000      2.04000
   542.20        6.79800      0.21500  -9999.00000      4.35000      2.05600
   542.40        8.56500      0.21400  -9999.00000      4.65000      1.75100
   542.60        9.07400      0.21500  -9999.00000      4.90000      1.85000
   542.80        7.74100      0.21700  -9999.00000      5.00000      1.97200
   543.00        5.39600      0.21800  -9999.00000      5.15000      2.07800
   543.20        4.16100      0.21800  -9999.00000      5.20000      2.16200
   543.40       14.40200      0.21700  -9999.00000      5.30000      2.20800
   543.60       14.40200      0.21500  -9999.00000      5.00000      2.13900
   543.80       13.20700      0.21400  -9999.00000      4.50000      2.32800
   544.00        8.56500      0.21600  -9999.00000      4.05000      2.32200
