~Version information
VERS.              2.00:   CWLS LOG ASCII STANDARD -VERSION 2.00
WRAP.                NO:   one line per depth step
~Well Information Block
#MNEM.UNIT     DATA         DESCRIPTION OF MNEMONIC
#--------  --------------   ------------------------
STRT.M                 4.20:START DEPTH
STOP.M              1057.00:STOP DEPTH
STEP.M                 0.20:STEP VALUE
NULL.           -9999.00000:NULL VALUE
WELL.                 13420:WELL NAME
FLD .             VYATSKAYA:FIELD NAME
CTRY.                RUSSIA:COUNTRY
DATE.            06.03.1988:DATE
UWI .                 13420:UNIQUE WELL IDENTIFIER
SRVC.         ÄêãÄçëäÄü èÉä:çÄáÇÄçàÖ ëÖêÇàëçéâ äéåèÄçàà Éàë
SRVC_OC.                ààí:çÄáÇÄçàÖ ëÖêÇàëçéâ äéåèÄçàà-éñàîêéÇäÄ
~Parameter Information Block
#MNEM.UNIT       Value     Description of mnemonic
#---------   -----------   ------------------------------------
EKB .M               166.47: Elevation Kelly Bushing
TDL.M                  1055: Total Depth
SCD .M          -9999.00000: Surface Casing Diameter
SCDP.M          -9999.00000: Surface Casing Depth
CD  .M                0.228: Casing Diameter
CDP .M                  400: Casing Depth
BS  .M                0.216: Bit Size
                       CLAY: Drill Fluid Type
DFD .G/CM3        1.09-1.06: Drill Fluid Density
DFV .S                19-25: Drill Fluid Viscosity
RMF.OHMM               0.07: Mud Filtrate Resistivity
MT  .C                   18: Meas Temperature
                      DRST3: Cartridge Gamma
TAU_GR.S              1.5;3: GR Time Constant
K_GK                   1500: äéùî. èÖêÖïéÑÄ
SPEED.M/H           390;780: Speed M/Hour
                     NGK_60: Probe NGR
USL_ED.IMP/MIN         5775: 1 ìëã.ÖÑ.
OTN_KNL.GR/NGR            9: éíçéòÖçàÖ äÄçÄãéÇ
TAU_NGR.S             1.5;3: NGR Time Constant
SPEED.M/H           390;780: Speed M/Hour
                        K_3: Cartridge BK
                       BK_3: Probe BK
                       USBA: Cartridge DT
                 Sonde 1.4M: Probe DT
                      SKP_1: Cartridge DS
~Curve Information Block
#MNEM.UNIT       API CODE     Curve Description
#---------    -------------   --------------------------------
DEPT.M                    :    1    DEPTH M
BK.OHMM                   :    2    LATEROLOG DEEP
DS.M                      :    3    CALIPER
DT.MCS                    :    4    DELTA TIME INTERVAL TRANSIT TIME MCSEC/M
GR.MCR/H                  :    5    GAMMA RAY MICRO_ROENTGENS PER HOUR
NGR.UE                    :    6    NEUTRON GAMMA RAY
~A DEPT.M       BK           DS           DT           GR           NGR          
# ...
   482.60        4.33400      0.22700  -9999.00000      1.77600      2.24800
   482.80        4.15000      0.22800  -9999.00000      2.05600      2.18700
   483.00        3.97300      0.22800  -9999.00000      2.15700      2.13500
   483.20        3.69600      0.22700  -9999.00000      2.30700      2.09000
   483.40        3.34000      0.22700  -9999.00000      2.45800      2.05200
   483.60        2.97400      0.22600  -9999.00000      2.50800      2.01400
   483.80        2.35900      0.22700  -9999.00000      2.60800      1.98400
   484.00        2.80700      0.22800  -9999.00000      2.65800      1.90200
   484.20        3.48800      0.22600  -9999.00000      2.70800      1.87900
   484.40        4.39700      0.22500  -9999.00000      2.75900      1.96200
   484.60        5.23200      0.22300  -9999.00000      2.85900      2.02900
   484.80        6.13500      0.22100  -9999.00000      2.95900      2.12700
   485.00        7.09100      0.21800  -9999.00000      3.06000      2.15700
   485.20        9.07100      0.21500  -9999.00000      3.16000      2.09000
   485.40        6.88900      0.21200  -9999.00000      3.36100      2.03700
   485.60        5.30800      0.21100  -9999.00000      3.26000      1.97700
   485.80        3.57700      0.21100  -9999.00000      3.16000      1.87900
   486.00        3.57700      0.21100  -9999.00000      2.95900      1.87900
   486.20        3.57700      0.21200  -9999.00000      3.06000      1.93900
   486.40        3.59600      0.21200  -9999.00000      3.16000      1.96200
   486.60        3.61500      0.21200  -9999.00000      3.21000      1.99200
   486.80        3.86000      0.21200  -9999.00000      3.31000      2.02200
   487.00        4.27200      0.21200  -9999.00000      3.36100      2.06700
   487.20        4.72700      0.21100  -9999.00000      3.31000      2.12700
   487.40        5.08200      0.21000  -9999.00000      3.26000      2.01400
   487.60        5.23200      0.21100  -9999.00000      3.21000      1.95400
   487.80        5.30800      0.21100  -9999.00000      3.11000      1.87900
   488.00        3.86000      0.21200  -9999.00000      3.00900      1.80400
   488.20        2.61100      0.21300  -9999.00000      2.95900      1.74400
   488.40        2.01200      0.21400  -9999.00000      2.85900      1.67600
   488.60        1.61900      0.21500  -9999.00000      2.60800      1.78900
   488.80        1.55000      0.21600  -9999.00000      2.35700      1.84900
   489.00        1.92600      0.21800  -9999.00000      2.15700      1.90200
   489.20        2.25900      0.21600  -9999.00000      2.00600      1.92400
   489.40        2.57300      0.21400  -9999.00000      1.80600      1.93900
   489.60        2.72700      0.21400  -9999.00000      1.90600      1.95400
   489.80        2.84800      0.21400  -9999.00000      1.90600      1.96900
   490.00        2.88900      0.21400  -9999.00000      1.90600      1.97700
   490.20        2.93100      0.21400  -9999.00000      1.80600      2.02200
   490.40        3.48800      0.21400  -9999.00000      1.70500      1.99200
   490.60        4.09000      0.21400  -9999.00000      1.65500      1.96200
   490.80        5.46400      0.21400  -9999.00000      1.60500      1.93900
   491.00        3.86000      0.21400  -9999.00000      1.55500      1.92400
   491.20        2.61100      0.21400  -9999.00000      1.65500      1.87900
   491.40        2.07100      0.21400  -9999.00000      1.80600      1.96200
   491.60        1.71500      0.21400  -9999.00000      1.95600      2.02200
   491.80        1.79200      0.21400  -9999.00000      2.20700      2.07500
   492.00        2.01200      0.21400  -9999.00000      2.35700      2.12000
   492.20        2.61100      0.21400  -9999.00000      2.50800      2.15000
   492.40        4.09000      0.21300  -9999.00000      2.60800      2.18700
   492.60        6.59600      0.21300  -9999.00000      2.50800      2.12700
   492.80       12.29600      0.21200  -9999.00000      2.40800      1.98400
   493.00       17.15500      0.21100  -9999.00000      2.30700      1.87100
   493.20        7.73500      0.21100  -9999.00000      2.35700      1.75900
   493.40        4.46100      0.21000  -9999.00000      2.35700      1.66800
   493.60        2.93100      0.21100  -9999.00000      2.45800      1.54800
   493.80        1.69100      0.21200  -9999.00000      2.45800      1.59300
   494.00        2.32500      0.21200  -9999.00000      2.50800      1.70600
   494.20        3.01800      0.21300  -9999.00000      2.45800      1.95400
   494.40        3.69600      0.21400  -9999.00000      2.45800      1.94700
   494.60        4.33400      0.21300  -9999.00000      2.35700      1.94700
   494.80        5.08200      0.21100  -9999.00000      2.35700      1.93900
   495.00        5.08200      0.21100  -9999.00000      2.15700      1.93200
   495.20        4.27200      0.21300  -9999.00000      2.35700      2.02200
   495.40        4.66000      0.21400  -9999.00000      2.50800      2.06700
   495.60        5.23200      0.21300  -9999.00000      2.60800      1.99900
   495.80        6.04700      0.21200  -9999.00000      2.60800      1.94700
   496.00        4.72700      0.21200  -9999.00000      2.60800      1.89400
   496.20        4.03100      0.21100  -9999.00000      2.55800      1.83400
   496.40        3.64300      0.21200  -9999.00000      2.50800      1.78100
   496.60        3.38800      0.21300  -9999.00000      2.45800      1.82600
   496.80        3.24400      0.21400  -9999.00000      2.60800      1.85600
   497.00        3.15200      0.21500  -9999.00000      2.70800      1.87900
   497.20        3.15200      0.21400  -9999.00000      2.90900      1.89400
   497.40        3.06200      0.21400  -9999.00000      3.21000      1.94700
   497.60        3.01800      0.21400  -9999.00000      3.26000      1.87900
   497.80        2.88900      0.21300  -9999.00000      3.00900      1.80400
   498.00        3.10600      0.21300  -9999.00000      2.85900      1.79600
   498.20        3.29200      0.21200  -9999.00000      2.75900      1.84900
   498.40        3.43800      0.21100  -9999.00000      2.65800      1.87900
   498.60        3.15200      0.21200  -9999.00000      2.55800      1.90900
   498.80        2.88900      0.21200  -9999.00000      2.45800      1.93200
   499.00        2.88900      0.21200  -9999.00000      2.38600      1.94700
   499.20        3.43800      0.21300  -9999.00000      2.38600      1.96900
   499.40        4.15000      0.21400  -9999.00000      2.50800      1.99200
   499.60        5.08200      0.21300  -9999.00000      2.55800      2.04500
   499.80        7.40600      0.21200  -9999.00000      2.70800      2.03700
   500.00        7.40600      0.21200  -9999.00000      2.90900      2.02900
   500.20        7.40600      0.21100  -9999.00000      2.55800      2.01400
   500.40        7.40600      0.21100  -9999.00000      2.40800      2.01400
   500.60       11.77200      0.21200  -9999.00000      2.30700      2.15000
   500.80       18.17900      0.21200  -9999.00000      2.65800      2.21800
   501.00       21.94300      0.21200  -9999.00000      3.00900      2.27800
   501.20       20.11700      0.21200  -9999.00000      2.70800      2.32300
   501.40       17.15500      0.21200  -9999.00000      2.35700      2.37600
   501.60       15.50100      0.21200  -9999.00000      2.25700      2.28500
   501.80       14.21100      0.21200  -9999.00000      2.40800      2.25500
   502.00       13.02800      0.21200  -9999.00000      2.50800      2.20300
   502.20       13.21800      0.21100  -9999.00000      2.55800      2.21800
   502.40       13.41100      0.21000  -9999.00000      2.60800      2.24000
   502.60       12.65600      0.21200  -9999.00000      2.60800      2.25500
   502.80       11.77200      0.21300  -9999.00000      2.65800      2.36800
   503.00        9.75200      0.21300  -9999.00000      2.75900      2.29300
   503.20        7.19500      0.21300  -9999.00000      2.60800      2.21800
