~Version information
VERS.              2.00:   CWLS LOG ASCII STANDARD -VERSION 2.00
WRAP.                NO:   one line per depth step
~Well Information Block
#MNEM.UNIT     DATA         DESCRIPTION OF MNEMONIC
#--------  --------------   ------------------------
STRT.M                 3.40:START DEPTH
STOP.M              1049.40:STOP DEPTH
STEP.M                 0.20:STEP VALUE
NULL.           -9999.00000:NULL VALUE
WELL.                 13421:WELL NAME
FLD .             VYATSKAYA:FIELD NAME
CTRY.                RUSSIA:COUNTRY
DATE.            31.01.1988:DATE
UWI .                 13421:UNIQUE WELL IDENTIFIER
SRVC.         ÄêãÄçëäÄü èÉä:çÄáÇÄçàÖ ëÖêÇàëçéâ äéåèÄçàà Éàë
SRVC_OC.                ààí:çÄáÇÄçàÖ ëÖêÇàëçéâ äéåèÄçàà-éñàîêéÇäÄ
~Parameter Information Block
#MNEM.UNIT       Value     Description of mnemonic
#---------   -----------   ------------------------------------
EKB .M               167.49: Elevation Kelly Bushing
TDL.M                  1050: Total Depth
SCD .M          -9999.00000: Surface Casing Diameter
SCDP.M          -9999.00000: Surface Casing Depth
CD  .M                0.228: Casing Diameter
CDP .M                  408: Casing Depth
BS  .M                0.216: Bit Size
                       CLAY: Drill Fluid Type
DFD .G/CM3        1.08-1.12: Drill Fluid Density
DFV .S                22-26: Drill Fluid Viscosity
RMF.OHMM               0.07: Mud Filtrate Resistivity
MT  .C                   18: Meas Temperature
                      DRST3: Cartridge Gamma
TAU_GR.S              1.5;3: GR Time Constant
K_GK                   1500: äéùî. èÖêÖïéÑÄ
SPEED.M/H               690: Speed M/Hour
                     NGK_60: Probe NGR
USL_ED.IMP/MIN         5775: 1 ìëã.ÖÑ.
OTN_KNL.GR/NGR            9: éíçéòÖçàÖ äÄçÄãéÇ
TAU_NGR.S             1.5;3: NGR Time Constant
SPEED.M/H               690: Speed M/Hour
                        K_3: Cartridge BK
                       BK_3: Probe BK
                       USBA: Cartridge DT
                 Sonde 1.4M: Probe DT
                      SKP_1: Cartridge DS
~Curve Information Block
#MNEM.UNIT       API CODE     Curve Description
#---------    -------------   --------------------------------
DEPT.M                    :    1    DEPTH M
BK.OHMM                   :    2    LATEROLOG DEEP
DS.M                      :    3    CALIPER
DT.MCS                    :    4    DELTA TIME INTERVAL TRANSIT TIME MCSEC/M
GR.MCR/H                  :    5    GAMMA RAY MICRO_ROENTGENS PER HOUR
NGR.UE                    :    6    NEUTRON GAMMA RAY
~A DEPT.M       BK           DS           DT           GR           NGR          
# ...
   981.00        4.16900      0.21800    190.06300      1.18300      2.07000
   981.20        7.18200      0.22000    200.12600      1.23500      2.06200
   981.40       12.34600      0.22000    212.20100      1.33800      2.28400
   981.60       20.59400      0.22000    196.10100      1.44100      2.44000
   981.80       25.68500      0.21700    179.49700      1.64600      2.37900
   982.00       19.39100      0.21500    183.52200      1.74900      2.26900
   982.20       10.94500      0.21600    181.50900      1.69800      2.18000
   982.40        5.99500      0.21700    191.06900      1.60200      2.03300
   982.60        4.93000      0.21800    204.65400      1.80900      1.84800
   982.80        3.00000      0.21800    192.57900      1.95500      1.68600
   983.00        2.09100      0.21600    180.50300      1.85200      1.48600
   983.20        1.66800      0.21400    176.98100      1.82800      1.56700
   983.40        1.50100      0.21600    208.17600      1.84600      1.65300
   983.60        3.76000      0.21600    200.12600      2.00600      1.70000
   983.80        4.07900      0.21300    195.59700      2.05800      1.81800
   984.00        4.78500      0.21400    192.57900      2.05800      1.84100
   984.20        9.27500      0.21500    188.05000      2.00600      1.78200
   984.40       13.31100      0.21600    182.01300      2.31500      1.88500
   984.60       14.08900      0.21400    188.05000      2.46900      2.07000
   984.80       12.27600      0.21500    197.61000      2.31500      2.16600
   985.00       17.08500      0.21800    201.13200      2.00600      2.44600
   985.20       21.53300      0.21600    203.64800      1.54300      2.63100
   985.40       15.01400      0.21300    192.07500      1.74900      2.22500
   985.60        6.96900      0.21400    186.03800      2.46900      1.95100
   985.80        4.05600      0.21600    180.50300      2.62400      1.78200
   986.00        6.96900      0.21600    188.05000      2.16100      1.93700
   986.20       10.15200      0.21600    194.92900      1.85200      1.85500
   986.40       12.62400      0.21500    191.59300      1.69800      1.71500
   986.60       19.07500      0.21200    186.54100      1.59500      1.89200
   986.80       10.46200      0.21100    175.47200      1.59500      1.78200
   987.00        5.31500      0.21400    166.41500      1.59500      1.63400
   987.20        3.41900      0.21400    220.25200      1.59500      1.51600
   987.40        6.36700      0.21400    223.77400      1.59500      1.46400
   987.60       12.53300      0.21500    205.15700      1.49200      1.57500
   987.80       14.01100      0.21600    186.54100      1.28600      1.61900
   988.00       10.15200      0.21500    169.93700      1.08000      1.68600
   988.20        5.81700      0.21300    186.54100      0.87500      1.74500
   988.40        3.86000      0.21300    210.18900      1.49200      1.67800
   988.60        4.33300      0.21500    202.13800      1.74900      1.64100
   988.80       12.00800      0.21400    190.06300      1.59500      1.72200
   989.00       10.15200      0.21400    180.50300      1.59500      1.70000
   989.20        6.66100      0.21400    185.53500      1.85200      1.66300
   989.40        4.71200      0.21400    192.57900      2.05800      1.74500
   989.60        3.48700      0.21500    187.54700      2.46900      1.84800
   989.80        2.43000      0.21300    201.63500      2.98400      1.73000
   990.00        6.56200      0.21400    195.59700      3.19000      2.12900
   990.20       13.48100      0.21400    187.04400      2.41800      2.43900
   990.40       12.16100      0.21300    191.06900      1.74900      2.45400
   990.60        8.53400      0.21400    199.12000      1.33800      2.55700
   990.80       17.08500      0.21600    202.13800      1.18300      2.40900
   991.00       14.13600      0.21600    194.08800      1.23500      2.58600
   991.20       12.27600      0.21600    190.56600      1.28600      2.46100
   991.40       26.20100      0.21500    194.08800      1.54300      2.67500
   991.60       37.56500      0.21600    189.56000      1.38900      2.55700
   991.80       28.67700      0.21600    186.54100      1.38900      2.46800
   992.00       13.92500      0.21500    186.03800      1.28600      2.46100
   992.20        8.10000      0.21600    185.53500      1.18300      2.21700
   992.40        4.38100      0.21500    199.12000      1.13200      2.10600
   992.60        3.78600      0.21500    204.65400      1.18300      2.02500
   992.80        3.77600      0.21700    207.17000      1.29700      1.87800
   993.00        8.60300      0.21800    209.68600      1.39100      2.01800
   993.20       16.43200      0.21800    195.09400      1.54100      2.23200
   993.40       24.30200      0.21700    200.12600      1.72900      2.21700
   993.60       43.05300      0.21400    191.57200      1.90400      2.16600
   993.80       81.00600      0.21300    185.03100      1.95500      2.35800
   994.00      124.14500      0.21400    174.96900      2.26400      2.43100
   994.20      125.52000      0.21400    162.89300      2.26400      2.07700
   994.40       31.38700      0.21300    154.34000      1.90400      2.15800
   994.60       20.59400      0.21200    158.36500      1.49200      2.29100
   994.80       11.11100      0.21400    160.88100      1.74900      2.09900
   995.00        4.93000      0.21500    168.42800      1.95500      1.94400
   995.20        3.18600      0.21100    190.56600      2.10900      1.64100
   995.40        7.62700      0.21200    214.21400      2.10900      1.56700
   995.60       10.46200      0.21300    223.27000      2.16100      1.73000
   995.80        5.70700      0.21500    206.66700      2.10900      1.79600
   996.00        6.13000      0.21500    191.06900      2.00600      1.76700
   996.20       12.89800      0.21700    180.00000      1.90400      1.86300
   996.40        9.13700      0.21300    173.45900      1.74900      1.95900
   996.60        4.11500      0.21200    170.44000      1.59500      1.81100
   996.80        2.50400      0.21400    185.03100      1.85200      1.63400
   997.00        1.71900      0.21400    196.10100      2.26400      1.41200
   997.20        1.18000      0.21400    202.64200      2.67500      1.45700
   997.40        1.25300      0.21500    220.25200      2.93200      1.50800
   997.60        1.47900      0.21300    226.28900      3.24100      1.53800
   997.80        1.69300      0.21200    217.73600      4.01300      1.58200
   998.00        3.76000      0.21400    247.92500      4.21900      1.47900
   998.20        8.77000      0.21500    248.42800      4.63000      1.61500
   998.40        8.57900      0.21500    227.79900      2.77800      1.78300
   998.60        7.27200      0.21400    202.64200      1.64600      1.81800
   998.80        8.57900      0.21600    180.50300      1.56000      1.86300
   999.00       10.29000      0.21500    175.47200      1.49200      1.90000
   999.20        9.84600      0.21300    171.95000      1.90400      1.95100
   999.40        6.54900      0.21400    167.42100      2.16100      1.82600
   999.60        6.51300      0.21500    173.45900      2.01000      1.90000
   999.80       11.11100      0.21600    185.53500      1.71000      2.13600
   1000.00      12.61700      0.21200    191.06900      1.54300      2.39400
   1000.20      11.80900      0.21300    199.12000      1.74900      2.16600
   1000.40      11.36300      0.21700    202.64200      1.49200      2.25400
   1000.60       9.41600      0.21500    189.05700      1.29700      2.34700
   1000.80       5.00400      0.21400    192.57900      1.29700      1.98800
   1001.00       2.58100      0.21300    178.99400      1.29700      1.73000
   1001.20       3.13900      0.21400    174.46500      1.46600      1.64100
   1001.40       3.77500      0.21500    185.03100      1.54300      1.59700
   1001.60       2.51100      0.21500    188.55300      2.26400      1.50100
