~Version information
VERS.              2.00:   CWLS LOG ASCII STANDARD -VERSION 2.00
WRAP.                NO:   one line per depth step
~Well Information Block
#MNEM.UNIT     DATA         DESCRIPTION OF MNEMONIC
#--------  --------------   ------------------------
STRT.M                 3.40:START DEPTH
STOP.M              1049.40:STOP DEPTH
STEP.M                 0.20:STEP VALUE
NULL.           -9999.00000:NULL VALUE
WELL.                 13421:WELL NAME
FLD .             VYATSKAYA:FIELD NAME
CTRY.                RUSSIA:COUNTRY
DATE.            31.01.1988:DATE
UWI .                 13421:UNIQUE WELL IDENTIFIER
SRVC.         ÄêãÄçëäÄü èÉä:çÄáÇÄçàÖ ëÖêÇàëçéâ äéåèÄçàà Éàë
SRVC_OC.                ààí:çÄáÇÄçàÖ ëÖêÇàëçéâ äéåèÄçàà-éñàîêéÇäÄ
~Parameter Information Block
#MNEM.UNIT       Value     Description of mnemonic
#---------   -----------   ------------------------------------
EKB .M               167.49: Elevation Kelly Bushing
TDL.M                  1050: Total Depth
SCD .M          -9999.00000: Surface Casing Diameter
SCDP.M          -9999.00000: Surface Casing Depth
CD  .M                0.228: Casing Diameter
CDP .M                  408: Casing Depth
BS  .M                0.216: Bit Size
                       CLAY: Drill Fluid Type
DFD .G/CM3        1.08-1.12: Drill Fluid Density
DFV .S                22-26: Drill Fluid Viscosity
RMF.OHMM               0.07: Mud Filtrate Resistivity
MT  .C                   18: Meas Temperature
                      DRST3: Cartridge Gamma
TAU_GR.S              1.5;3: GR Time Constant
K_GK                   1500: äéùî. èÖêÖïéÑÄ
SPEED.M/H               690: Speed M/Hour
                     NGK_60: Probe NGR
USL_ED.IMP/MIN         5775: 1 ìëã.ÖÑ.
OTN_KNL.GR/NGR            9: éíçéòÖçàÖ äÄçÄãéÇ
TAU_NGR.S             1.5;3: NGR Time Constant
SPEED.M/H               690: Speed M/Hour
                        K_3: Cartridge BK
                       BK_3: Probe BK
                       USBA: Cartridge DT
                 Sonde 1.4M: Probe DT
                      SKP_1: Cartridge DS
~Curve Information Block
#MNEM.UNIT       API CODE     Curve Description
#---------    -------------   --------------------------------
DEPT.M                    :    1    DEPTH M
BK.OHMM                   :    2    LATEROLOG DEEP
DS.M                      :    3    CALIPER
DT.MCS                    :    4    DELTA TIME INTERVAL TRANSIT TIME MCSEC/M
GR.MCR/H                  :    5    GAMMA RAY MICRO_ROENTGENS PER HOUR
NGR.UE                    :    6    NEUTRON GAMMA RAY
~A DEPT.M       BK           DS           DT           GR           NGR          
# ...
   773.00        1.82700      0.21800  -9999.00000      3.00000      1.66700
   773.20        2.14200      0.21800  -9999.00000      2.65000      1.74700
   773.40        9.20600      0.21700  -9999.00000      2.60000      1.75200
   773.60       21.26900      0.21700  -9999.00000      3.20000      1.94900
   773.80       29.21700      0.21700  -9999.00000      2.95000      1.88000
   774.00       43.14300      0.21700  -9999.00000      2.85000      2.04000
   774.20       60.13300      0.21700  -9999.00000      3.10000      2.11700
   774.40       34.24500      0.21700  -9999.00000      3.30000      1.88800
   774.60       28.37800      0.21700  -9999.00000      3.50000      1.75100
   774.80        4.53800      0.21700  -9999.00000      3.75000      1.62100
   775.00        3.20900      0.21700  -9999.00000      4.00000      1.48400
   775.20        2.26900      0.21700  -9999.00000      4.50000      1.57600
   775.40        2.21400      0.21700  -9999.00000      4.35000      1.79600
   775.60        5.80700      0.21700  -9999.00000      4.00000      1.73500
   775.80       27.18200      0.21700  -9999.00000      3.65000      1.69700
   776.00       24.21700      0.21700  -9999.00000      3.80000      2.01700
   776.20       16.16500      0.21700  -9999.00000      3.95000      2.41400
   776.40       11.76600      0.21700  -9999.00000      4.85000      2.58100
   776.60       10.48300      0.21700  -9999.00000      3.55000      2.40600
   776.80       10.33300      0.21700  -9999.00000      3.00000      2.24600
   777.00       11.76600      0.21700  -9999.00000      2.45000      2.37600
   777.20       15.03900      0.21700  -9999.00000      2.65000      2.36000
   777.40       18.40800      0.21700  -9999.00000      2.75000      2.10100
   777.60       27.57500      0.21700  -9999.00000      2.95000      1.95600
   777.80       20.07300      0.21800  -9999.00000      3.15000      1.81200
   778.00       11.93700      0.21800  -9999.00000      3.75000      1.64400
   778.20        8.56500      0.21800  -9999.00000      4.35000      1.60600
   778.40        7.85400      0.21900  -9999.00000      4.90000      1.81200
   778.60       10.94800      0.21900  -9999.00000      5.70100      1.86500
   778.80       14.61100      0.22000  -9999.00000      8.55000      1.91100
   779.00        8.68900      0.22200  -9999.00000     13.00000      2.04000
   779.20        5.80000      0.22200  -9999.00000     14.20000      2.08600
   779.40        4.87700      0.22000  -9999.00000     14.60000      1.97900
   779.60        6.80400      0.21900  -9999.00000     14.74900      1.85000
   779.80       25.28900      0.21900  -9999.00000     12.00000      1.75100
   780.00       27.18200      0.21900  -9999.00000      9.35000      1.59800
   780.20        5.09300      0.21900  -9999.00000      5.44500      1.61400
   780.40        4.94800      0.21800  -9999.00000      5.44500      1.62100
   780.60       10.63600      0.21900  -9999.00000      5.95000      1.88000
   780.80       15.48000      0.21900  -9999.00000      5.35000      1.98700
   781.00       14.82400      0.21900  -9999.00000      4.05000      1.81200
   781.20        4.94800      0.21900  -9999.00000      3.80000      1.69700
   781.40        2.90100      0.21900  -9999.00000      3.55000      1.62100
   781.60        4.28200      0.21900  -9999.00000      3.40000      1.74300
   781.80        2.11100      0.21900  -9999.00000      3.30000      1.80400
   782.00        4.73900      0.21900  -9999.00000      3.20000      1.72000
   782.20       11.93700      0.21900  -9999.00000      2.95000      1.97900
   782.40        9.89500      0.22000  -9999.00000      2.70000      2.17000
   782.60        5.97000      0.22000  -9999.00000      2.50000      2.33000
   782.80        4.80800      0.22000  -9999.00000      2.30000      2.33800
   783.00        4.47300      0.22100  -9999.00000      2.00000      2.19300
   783.20        4.60400      0.22100  -9999.00000      2.40000      2.10100
   783.40        5.16700      0.22100  -9999.00000      2.10000      1.96400
   783.60        4.60400      0.22100  -9999.00000      2.20000      2.07100
   783.80        4.53800      0.22100  -9999.00000      2.40000      2.13900
   784.00        6.32500      0.22100  -9999.00000      2.65000      2.24600
   784.20       10.33300      0.22100  -9999.00000      2.85000      2.18500
   784.40       10.18500      0.22100  -9999.00000      3.05000      2.10900
   784.60        4.40900      0.22000  -9999.00000      2.85000      2.03300
   784.80        3.44900      0.22100  -9999.00000      2.60000      1.96400
   785.00        2.98600      0.22100  -9999.00000      3.05000      1.85000
   785.20       11.43100      0.22100  -9999.00000      3.45000      1.84200
   785.40       23.87000      0.22100  -9999.00000      3.70000      1.83500
   785.60        9.75200      0.22100  -9999.00000      4.10000      2.22300
   785.80        6.51000      0.22100  -9999.00000      4.45000      2.23800
   786.00        5.02000      0.22000  -9999.00000      4.55000      2.06300
   786.20        5.55400      0.22000  -9999.00000      5.50000      1.97900
   786.40        7.85400      0.22000  -9999.00000      4.20000      2.07800
   786.60        8.56400      0.21900  -9999.00000      3.60000      2.14700
   786.80        4.94800      0.21900  -9999.00000      4.20000      2.22300
   787.00        3.76100      0.22000  -9999.00000      4.00000      2.20800
   787.20        3.16300      0.22000  -9999.00000      2.80000      2.11700
   787.40        3.02900      0.22000  -9999.00000      2.55000      1.98700
   787.60        6.23500      0.22000  -9999.00000      2.30000      2.04000
   787.80        8.44200      0.22000  -9999.00000      2.45000      2.10100
   788.00        2.51100      0.22000  -9999.00000      2.65000      1.98700
   788.20        3.07300      0.22000  -9999.00000      2.80000      2.03300
   788.40        8.81600      0.22000  -9999.00000      3.05000      1.97200
   788.60        7.09800      0.22000  -9999.00000      3.35000      1.94100
   788.80        3.76100      0.22000  -9999.00000      3.70000      2.13200
   789.00        3.20900      0.22000  -9999.00000      4.15000      2.17700
   789.20        4.73900      0.22000  -9999.00000      4.60000      2.17000
   789.40        5.80000      0.22000  -9999.00000      5.50000      2.07100
   789.60        6.41700      0.22000  -9999.00000      5.00000      2.43600
   789.80        5.02000      0.21900  -9999.00000      3.55000      2.43600
   790.00        6.70100      0.22000  -9999.00000      3.53000      2.30700
   790.20        8.94400      0.22000  -9999.00000      3.45000      2.15500
   790.40        9.47500      0.22000  -9999.00000      3.25000      2.26100
   790.60        7.52200      0.22000  -9999.00000      3.05000      2.24600
   790.80        9.20600      0.22100  -9999.00000      2.90000      2.23800
   791.00        5.63500      0.22200  -9999.00000      2.75000      2.02500
   791.20        3.92800      0.22500  -9999.00000      2.60000      1.92600
   791.40        2.90100      0.22400  -9999.00000      2.85000      1.72000
   791.60        4.87800      0.22200  -9999.00000      3.00000      1.93400
   791.80        7.20200      0.22000  -9999.00000      3.10000      2.07800
   792.00        9.89500      0.21900  -9999.00000      3.15000      2.31500
   792.20       14.61100      0.21900  -9999.00000      3.20000      2.25400
   792.40       12.46600      0.21900  -9999.00000      3.35000      2.11700
   792.60       15.03700      0.21900  -9999.00000      3.45000      1.98700
   792.80        7.30700      0.21900  -9999.00000      3.30000      1.86500
   793.00        4.94800      0.21900  -9999.00000      3.25000      1.75800
   793.20        8.68900      0.21900  -9999.00000      3.10000      1.59800
   793.40       14.82400      0.21900  -9999.00000      3.85000      1.59100
   793.60       19.22100      0.21900  -9999.00000      4.60000      2.05600
