~Version information
VERS.              2.00:   CWLS LOG ASCII STANDARD -VERSION 2.00
WRAP.                NO:   one line per depth step
~Well Information Block
#MNEM.UNIT     DATA         DESCRIPTION OF MNEMONIC
#--------  --------------   ------------------------
STRT.M                 3.40:START DEPTH
STOP.M              1049.40:STOP DEPTH
STEP.M                 0.20:STEP VALUE
NULL.           -9999.00000:NULL VALUE
WELL.                 13421:WELL NAME
FLD .             VYATSKAYA:FIELD NAME
CTRY.                RUSSIA:COUNTRY
DATE.            31.01.1988:DATE
UWI .                 13421:UNIQUE WELL IDENTIFIER
SRVC.         ÄêãÄçëäÄü èÉä:çÄáÇÄçàÖ ëÖêÇàëçéâ äéåèÄçàà Éàë
SRVC_OC.                ààí:çÄáÇÄçàÖ ëÖêÇàëçéâ äéåèÄçàà-éñàîêéÇäÄ
~Parameter Information Block
#MNEM.UNIT       Value     Description of mnemonic
#---------   -----------   ------------------------------------
EKB .M               167.49: Elevation Kelly Bushing
TDL.M                  1050: Total Depth
SCD .M          -9999.00000: Surface Casing Diameter
SCDP.M          -9999.00000: Surface Casing Depth
CD  .M                0.228: Casing Diameter
CDP .M                  408: Casing Depth
BS  .M                0.216: Bit Size
                       CLAY: Drill Fluid Type
DFD .G/CM3        1.08-1.12: Drill Fluid Density
DFV .S                22-26: Drill Fluid Viscosity
RMF.OHMM               0.07: Mud Filtrate Resistivity
MT  .C                   18: Meas Temperature
                      DRST3: Cartridge Gamma
TAU_GR.S              1.5;3: GR Time Constant
K_GK                   1500: äéùî. èÖêÖïéÑÄ
SPEED.M/H               690: Speed M/Hour
                     NGK_60: Probe NGR
USL_ED.IMP/MIN         5775: 1 ìëã.ÖÑ.
OTN_KNL.GR/NGR            9: éíçéòÖçàÖ äÄçÄãéÇ
TAU_NGR.S             1.5;3: NGR Time Constant
SPEED.M/H               690: Speed M/Hour
                        K_3: Cartridge BK
                       BK_3: Probe BK
                       USBA: Cartridge DT
                 Sonde 1.4M: Probe DT
                      SKP_1: Cartridge DS
~Curve Information Block
#MNEM.UNIT       API CODE     Curve Description
#---------    -------------   --------------------------------
DEPT.M                    :    1    DEPTH M
BK.OHMM                   :    2    LATEROLOG DEEP
DS.M                      :    3    CALIPER
DT.MCS                    :    4    DELTA TIME INTERVAL TRANSIT TIME MCSEC/M
GR.MCR/H                  :    5    GAMMA RAY MICRO_ROENTGENS PER HOUR
NGR.UE                    :    6    NEUTRON GAMMA RAY
~A DEPT.M       BK           DS           DT           GR           NGR          
# ...
   606.60       15.48100      0.21200  -9999.00000      5.55000      1.97900
   606.80       19.78600      0.21200  -9999.00000      6.60000      2.05600
   607.00       25.28900      0.21200  -9999.00000      7.10000      2.14700
   607.20       26.79200      0.21200  -9999.00000      5.90000      2.19300
   607.40       10.33300      0.21200  -9999.00000      4.45000      2.02500
   607.60        7.97000      0.21200  -9999.00000      4.20000      1.89600
   607.80       13.59400      0.21200  -9999.00000      5.30000      1.69700
   608.00       21.57600      0.21200  -9999.00000      4.45000      1.67500
   608.20       24.56900      0.21200  -9999.00000      4.55000      1.82700
   608.40       12.28700      0.21200  -9999.00000      4.90000      1.98700
   608.60        7.41200      0.21100  -9999.00000      5.25000      1.93400
   608.80        4.94800      0.21200  -9999.00000      5.00000      1.85700
   609.00        7.20200      0.21300  -9999.00000      4.81100      1.76600
   609.20       11.26800      0.21300  -9999.00000      4.62200      1.81900
   609.40       15.25800      0.21400  -9999.00000      4.48900      1.89600
   609.60       17.37800      0.21500  -9999.00000      3.18100      1.96400
   609.80       25.65700      0.21400  -9999.00000      2.91500      1.98700
   610.00       26.03000      0.21400  -9999.00000      3.20000      1.90300
   610.20        9.34000      0.21300  -9999.00000      3.45000      1.74300
   610.40        5.47500      0.21400  -9999.00000      3.90000      1.77400
   610.60       15.04000      0.21400  -9999.00000      4.05000      1.83500
   610.80       19.78600      0.21300  -9999.00000      4.10000      1.90300
   611.00       19.78600      0.21300  -9999.00000      3.70000      1.98700
   611.20       23.19100      0.21300  -9999.00000      3.15000      2.17700
   611.40       25.65700      0.21300  -9999.00000      2.90000      2.09400
   611.60       30.50700      0.21300  -9999.00000      2.65000      1.97200
   611.80       19.22200      0.21400  -9999.00000      2.10000      1.83500
   612.00       12.64700      0.21400  -9999.00000      2.00000      1.99500
   612.20        9.07400      0.21400  -9999.00000      2.35000      1.85000
   612.40        6.51000      0.21400  -9999.00000      2.30000      1.79600
   612.60        4.80800      0.21400  -9999.00000      2.30000      1.75100
   612.80        3.70700      0.21300  -9999.00000      2.35000      1.89600
   613.00        2.37000      0.21300  -9999.00000      2.45000      1.72000
   613.20        2.69900      0.21300  -9999.00000      2.15000      1.65200
   613.40        3.16300      0.21200  -9999.00000      2.15000      1.58300
   613.60        2.77800      0.21200  -9999.00000      2.50000      1.55300
   613.80        2.43900      0.21200  -9999.00000      2.75000      1.42300
   614.00        1.82700      0.21200  -9999.00000      3.00000      1.40800
   614.20        1.96400      0.21300  -9999.00000      3.25000      1.57500
   614.40       10.82100      0.21400  -9999.00000      3.45000      1.64400
   614.60        9.34000      0.21400  -9999.00000      3.65000      1.74300
   614.80        8.44200      0.21500  -9999.00000      3.80000      1.87300
   615.00       47.73100      0.21500  -9999.00000      4.20000      2.00200
   615.20      102.58600      0.21200  -9999.00000      4.05000      2.23800
   615.40       82.61200      0.21100  -9999.00000      3.85000      2.23100
   615.60       54.34500      0.21200  -9999.00000      3.30000      2.02500
   615.80       26.79200      0.21400  -9999.00000      3.10000      1.87300
   616.00       12.64700      0.21400  -9999.00000      3.60000      1.65900
   616.20        8.20200      0.21400  -9999.00000      3.95000      1.65900
   616.40       22.20800      0.21500  -9999.00000      4.40000      1.81900
   616.60       52.04500      0.21600  -9999.00000      3.65000      1.86500
   616.80       39.56300      0.21500  -9999.00000      3.10000      2.00200
   617.00       23.87000      0.21300  -9999.00000      2.95000      2.01000
   617.20       10.63500      0.21300  -9999.00000      3.35000      1.86500
   617.40       11.43100      0.21200  -9999.00000      3.75000      1.75100
   617.60       17.12700      0.21100  -9999.00000      3.50000      1.85700
   617.80       20.36500      0.21200  -9999.00000      3.25000      1.70500
   618.00       17.12600      0.21200  -9999.00000      3.00000      1.65200
   618.20        7.20200      0.21300  -9999.00000      2.70000      1.49900
   618.40        7.85400      0.21400  -9999.00000      2.50000      1.56000
   618.60        9.47500      0.21500  -9999.00000      2.30000      1.69700
   618.80       10.33300      0.21600  -9999.00000      2.00000      1.62100
   619.00        6.23400      0.21600  -9999.00000      2.25000      1.47600
   619.20        5.88400      0.21600  -9999.00000      2.55000      1.56800
   619.40        8.56500      0.21600  -9999.00000      2.80000      1.64400
   619.60       15.70200      0.21600  -9999.00000      3.10000      1.76600
   619.80        5.39600      0.21500  -9999.00000      3.25000      1.77400
   620.00        4.47300      0.21400  -9999.00000      3.15000      1.55300
   620.20        3.87100      0.21300  -9999.00000      2.80000      1.55300
   620.40        3.40000      0.21300  -9999.00000      3.10000      1.58300
   620.60        4.41000      0.21400  -9999.00000      3.35000      1.73500
   620.80        6.32500      0.21500  -9999.00000      3.40000      1.66700
   621.00       11.26800      0.21700  -9999.00000      3.40000      1.59800
   621.20       10.63500      0.21600  -9999.00000      3.45000      1.70500
   621.40       10.33300      0.21500  -9999.00000      3.65000      1.78100
   621.60        9.61400      0.21400  -9999.00000      3.85000      1.81900
   621.80       12.11100      0.21400  -9999.00000      4.10000      1.77400
   622.00       18.67500      0.21400  -9999.00000      3.80000      1.91800
   622.20       17.12600      0.21300  -9999.00000      3.95000      1.88800
   622.40       13.79100      0.21300  -9999.00000      4.40000      1.86500
   622.60       10.79200      0.21200  -9999.00000      7.25000      2.29900
   622.80       16.40000      0.21200  -9999.00000      7.05000      2.52000
   623.00       22.85800      0.21400  -9999.00000      6.70000      2.73400
   623.20       37.34300      0.21600  -9999.00000      4.90000      2.96800
   623.40       30.95300      0.21700  -9999.00000      3.90000      2.75700
   623.60       24.21600      0.22000  -9999.00000      3.35000      2.58900
   623.80       21.26700      0.21900  -9999.00000      2.90000      2.49800
   624.00       19.50200      0.21700  -9999.00000      3.10000      2.40600
   624.20       16.40000      0.21600  -9999.00000      3.10000      2.29200
   624.40       11.59800      0.21600  -9999.00000      3.20000      2.19300
   624.60        9.20500      0.21700  -9999.00000      3.40000      2.03300
   624.80        7.41300      0.21900  -9999.00000      3.85000      2.01000
   625.00        6.60500      0.22000  -9999.00000      3.30000      2.26300
   625.20       14.19500      0.21600  -9999.00000      3.30000      2.41400
   625.40       21.26700      0.21400  -9999.00000      3.45000      2.76200
   625.60       32.32400      0.21200  -9999.00000      4.25000      2.79700
   625.80       34.74300      0.21000  -9999.00000      3.85000      2.87900
   626.00       19.78600      0.20800  -9999.00000      3.75000      2.78000
   626.20       13.39900      0.20900  -9999.00000      3.65000      2.68000
   626.40       14.82400      0.21100  -9999.00000      3.50000      2.55900
   626.60       16.63900      0.21200  -9999.00000      3.20000      2.43700
   626.80       20.07300      0.21300  -9999.00000      3.35000      2.31500
   627.00       13.39900      0.21400  -9999.00000      4.10000      2.19300
   627.20       11.10600      0.21400  -9999.00000      4.75000      2.07800
