~Version information
VERS.              2.00:   CWLS LOG ASCII STANDARD -VERSION 2.00
WRAP.                NO:   one line per depth step
~Well Information Block
#MNEM.UNIT     DATA         DESCRIPTION OF MNEMONIC
#--------  --------------   ------------------------
STRT.M                 4.20:START DEPTH
STOP.M              1057.00:STOP DEPTH
STEP.M                 0.20:STEP VALUE
NULL.           -9999.00000:NULL VALUE
WELL.                 13420:WELL NAME
FLD .             VYATSKAYA:FIELD NAME
CTRY.                RUSSIA:COUNTRY
DATE.            06.03.1988:DATE
UWI .                 13420:UNIQUE WELL IDENTIFIER
SRVC.         ÄêãÄçëäÄü èÉä:çÄáÇÄçàÖ ëÖêÇàëçéâ äéåèÄçàà Éàë
SRVC_OC.                ààí:çÄáÇÄçàÖ ëÖêÇàëçéâ äéåèÄçàà-éñàîêéÇäÄ
~Parameter Information Block
#MNEM.UNIT       Value     Description of mnemonic
#---------   -----------   ------------------------------------
EKB .M               166.47: Elevation Kelly Bushing
TDL.M                  1055: Total Depth
SCD .M          -9999.00000: Surface Casing Diameter
SCDP.M          -9999.00000: Surface Casing Depth
CD  .M                0.228: Casing Diameter
CDP .M                  400: Casing Depth
BS  .M                0.216: Bit Size
                       CLAY: Drill Fluid Type
DFD .G/CM3        1.09-1.06: Drill Fluid Density
DFV .S                19-25: Drill Fluid Viscosity
RMF.OHMM               0.07: Mud Filtrate Resistivity
MT  .C                   18: Meas Temperature
                      DRST3: Cartridge Gamma
TAU_GR.S              1.5;3: GR Time Constant
K_GK                   1500: äéùî. èÖêÖïéÑÄ
SPEED.M/H           390;780: Speed M/Hour
                     NGK_60: Probe NGR
USL_ED.IMP/MIN         5775: 1 ìëã.ÖÑ.
OTN_KNL.GR/NGR            9: éíçéòÖçàÖ äÄçÄãéÇ
TAU_NGR.S             1.5;3: NGR Time Constant
SPEED.M/H           390;780: Speed M/Hour
                        K_3: Cartridge BK
                       BK_3: Probe BK
                       USBA: Cartridge DT
                 Sonde 1.4M: Probe DT
                      SKP_1: Cartridge DS
~Curve Information Block
#MNEM.UNIT       API CODE     Curve Description
#---------    -------------   --------------------------------
DEPT.M                    :    1    DEPTH M
BK.OHMM                   :    2    LATEROLOG DEEP
DS.M                      :    3    CALIPER
DT.MCS                    :    4    DELTA TIME INTERVAL TRANSIT TIME MCSEC/M
GR.MCR/H                  :    5    GAMMA RAY MICRO_ROENTGENS PER HOUR
NGR.UE                    :    6    NEUTRON GAMMA RAY
~A DEPT.M       BK           DS           DT           GR           NGR          
# ...
   441.00      161.89600      0.21200  -9999.00000      1.10300      2.41300
   441.20      136.07000      0.21100  -9999.00000      1.25400      2.26300
   441.40      114.36400      0.21100  -9999.00000      1.35400      2.48100
   441.60       89.40700      0.21100  -9999.00000      1.35400      2.73700
   441.80       59.60400      0.21100  -9999.00000      1.40400      2.77400
   442.00       65.01400      0.21200  -9999.00000      1.40400      2.57100
   442.20       76.24100      0.21200  -9999.00000      1.40400      2.43600
   442.40       92.03400      0.21200  -9999.00000      1.35400      2.34500
   442.60       28.89400      0.21200  -9999.00000      1.45500      2.21000
   442.80       15.05700      0.21200  -9999.00000      1.55500      2.05200
   443.00        9.47400      0.21200  -9999.00000      1.60500      1.93900
   443.20        6.40800      0.21200  -9999.00000      1.75500      1.86400
   443.40        7.09100      0.21200  -9999.00000      1.85600      1.77400
   443.60        7.96200      0.21200  -9999.00000      1.65500      1.82600
   443.80        9.33700      0.21200  -9999.00000      1.45500      1.86400
   444.00        9.89400      0.21200  -9999.00000      1.30400      1.87900
   444.20        7.96200      0.21300  -9999.00000      1.20400      1.90900
   444.40        6.88900      0.21300  -9999.00000      1.10300      1.87900
   444.60        6.04700      0.21400  -9999.00000      1.20400      1.85600
   444.80        4.86600      0.21400  -9999.00000      1.30400      1.82600
   445.00        5.62500      0.21400  -9999.00000      1.40400      1.80400
   445.20        6.59600      0.21500  -9999.00000      1.35400      1.75900
   445.40        7.84800      0.21500  -9999.00000      1.25400      1.87100
   445.60        6.69200      0.21600  -9999.00000      1.40400      2.02200
   445.80        6.04700      0.21500  -9999.00000      1.45500      2.14200
   446.00        5.70700      0.21500  -9999.00000      1.65500      2.08200
   446.20        5.30800      0.21500  -9999.00000      1.60500      2.02900
   446.40        4.86600      0.21600  -9999.00000      1.60500      1.96200
   446.60        4.33400      0.21600  -9999.00000      1.70500      1.90200
   446.80        3.75000      0.21600  -9999.00000      1.80600      1.84100
   447.00        3.24400      0.21500  -9999.00000      1.90600      1.78100
   447.20        2.53600      0.21500  -9999.00000      2.00600      1.73600
   447.40        3.06200      0.21500  -9999.00000      2.00600      1.70600
   447.60        4.03100      0.21500  -9999.00000      1.70500      1.68300
   447.80        6.31600      0.21500  -9999.00000      1.50500      1.66100
   448.00        5.00900      0.21500  -9999.00000      1.30400      1.64600
   448.20        3.75000      0.21500  -9999.00000      1.35400      1.67600
   448.40        4.27200      0.21600  -9999.00000      1.45500      1.69100
   448.60        4.86600      0.21600  -9999.00000      1.55500      1.69100
   448.80        5.46400      0.21700  -9999.00000      1.60500      1.68300
   449.00        5.96000      0.21800  -9999.00000      1.70500      1.67600
   449.20        6.31600      0.21700  -9999.00000      1.60500      1.64600
   449.40        6.88900      0.21600  -9999.00000      1.50500      1.69100
   449.60        6.13500      0.21600  -9999.00000      1.40400      1.73600
   449.80        5.54400      0.21600  -9999.00000      1.35400      1.80400
   450.00        3.69600      0.21600  -9999.00000      1.25400      1.87100
   450.20        2.84800      0.21500  -9999.00000      1.40400      1.93900
   450.40        3.91600      0.21500  -9999.00000      1.60500      1.99900
   450.60        4.79600      0.21400  -9999.00000      1.80600      2.06700
   450.80        6.31600      0.21400  -9999.00000      1.95600      2.08200
   451.00        7.09100      0.21400  -9999.00000      2.10700      2.01400
   451.20        7.30000      0.21500  -9999.00000      1.95600      1.97700
   451.40        7.51400      0.21600  -9999.00000      1.85600      2.02200
   451.60        7.84800      0.21500  -9999.00000      1.75500      2.04500
   451.80        8.31600      0.21300  -9999.00000      1.60500      2.06000
   452.00        9.07100      0.21300  -9999.00000      1.50500      2.09000
   452.20        9.89400      0.21300  -9999.00000      1.50500      2.15000
   452.40       10.79300      0.21400  -9999.00000      1.45500      2.22500
   452.60       11.60300      0.21300  -9999.00000      1.40400      2.33800
   452.80       13.21800      0.21200  -9999.00000      1.35400      2.45800
   453.00       15.50100      0.21200  -9999.00000      1.30400      2.54100
   453.20       19.54300      0.21200  -9999.00000      1.25400      2.72900
   453.40       21.94300      0.21200  -9999.00000      1.05300      2.52600
   453.60       13.80500      0.21100  -9999.00000      1.00300      2.10500
   453.80       10.95000      0.21100  -9999.00000      1.40400      2.12700
   454.00        9.07100      0.21000  -9999.00000      1.60500      2.15000
   454.20        8.43700      0.21100  -9999.00000      1.55500      2.16500
   454.40       10.79300      0.21200  -9999.00000      1.45500      2.18000
   454.60       13.02800      0.21200  -9999.00000      1.60500      2.09700
   454.80       17.40500      0.21200  -9999.00000      1.75500      2.06000
   455.00       16.18900      0.21200  -9999.00000      1.90600      2.00700
   455.20       13.80500      0.21200  -9999.00000      2.05600      1.90900
   455.40       11.27200      0.21200  -9999.00000      2.20700      1.80400
   455.60        8.68500      0.21200  -9999.00000      2.40800      1.69800
   455.80        6.40800      0.21100  -9999.00000      2.55800      1.61600
   456.00        4.66000      0.21100  -9999.00000      2.70800      1.54000
   456.20        3.48800      0.21000  -9999.00000      2.85900      1.48000
   456.40        2.80700      0.21000  -9999.00000      2.95900      1.28500
   456.60        2.50000      0.21000  -9999.00000      3.11000      1.29200
   456.80        2.22600      0.21100  -9999.00000      2.87500      1.30000
   457.00        2.01200      0.21100  -9999.00000      2.83800      1.30700
   457.20        1.87100      0.21100  -9999.00000      2.82000      1.32200
   457.40        1.71500      0.21200  -9999.00000      2.82000      1.31500
   457.60        1.74000      0.21200  -9999.00000      3.00900      1.25500
   457.80        1.79200      0.21300  -9999.00000      3.31000      1.20200
   458.00        1.81800      0.21300  -9999.00000      3.36100      1.27000
   458.20        1.87100      0.21400  -9999.00000      2.95900      1.31500
   458.40        1.92600      0.21400  -9999.00000      2.60800      1.35200
   458.60        2.01200      0.21400  -9999.00000      2.82000      1.40500
   458.80        2.16300      0.21300  -9999.00000      3.16000      1.39700
   459.00        2.10100      0.21300  -9999.00000      3.51100      1.38200
   459.20        2.01200      0.21200  -9999.00000      3.31000      1.38200
   459.40        1.95400      0.21200  -9999.00000      3.16000      1.36700
   459.60        1.89800      0.21100  -9999.00000      3.31000      1.36000
   459.80        1.89900      0.21100  -9999.00000      3.71200      1.59300
   460.00        2.46400      0.21200  -9999.00000      3.61100      1.68300
   460.20        3.64300      0.21300  -9999.00000      3.46100      1.78100
   460.40        5.15700      0.21400  -9999.00000      3.21000      1.87900
   460.60        6.59600      0.21300  -9999.00000      3.56100      2.06000
   460.80        9.20300      0.21200  -9999.00000      4.01300      1.99900
   461.00        9.33700      0.21200  -9999.00000      4.26300      1.95400
   461.20        7.30000      0.21100  -9999.00000      4.26300      1.87100
   461.40        6.50100      0.21100  -9999.00000      4.26300      1.93900
   461.60        6.40800      0.21100  -9999.00000      4.96600      1.99900
