~Version information
VERS.              2.00:   CWLS LOG ASCII STANDARD -VERSION 2.00
WRAP.                NO:   one line per depth step
~Well Information Block
#MNEM.UNIT     DATA         DESCRIPTION OF MNEMONIC
#--------  --------------   ------------------------
STRT.M                 4.20:START DEPTH
STOP.M              1057.00:STOP DEPTH
STEP.M                 0.20:STEP VALUE
NULL.           -9999.00000:NULL VALUE
WELL.                 13420:WELL NAME
FLD .             VYATSKAYA:FIELD NAME
CTRY.                RUSSIA:COUNTRY
DATE.            06.03.1988:DATE
UWI .                 13420:UNIQUE WELL IDENTIFIER
SRVC.         ÄêãÄçëäÄü èÉä:çÄáÇÄçàÖ ëÖêÇàëçéâ äéåèÄçàà Éàë
SRVC_OC.                ààí:çÄáÇÄçàÖ ëÖêÇàëçéâ äéåèÄçàà-éñàîêéÇäÄ
~Parameter Information Block
#MNEM.UNIT       Value     Description of mnemonic
#---------   -----------   ------------------------------------
EKB .M               166.47: Elevation Kelly Bushing
TDL.M                  1055: Total Depth
SCD .M          -9999.00000: Surface Casing Diameter
SCDP.M          -9999.00000: Surface Casing Depth
CD  .M                0.228: Casing Diameter
CDP .M                  400: Casing Depth
BS  .M                0.216: Bit Size
                       CLAY: Drill Fluid Type
DFD .G/CM3        1.09-1.06: Drill Fluid Density
DFV .S                19-25: Drill Fluid Viscosity
RMF.OHMM               0.07: Mud Filtrate Resistivity
MT  .C                   18: Meas Temperature
                      DRST3: Cartridge Gamma
TAU_GR.S              1.5;3: GR Time Constant
K_GK                   1500: äéùî. èÖêÖïéÑÄ
SPEED.M/H           390;780: Speed M/Hour
                     NGK_60: Probe NGR
USL_ED.IMP/MIN         5775: 1 ìëã.ÖÑ.
OTN_KNL.GR/NGR            9: éíçéòÖçàÖ äÄçÄãéÇ
TAU_NGR.S             1.5;3: NGR Time Constant
SPEED.M/H           390;780: Speed M/Hour
                        K_3: Cartridge BK
                       BK_3: Probe BK
                       USBA: Cartridge DT
                 Sonde 1.4M: Probe DT
                      SKP_1: Cartridge DS
~Curve Information Block
#MNEM.UNIT       API CODE     Curve Description
#---------    -------------   --------------------------------
DEPT.M                    :    1    DEPTH M
BK.OHMM                   :    2    LATEROLOG DEEP
DS.M                      :    3    CALIPER
DT.MCS                    :    4    DELTA TIME INTERVAL TRANSIT TIME MCSEC/M
GR.MCR/H                  :    5    GAMMA RAY MICRO_ROENTGENS PER HOUR
NGR.UE                    :    6    NEUTRON GAMMA RAY
~A DEPT.M       BK           DS           DT           GR           NGR          
# ...
   524.20        5.70700      0.21000  -9999.00000      3.56100      2.27000
   524.40        5.00900      0.20900  -9999.00000      3.46100      2.29300
   524.60        3.97300      0.21000  -9999.00000      3.46100      2.20300
   524.80        2.84800      0.21000  -9999.00000      3.41100      2.06000
   525.00        3.91600      0.21100  -9999.00000      3.31000      2.25500
   525.20        5.70700      0.21100  -9999.00000      3.46100      2.35300
   525.40        8.56000      0.21100  -9999.00000      3.56100      2.50300
   525.60       11.94600      0.21000  -9999.00000      3.66100      2.95500
   525.80       20.11700      0.21000  -9999.00000      3.71200      2.79700
   526.00       17.91600      0.21000  -9999.00000      3.66100      2.60900
   526.20       14.62900      0.20900  -9999.00000      3.61100      2.41300
   526.40       10.95000      0.20900  -9999.00000      3.51100      2.03200
   526.60        7.62300      0.20900  -9999.00000      3.51100      2.03200
   526.80        5.87400      0.20900  -9999.00000      3.66100      2.05200
   527.00        5.08200      0.20900  -9999.00000      3.76200      2.06700
   527.20        4.66000      0.21000  -9999.00000      3.81200      2.09700
   527.40        4.39700      0.21000  -9999.00000      3.71200      1.99200
   527.60        4.15000      0.21100  -9999.00000      3.51100      1.85600
   527.80        3.97300      0.21200  -9999.00000      3.26000      1.74400
   528.00        3.75000      0.21300  -9999.00000      2.95900      1.65300
   528.20        3.53900      0.21300  -9999.00000      3.11000      1.60100
   528.40        3.34000      0.21300  -9999.00000      3.16000      1.55500
   528.60        3.15200      0.21200  -9999.00000      3.26000      1.49500
   528.80        2.97400      0.21100  -9999.00000      3.16000      1.54800
   529.00        2.88900      0.20900  -9999.00000      3.00900      1.63100
   529.20        2.84800      0.21000  -9999.00000      2.80900      1.75100
   529.40        2.80700      0.21100  -9999.00000      2.50800      1.79600
   529.60        2.76600      0.21100  -9999.00000      2.55800      1.51000
   529.80        2.76600      0.21100  -9999.00000      2.70800      1.37500
   530.00        2.80700      0.21100  -9999.00000      2.70800      1.35200
   530.20        2.97400      0.21100  -9999.00000      2.65800      1.33000
   530.40        3.43800      0.21100  -9999.00000      2.55800      1.42000
   530.60        4.09000      0.21000  -9999.00000      2.60800      1.54800
   530.80        5.38600      0.20900  -9999.00000      2.70800      1.64600
   531.00        5.54400      0.20900  -9999.00000      2.75900      1.72100
   531.20        4.09000      0.20900  -9999.00000      2.85900      1.76600
   531.40        3.38800      0.20900  -9999.00000      3.06000      1.82600
   531.60        3.59000      0.20900  -9999.00000      2.80900      1.79600
   531.80        4.09000      0.20900  -9999.00000      2.60800      1.77400
   532.00        4.66000      0.21000  -9999.00000      2.20700      1.73600
   532.20        5.23200      0.21000  -9999.00000      2.45800      1.67600
   532.40        6.40800      0.21000  -9999.00000      2.70800      1.59300
   532.60        3.53800      0.21000  -9999.00000      2.85900      1.49500
   532.80        1.81800      0.21000  -9999.00000      2.65800      1.40500
   533.00        1.92600      0.21000  -9999.00000      2.50800      1.33700
   533.20        2.32500      0.21100  -9999.00000      2.45800      1.28500
   533.40        2.72700      0.21200  -9999.00000      2.40800      1.23900
   533.60        3.29200      0.21200  -9999.00000      2.40800      1.40500
   533.80        4.15000      0.21200  -9999.00000      2.35700      1.51000
   534.00        5.23200      0.21100  -9999.00000      2.30700      1.60800
   534.20        6.59600      0.21300  -9999.00000      2.40800      1.69100
   534.40        7.84800      0.21400  -9999.00000      2.50800      1.75900
   534.60        8.68500      0.21200  -9999.00000      2.55800      1.79600
   534.80        8.07900      0.21000  -9999.00000      2.60800      1.90200
   535.00        7.96200      0.20800  -9999.00000      2.75900      1.78900
   535.20        7.73500      0.20900  -9999.00000      2.90900      1.72100
   535.40        7.62400      0.21000  -9999.00000      3.16000      1.66100
   535.60        7.40600      0.21000  -9999.00000      3.31000      1.63100
   535.80        7.62400      0.21000  -9999.00000      2.80900      1.59300
   536.00        8.07900      0.21000  -9999.00000      2.50800      1.59300
   536.20        8.56000      0.21000  -9999.00000      2.40800      1.63100
   536.40        9.20300      0.20900  -9999.00000      2.30700      1.66100
   536.60        9.89400      0.21000  -9999.00000      2.30700      1.68300
   536.80       10.48400      0.21000  -9999.00000      2.25700      1.72100
   537.00       10.95000      0.21000  -9999.00000      2.15700      1.63800
   537.20       11.43600      0.21000  -9999.00000      2.25700      1.59300
   537.40       12.11800      0.21000  -9999.00000      2.40800      1.61600
   537.60       10.48400      0.21000  -9999.00000      2.70800      1.63800
   537.80        9.33700      0.21000  -9999.00000      2.95900      1.65300
   538.00        8.07900      0.21000  -9999.00000      3.36100      1.60800
   538.20        6.88900      0.21000  -9999.00000      3.16000      1.54800
   538.40        5.70700      0.21000  -9999.00000      2.90900      1.57800
   538.60        4.72700      0.20900  -9999.00000      2.85900      1.62300
   538.80        3.97300      0.20900  -9999.00000      3.16000      1.61600
   539.00        3.48800      0.20900  -9999.00000      3.31000      1.62300
   539.20        3.19800      0.20900  -9999.00000      3.46100      1.60100
   539.40        2.93100      0.20900  -9999.00000      3.61100      1.64600
   539.60        2.68700      0.20900  -9999.00000      3.71200      1.69100
   539.80        2.46400      0.21000  -9999.00000      3.81200      1.74400
   540.00        2.46400      0.21000  -9999.00000      3.71200      1.71300
   540.20        3.01800      0.21000  -9999.00000      3.61100      1.72900
   540.40        3.38800      0.21100  -9999.00000      3.46100      1.73600
   540.60        3.69600      0.21000  -9999.00000      3.36100      1.74400
   540.80        4.03100      0.20900  -9999.00000      3.31000      1.75900
   541.00        4.39700      0.20800  -9999.00000      3.21000      1.77400
   541.20        4.72700      0.20800  -9999.00000      3.26000      1.81900
   541.40        5.08200      0.20800  -9999.00000      3.36100      1.69800
   541.60        5.23200      0.20800  -9999.00000      3.36100      1.65300
   541.80        4.66000      0.20800  -9999.00000      3.41100      1.58600
   542.00        3.86000      0.20800  -9999.00000      3.46100      1.53300
   542.20        3.01800      0.20800  -9999.00000      3.56100      1.43500
   542.40        2.35900      0.20800  -9999.00000      3.66100      1.43500
   542.60        1.89800      0.20900  -9999.00000      3.81200      1.47300
   542.80        1.61900      0.21100  -9999.00000      3.91200      1.56300
   543.00        1.44200      0.21200  -9999.00000      3.96200      1.57100
   543.20        1.22900      0.21200  -9999.00000      3.96200      1.44300
   543.40        1.34100      0.21200  -9999.00000      3.96200      1.48800
   543.60        1.48400      0.21200  -9999.00000      3.56100      1.54000
   543.80        1.59600      0.21300  -9999.00000      3.26000      1.57800
   544.00        1.74000      0.21300  -9999.00000      2.90900      1.63100
   544.20        1.66600      0.21200  -9999.00000      3.00900      1.57100
   544.40        1.60900      0.21100  -9999.00000      3.11000      1.57100
   544.60        2.46400      0.21000  -9999.00000      3.26000      1.80400
   544.80        3.48800      0.21000  -9999.00000      3.41100      2.03700
