~Version information
VERS.              2.00:   CWLS LOG ASCII STANDARD -VERSION 2.00
WRAP.                NO:   one line per depth step
~Well Information Block
#MNEM.UNIT     DATA         DESCRIPTION OF MNEMONIC
#--------  --------------   ------------------------
STRT.M                 4.20:START DEPTH
STOP.M              1057.00:STOP DEPTH
STEP.M                 0.20:STEP VALUE
NULL.           -9999.00000:NULL VALUE
WELL.                 13420:WELL NAME
FLD .             VYATSKAYA:FIELD NAME
CTRY.                RUSSIA:COUNTRY
DATE.            06.03.1988:DATE
UWI .                 13420:UNIQUE WELL IDENTIFIER
SRVC.         ÄêãÄçëäÄü èÉä:çÄáÇÄçàÖ ëÖêÇàëçéâ äéåèÄçàà Éàë
SRVC_OC.                ààí:çÄáÇÄçàÖ ëÖêÇàëçéâ äéåèÄçàà-éñàîêéÇäÄ
~Parameter Information Block
#MNEM.UNIT       Value     Description of mnemonic
#---------   -----------   ------------------------------------
EKB .M               166.47: Elevation Kelly Bushing
TDL.M                  1055: Total Depth
SCD .M          -9999.00000: Surface Casing Diameter
SCDP.M          -9999.00000: Surface Casing Depth
CD  .M                0.228: Casing Diameter
CDP .M                  400: Casing Depth
BS  .M                0.216: Bit Size
                       CLAY: Drill Fluid Type
DFD .G/CM3        1.09-1.06: Drill Fluid Density
DFV .S                19-25: Drill Fluid Viscosity
RMF.OHMM               0.07: Mud Filtrate Resistivity
MT  .C                   18: Meas Temperature
                      DRST3: Cartridge Gamma
TAU_GR.S              1.5;3: GR Time Constant
K_GK                   1500: äéùî. èÖêÖïéÑÄ
SPEED.M/H           390;780: Speed M/Hour
                     NGK_60: Probe NGR
USL_ED.IMP/MIN         5775: 1 ìëã.ÖÑ.
OTN_KNL.GR/NGR            9: éíçéòÖçàÖ äÄçÄãéÇ
TAU_NGR.S             1.5;3: NGR Time Constant
SPEED.M/H           390;780: Speed M/Hour
                        K_3: Cartridge BK
                       BK_3: Probe BK
                       USBA: Cartridge DT
                 Sonde 1.4M: Probe DT
                      SKP_1: Cartridge DS
~Curve Information Block
#MNEM.UNIT       API CODE     Curve Description
#---------    -------------   --------------------------------
DEPT.M                    :    1    DEPTH M
BK.OHMM                   :    2    LATEROLOG DEEP
DS.M                      :    3    CALIPER
DT.MCS                    :    4    DELTA TIME INTERVAL TRANSIT TIME MCSEC/M
GR.MCR/H                  :    5    GAMMA RAY MICRO_ROENTGENS PER HOUR
NGR.UE                    :    6    NEUTRON GAMMA RAY
~A DEPT.M       BK           DS           DT           GR           NGR          
# ...
   753.00       12.84100      0.20800  -9999.00000      4.86500      1.82600
   753.20       10.95000      0.20900  -9999.00000      5.41700      1.58600
   753.40        9.33700      0.20900  -9999.00000      6.01900      1.66800
   753.60        5.54300      0.21000  -9999.00000      5.91800      1.77400
   753.80        1.89800      0.21000  -9999.00000      5.71800      1.87900
   754.00        2.93100      0.21100  -9999.00000      5.31700      1.97700
   754.20        3.91600      0.21100  -9999.00000      4.81500      2.09000
   754.40        5.00900      0.21100  -9999.00000      4.31300      2.16500
   754.60        5.54400      0.21000  -9999.00000      3.76200      2.21800
   754.80        6.22500      0.21000  -9999.00000      3.26000      2.21000
   755.00        6.31600      0.20900  -9999.00000      2.80900      2.18700
   755.20        5.79000      0.20900  -9999.00000      2.45800      2.12700
   755.40        5.46400      0.20900  -9999.00000      2.20700      2.12000
   755.60        5.79000      0.20900  -9999.00000      2.05600      2.17200
   755.80        6.13500      0.20800  -9999.00000      2.15700      2.25500
   756.00        6.69200      0.20800  -9999.00000      2.20700      2.22500
   756.20        7.19500      0.20800  -9999.00000      2.20700      2.18700
   756.40        7.96200      0.20800  -9999.00000      2.30700      2.13500
   756.60        5.70700      0.20800  -9999.00000      2.65800      2.04500
   756.80        5.23200      0.20800  -9999.00000      3.11000      2.07500
   757.00        6.22500      0.20700  -9999.00000      3.71200      2.14200
   757.20        7.62400      0.20700  -9999.00000      4.31300      2.24800
   757.40        9.47400      0.20800  -9999.00000      4.96600      2.37600
   757.60       11.27300      0.20700  -9999.00000      5.56700      2.55600
   757.80       15.27800      0.20700  -9999.00000      6.62100      2.42800
   758.00       15.50100      0.20700  -9999.00000      6.42000      2.20300
   758.20        8.43700      0.20800  -9999.00000      5.81800      2.00700
   758.40        5.23200      0.20900  -9999.00000      5.31700      1.86400
   758.60        3.19800      0.21000  -9999.00000      4.91500      1.75900
   758.80        2.10100      0.21100  -9999.00000      4.56400      1.69800
   759.00        1.64200      0.21300  -9999.00000      4.16300      1.63800
   759.20        1.36100      0.21300  -9999.00000      4.26300      1.63100
   759.40        1.28400      0.21400  -9999.00000      4.36400      1.69800
   759.60        1.42100      0.21400  -9999.00000      4.41400      1.74400
   759.80        1.92600      0.21400  -9999.00000      4.34400      1.89400
   760.00        3.34000      0.21400  -9999.00000      4.32600      2.11200
   760.20        6.59600      0.21300  -9999.00000      4.46400      2.32300
   760.40       10.03900      0.21300  -9999.00000      4.56400      2.49600
   760.60       11.27300      0.21300  -9999.00000      4.21300      2.69200
   760.80       13.41100      0.21400  -9999.00000      3.91200      2.70700
   761.00       14.00700      0.21400  -9999.00000      3.61100      2.66100
   761.20       12.65600      0.21400  -9999.00000      3.46100      2.63100
   761.40       11.77700      0.21300  -9999.00000      3.26000      2.65400
   761.60       11.77700      0.21300  -9999.00000      3.46100      2.69900
   761.80       11.77700      0.21400  -9999.00000      3.76200      2.66100
   762.00        8.56000      0.21400  -9999.00000      4.11300      2.54900
   762.20        6.04700      0.21200  -9999.00000      4.46400      2.58600
   762.40        6.13500      0.21000  -9999.00000      4.96600      2.64600
   762.60        8.08000      0.21100  -9999.00000      4.81500      2.71400
   762.80       10.95000      0.21200  -9999.00000      4.56400      2.60900
   763.00        9.75200      0.21200  -9999.00000      4.36400      2.42800
   763.20        8.31600      0.21100  -9999.00000      4.16300      2.24800
   763.40       13.60700      0.21100  -9999.00000      4.06300      2.13500
   763.60       23.25500      0.21200  -9999.00000      3.96200      2.00700
   763.80       33.39600      0.21300  -9999.00000      3.91200      1.90200
   764.00       15.95600      0.21300  -9999.00000      3.76200      1.82600
   764.20        6.59600      0.21200  -9999.00000      3.61100      1.76600
   764.40        4.09000      0.21100  -9999.00000      3.46100      1.73600
   764.60        2.88900      0.21200  -9999.00000      3.91200      1.79600
   764.80        2.07100      0.21200  -9999.00000      4.21300      1.84100
   765.00        3.10600      0.21200  -9999.00000      4.56400      1.88700
   765.20        4.72700      0.21100  -9999.00000      4.26300      1.96900
   765.40        7.30000      0.21000  -9999.00000      4.06300      2.03700
   765.60       10.79400      0.21000  -9999.00000      4.01300      2.17200
   765.80       14.62900      0.21100  -9999.00000      3.91200      2.10500
   766.00       18.44300      0.21100  -9999.00000      4.56400      2.04500
   766.20       17.40500      0.21200  -9999.00000      5.26600      1.98400
   766.40       15.95600      0.21400  -9999.00000      6.16900      2.11200
   766.60       13.21700      0.21300  -9999.00000      5.66800      2.23300
   766.80       10.18500      0.21100  -9999.00000      5.16600      2.32300
   767.00        7.40600      0.21100  -9999.00000      4.76500      2.36800
   767.20        5.79000      0.21100  -9999.00000      4.56400      2.39800
   767.40        3.91600      0.21100  -9999.00000      4.41400      2.21000
   767.60        2.68700      0.21200  -9999.00000      4.26300      2.02200
   767.80        1.98300      0.21200  -9999.00000      4.11300      1.87900
   768.00        1.59600      0.21300  -9999.00000      3.91200      1.76600
   768.20        1.36100      0.21400  -9999.00000      4.06300      1.59300
   768.40        1.16000      0.21400  -9999.00000      4.31300      1.61600
   768.60        1.30300      0.21500  -9999.00000      4.01300      1.63100
   768.80        1.40100      0.21200  -9999.00000      3.81200      1.65300
   769.00        1.50600      0.21100  -9999.00000      3.61100      1.67600
   769.20        1.66600      0.21200  -9999.00000      3.51100      1.76600
   769.40        1.95400      0.21200  -9999.00000      3.41100      1.71300
   769.60        2.46400      0.21300  -9999.00000      3.46100      1.66800
   769.80        3.38800      0.21300  -9999.00000      3.41100      1.62300
   770.00        5.08200      0.21300  -9999.00000      3.41100      1.59300
   770.20        8.19600      0.21200  -9999.00000      3.36100      1.55500
   770.40        5.30800      0.21000  -9999.00000      3.31000      1.51800
   770.60        2.88900      0.21100  -9999.00000      3.31000      1.49500
   770.80        1.81800      0.21100  -9999.00000      3.31000      1.48000
   771.00        1.48400      0.21200  -9999.00000      3.41100      1.45800
   771.20        1.76600      0.21300  -9999.00000      3.66100      1.51800
   771.40        3.06200      0.21500  -9999.00000      4.01300      1.58600
   771.60        6.13600      0.21300  -9999.00000      3.86200      1.66800
   771.80       10.18500      0.21300  -9999.00000      3.71200      1.78100
   772.00       12.29500      0.21200  -9999.00000      3.61100      1.91700
   772.20       17.65900      0.21300  -9999.00000      3.61100      2.05200
   772.40       17.40500      0.21400  -9999.00000      3.61100      2.18000
   772.60       14.41700      0.21300  -9999.00000      3.51100      2.29300
   772.80       11.43600      0.21200  -9999.00000      3.46100      2.39100
   773.00       11.60300      0.21300  -9999.00000      3.41100      2.54100
   773.20       12.84100      0.21400  -9999.00000      3.06000      2.57100
   773.40       13.60700      0.21500  -9999.00000      3.46100      2.31500
   773.60       11.43500      0.21400  -9999.00000      4.16300      2.14200
