~Version information
VERS.              2.00:   CWLS LOG ASCII STANDARD -VERSION 2.00
WRAP.                NO:   one line per depth step
~Well Information Block
#MNEM.UNIT     DATA         DESCRIPTION OF MNEMONIC
#--------  --------------   ------------------------
STRT.M                 3.40:START DEPTH
STOP.M              1049.40:STOP DEPTH
STEP.M                 0.20:STEP VALUE
NULL.           -9999.00000:NULL VALUE
WELL.                 13421:WELL NAME
FLD .             VYATSKAYA:FIELD NAME
CTRY.                RUSSIA:COUNTRY
DATE.            31.01.1988:DATE
UWI .                 13421:UNIQUE WELL IDENTIFIER
SRVC.         ÄêãÄçëäÄü èÉä:çÄáÇÄçàÖ ëÖêÇàëçéâ äéåèÄçàà Éàë
SRVC_OC.                ààí:çÄáÇÄçàÖ ëÖêÇàëçéâ äéåèÄçàà-éñàîêéÇäÄ
~Parameter Information Block
#MNEM.UNIT       Value     Description of mnemonic
#---------   -----------   ------------------------------------
EKB .M               167.49: Elevation Kelly Bushing
TDL.M                  1050: Total Depth
SCD .M          -9999.00000: Surface Casing Diameter
SCDP.M          -9999.00000: Surface Casing Depth
CD  .M                0.228: Casing Diameter
CDP .M                  408: Casing Depth
BS  .M                0.216: Bit Size
                       CLAY: Drill Fluid Type
DFD .G/CM3        1.08-1.12: Drill Fluid Density
DFV .S                22-26: Drill Fluid Viscosity
RMF.OHMM               0.07: Mud Filtrate Resistivity
MT  .C                   18: Meas Temperature
                      DRST3: Cartridge Gamma
TAU_GR.S              1.5;3: GR Time Constant
K_GK                   1500: äéùî. èÖêÖïéÑÄ
SPEED.M/H               690: Speed M/Hour
                     NGK_60: Probe NGR
USL_ED.IMP/MIN         5775: 1 ìëã.ÖÑ.
OTN_KNL.GR/NGR            9: éíçéòÖçàÖ äÄçÄãéÇ
TAU_NGR.S             1.5;3: NGR Time Constant
SPEED.M/H               690: Speed M/Hour
                        K_3: Cartridge BK
                       BK_3: Probe BK
                       USBA: Cartridge DT
                 Sonde 1.4M: Probe DT
                      SKP_1: Cartridge DS
~Curve Information Block
#MNEM.UNIT       API CODE     Curve Description
#---------    -------------   --------------------------------
DEPT.M                    :    1    DEPTH M
BK.OHMM                   :    2    LATEROLOG DEEP
DS.M                      :    3    CALIPER
DT.MCS                    :    4    DELTA TIME INTERVAL TRANSIT TIME MCSEC/M
GR.MCR/H                  :    5    GAMMA RAY MICRO_ROENTGENS PER HOUR
NGR.UE                    :    6    NEUTRON GAMMA RAY
~A DEPT.M       BK           DS           DT           GR           NGR          
# ...
   398.60    -9999.00000  -9999.00000  -9999.00000      1.90000      1.40000
   398.80    -9999.00000  -9999.00000  -9999.00000      1.80000      1.57500
   399.00    -9999.00000  -9999.00000  -9999.00000      1.50000      1.52200
   399.20    -9999.00000  -9999.00000  -9999.00000      1.40000      1.43100
   399.40    -9999.00000  -9999.00000  -9999.00000      2.00000      1.34700
   399.60    -9999.00000  -9999.00000  -9999.00000      2.40000      1.28600
   399.80    -9999.00000  -9999.00000  -9999.00000      2.55000      1.24800
   400.00    -9999.00000  -9999.00000  -9999.00000      2.30000      1.20200
   400.20    -9999.00000  -9999.00000  -9999.00000      2.10000      1.17200
   400.40    -9999.00000  -9999.00000  -9999.00000      1.85000      1.15600
   400.60    -9999.00000  -9999.00000  -9999.00000      2.25000      1.14100
   400.80    -9999.00000  -9999.00000  -9999.00000      2.75000      1.10300
   401.00    -9999.00000  -9999.00000  -9999.00000      2.45000      1.06500
   401.20    -9999.00000  -9999.00000  -9999.00000      2.65000      1.18700
   401.40    -9999.00000  -9999.00000  -9999.00000      2.90000      1.14900
   401.60    -9999.00000  -9999.00000  -9999.00000      2.45000      1.08000
   401.80    -9999.00000  -9999.00000  -9999.00000      2.15000      1.06500
   402.00    -9999.00000  -9999.00000  -9999.00000      1.60000      1.00400
   402.20    -9999.00000  -9999.00000  -9999.00000      1.45000      1.10300
   402.40    -9999.00000  -9999.00000  -9999.00000      1.95000      1.04200
   402.60    -9999.00000  -9999.00000  -9999.00000      2.50000      1.02700
   402.80    -9999.00000  -9999.00000  -9999.00000      2.35000      0.99600
   403.00    -9999.00000  -9999.00000  -9999.00000      2.15000      1.05700
   403.20    -9999.00000  -9999.00000  -9999.00000      1.85000      1.09500
   403.40    -9999.00000  -9999.00000  -9999.00000      2.30000      1.16400
   403.60    -9999.00000  -9999.00000  -9999.00000      3.00000      1.17200
   403.80    -9999.00000  -9999.00000  -9999.00000      3.70000      1.02700
   404.00    -9999.00000  -9999.00000  -9999.00000      4.35000      0.93500
   404.20    -9999.00000  -9999.00000  -9999.00000      5.00000      0.95800
   404.40    -9999.00000  -9999.00000  -9999.00000      5.40000      1.03400
   404.60    -9999.00000  -9999.00000  -9999.00000      5.75000      1.04200
   404.80    -9999.00000  -9999.00000  -9999.00000      6.20000      0.98900
   405.00    -9999.00000  -9999.00000  -9999.00000      5.75000      0.95100
   405.20    -9999.00000  -9999.00000  -9999.00000      5.15000      0.98900
   405.40    -9999.00000  -9999.00000  -9999.00000      4.60000      1.09500
   405.60    -9999.00000  -9999.00000  -9999.00000      4.20000      1.28600
   405.80    -9999.00000  -9999.00000  -9999.00000      3.75000      1.25500
   406.00    -9999.00000  -9999.00000  -9999.00000      2.95000      1.19400
   406.20    -9999.00000  -9999.00000  -9999.00000      2.60000      1.11800
   406.40    -9999.00000  -9999.00000  -9999.00000      2.95000      1.05700
   406.60    -9999.00000  -9999.00000  -9999.00000      3.50000      1.06500
   406.80    -9999.00000  -9999.00000  -9999.00000      3.45000      1.19400
   407.00    -9999.00000  -9999.00000  -9999.00000      2.45000      1.21000
   407.20    -9999.00000  -9999.00000  -9999.00000      2.10000      1.28600
   407.40    -9999.00000  -9999.00000  -9999.00000      1.45000      1.42300
   407.60    -9999.00000  -9999.00000  -9999.00000      1.45000      1.61400
   407.80       13.79100      0.20800  -9999.00000      2.00000      1.62100
   408.00       13.59400      0.20800  -9999.00000      2.35000      1.47600
   408.20       15.70500      0.21000  -9999.00000      3.00000      1.43100
   408.40       21.57600      0.21000  -9999.00000      2.45000      1.33900
   408.60      199.29400      0.21100  -9999.00000      1.85000      1.31600
   408.80      167.59200      0.21100  -9999.00000      1.40000      1.48400
   409.00      153.68800      0.21100  -9999.00000      0.85000      1.57500
   409.20      121.99000      0.21100  -9999.00000      1.50000      1.69000
   409.40       52.04900      0.21100  -9999.00000      2.10000      1.70500
   409.60       31.86000      0.21000  -9999.00000      2.65000      1.46900
   409.80       13.01800      0.21000  -9999.00000      3.20000      1.35400
   410.00       11.10600      0.21000  -9999.00000      3.80000      1.30100
   410.20       14.40200      0.21000  -9999.00000      3.65000      1.25500
   410.40       16.16500      0.21000  -9999.00000      3.50000      1.19400
   410.60       11.16200      0.21000  -9999.00000      3.40000      1.34700
   410.80       11.47300      0.21000  -9999.00000      3.30000      1.43100
   411.00       15.77700      0.21100  -9999.00000      3.15000      1.49900
   411.20       22.20800      0.21100  -9999.00000      3.00000      1.55300
   411.40       63.70800      0.21100  -9999.00000      2.80000      1.45400
   411.60      107.12700      0.21100  -9999.00000      2.50000      1.43100
   411.80       98.23200      0.21100  -9999.00000      2.60000      1.58300
   412.00       59.27100      0.21000  -9999.00000      2.80000      1.61400
   412.20       34.74300      0.21100  -9999.00000      3.05000      1.43100
   412.40       29.64100      0.21200  -9999.00000      3.20000      1.44600
   412.60       37.34300      0.21200  -9999.00000      3.25000      1.49900
   412.80       27.18100      0.21100  -9999.00000      3.15000      1.45400
   413.00       22.85800      0.21100  -9999.00000      2.90000      1.44600
   413.20       48.42500      0.21000  -9999.00000      2.55000      1.69000
   413.40      102.58600      0.20900  -9999.00000      2.05000      1.82700
   413.60      392.79600      0.20900  -9999.00000      1.20000      1.99500
   413.80      273.77500      0.20900  -9999.00000      1.30000      2.01200
   414.00      142.98500      0.21000  -9999.00000      1.65000      1.81900
   414.20      113.49500      0.21000  -9999.00000      1.90000      1.69700
   414.40       65.57400      0.20900  -9999.00000      2.15000      1.59800
   414.60       14.40200      0.20900  -9999.00000      2.35000      1.49900
   414.80        7.20100      0.21000  -9999.00000      2.55000      1.39300
   415.00        3.30300      0.21100  -9999.00000      2.30000      1.27800
   415.20        5.39600      0.21200  -9999.00000      2.15000      1.21000
   415.40       13.01800      0.21400  -9999.00000      2.05000      1.33900
   415.60       12.46600      0.21300  -9999.00000      2.35000      1.41500
   415.80       11.60200      0.21100  -9999.00000      2.05000      1.46900
   416.00       36.80800      0.21000  -9999.00000      1.85000      1.52200
   416.20      151.48500      0.20800  -9999.00000      1.75000      1.69000
   416.40      311.78300      0.20800  -9999.00000      1.65000      1.97900
   416.60      233.59300      0.20800  -9999.00000      1.55000      2.10300
   416.80       85.03300      0.20800  -9999.00000      1.45000      2.10000
   417.00       88.79600      0.20800  -9999.00000      1.15000      1.66700
   417.20       15.48000      0.20800  -9999.00000      1.95000      1.53000
   417.40       17.12600      0.20800  -9999.00000      2.50000      1.45400
   417.60       20.36500      0.20800  -9999.00000      2.20000      1.40000
   417.80       11.26900      0.20800  -9999.00000      1.85000      1.32400
   418.00       15.03900      0.20800  -9999.00000      1.80000      1.39300
   418.20       22.53100      0.20800  -9999.00000      2.20000      1.45400
   418.40       34.24500      0.20800  -9999.00000      2.45000      1.51400
   418.60       24.92700      0.20800  -9999.00000      2.75000      1.57500
   418.80       21.26600      0.20800  -9999.00000      3.30000      1.49200
   419.00       16.63800      0.20800  -9999.00000      3.55000      1.43800
   419.20       10.79000      0.20800  -9999.00000      2.90000      1.40800
