~Version information
VERS.              2.00:   CWLS LOG ASCII STANDARD -VERSION 2.00
WRAP.                NO:   one line per depth step
~Well Information Block
#MNEM.UNIT     DATA         DESCRIPTION OF MNEMONIC
#--------  --------------   ------------------------
STRT.M                 4.20:START DEPTH
STOP.M              1057.00:STOP DEPTH
STEP.M                 0.20:STEP VALUE
NULL.           -9999.00000:NULL VALUE
WELL.                 13420:WELL NAME
FLD .             VYATSKAYA:FIELD NAME
CTRY.                RUSSIA:COUNTRY
DATE.            06.03.1988:DATE
UWI .                 13420:UNIQUE WELL IDENTIFIER
SRVC.         ÄêãÄçëäÄü èÉä:çÄáÇÄçàÖ ëÖêÇàëçéâ äéåèÄçàà Éàë
SRVC_OC.                ààí:çÄáÇÄçàÖ ëÖêÇàëçéâ äéåèÄçàà-éñàîêéÇäÄ
~Parameter Information Block
#MNEM.UNIT       Value     Description of mnemonic
#---------   -----------   ------------------------------------
EKB .M               166.47: Elevation Kelly Bushing
TDL.M                  1055: Total Depth
SCD .M          -9999.00000: Surface Casing Diameter
SCDP.M          -9999.00000: Surface Casing Depth
CD  .M                0.228: Casing Diameter
CDP .M                  400: Casing Depth
BS  .M                0.216: Bit Size
                       CLAY: Drill Fluid Type
DFD .G/CM3        1.09-1.06: Drill Fluid Density
DFV .S                19-25: Drill Fluid Viscosity
RMF.OHMM               0.07: Mud Filtrate Resistivity
MT  .C                   18: Meas Temperature
                      DRST3: Cartridge Gamma
TAU_GR.S              1.5;3: GR Time Constant
K_GK                   1500: äéùî. èÖêÖïéÑÄ
SPEED.M/H           390;780: Speed M/Hour
                     NGK_60: Probe NGR
USL_ED.IMP/MIN         5775: 1 ìëã.ÖÑ.
OTN_KNL.GR/NGR            9: éíçéòÖçàÖ äÄçÄãéÇ
TAU_NGR.S             1.5;3: NGR Time Constant
SPEED.M/H           390;780: Speed M/Hour
                        K_3: Cartridge BK
                       BK_3: Probe BK
                       USBA: Cartridge DT
                 Sonde 1.4M: Probe DT
                      SKP_1: Cartridge DS
~Curve Information Block
#MNEM.UNIT       API CODE     Curve Description
#---------    -------------   --------------------------------
DEPT.M                    :    1    DEPTH M
BK.OHMM                   :    2    LATEROLOG DEEP
DS.M                      :    3    CALIPER
DT.MCS                    :    4    DELTA TIME INTERVAL TRANSIT TIME MCSEC/M
GR.MCR/H                  :    5    GAMMA RAY MICRO_ROENTGENS PER HOUR
NGR.UE                    :    6    NEUTRON GAMMA RAY
~A DEPT.M       BK           DS           DT           GR           NGR          
# ...
   607.40       24.99800      0.21000  -9999.00000      3.00900      2.37600
   607.60       22.91700      0.20900  -9999.00000      3.61100      2.30000
   607.80       19.82800      0.20900  -9999.00000      3.00900      2.19500
   608.00       29.31500      0.20800  -9999.00000      2.75900      2.06000
   608.20       61.35500      0.20800  -9999.00000      2.50800      1.91700
   608.40       63.15800      0.20800  -9999.00000      2.30700      1.79600
   608.60       14.21000      0.20900  -9999.00000      2.15700      1.69800
   608.80       11.43600      0.21000  -9999.00000      2.15700      1.62300
   609.00       10.95000      0.21000  -9999.00000      2.15700      1.56300
   609.20        9.75200      0.21100  -9999.00000      2.25700      1.52500
   609.40        8.68500      0.21000  -9999.00000      2.35700      1.48800
   609.60        6.50100      0.21000  -9999.00000      2.45800      1.45800
   609.80        4.93700      0.20900  -9999.00000      2.50800      1.42800
   610.00        4.27200      0.20800  -9999.00000      2.60800      1.52500
   610.20        4.21000      0.20700  -9999.00000      2.70800      1.57800
   610.40        4.52600      0.20700  -9999.00000      2.80900      1.66800
   610.60        5.08200      0.20700  -9999.00000      2.85900      1.57800
   610.80        5.79000      0.20800  -9999.00000      2.85900      1.60800
   611.00        6.50100      0.20900  -9999.00000      2.75900      1.64600
   611.20        7.51400      0.20900  -9999.00000      2.70800      1.74400
   611.40        8.68500      0.20900  -9999.00000      2.70800      1.73600
   611.60       10.18500      0.20900  -9999.00000      2.65800      1.72900
   611.80       11.60300      0.20900  -9999.00000      2.70800      1.71300
   612.00       13.02800      0.20900  -9999.00000      2.85900      1.71300
   612.20       15.27800      0.20800  -9999.00000      3.06000      1.81100
   612.40       13.21800      0.20800  -9999.00000      3.26000      1.87100
   612.60       11.43500      0.20900  -9999.00000      3.41100      1.93200
   612.80        8.68500      0.20900  -9999.00000      3.61100      1.99900
   613.00       12.11800      0.21000  -9999.00000      3.76200      2.15700
   613.20       16.42500      0.21000  -9999.00000      3.41100      2.28500
   613.40       20.70800      0.21000  -9999.00000      3.16000      2.36800
   613.60       25.00000      0.20900  -9999.00000      2.95900      2.46600
   613.80       30.17600      0.20800  -9999.00000      2.80900      2.42800
   614.00       21.01000      0.20800  -9999.00000      2.70800      2.33000
   614.20       15.27800      0.21000  -9999.00000      2.65800      2.05200
   614.40       11.43600      0.21000  -9999.00000      2.45800      2.09700
   614.60        8.81100      0.21100  -9999.00000      2.60800      2.13500
   614.80        6.88900      0.21200  -9999.00000      2.85900      2.17200
   615.00        5.87400      0.21200  -9999.00000      3.21000      2.22500
   615.20        6.98900      0.21200  -9999.00000      2.85900      2.27800
   615.40        8.31600      0.21300  -9999.00000      2.50800      2.36100
   615.60       10.04000      0.21200  -9999.00000      2.50800      2.60900
   615.80       11.77200      0.21200  -9999.00000      3.16000      2.62400
   616.00       14.00700      0.21100  -9999.00000      3.51100      2.61600
   616.20       15.95600      0.21000  -9999.00000      3.76200      2.58600
   616.40       17.40500      0.21000  -9999.00000      3.96200      2.56400
   616.60       18.71300      0.21000  -9999.00000      3.61100      2.53400
   616.80       20.41100      0.20900  -9999.00000      3.21000      2.48100
   617.00       18.17800      0.20800  -9999.00000      2.75900      2.41300
   617.20       16.66500      0.20900  -9999.00000      2.80900      2.33800
   617.40       15.27800      0.21000  -9999.00000      2.90900      2.25500
   617.60       14.21100      0.21000  -9999.00000      3.21000      2.18000
   617.80       13.21800      0.20900  -9999.00000      3.61100      2.09700
   618.00       12.29500      0.21000  -9999.00000      4.01300      2.02200
   618.20       11.11000      0.21000  -9999.00000      4.46400      1.96200
   618.40       10.48400      0.21100  -9999.00000      4.86500      1.91700
   618.60        9.89400      0.20900  -9999.00000      5.26600      1.87100
   618.80        9.20300      0.21000  -9999.00000      5.76800      1.82600
   619.00        8.43700      0.20900  -9999.00000      6.06900      1.78900
   619.20        7.62400      0.20900  -9999.00000      5.06600      1.73600
   619.40        6.79000      0.20900  -9999.00000      4.31300      1.70600
   619.60        7.09100      0.20900  -9999.00000      3.76200      1.75900
   619.80        7.96200      0.21000  -9999.00000      4.06300      1.78100
   620.00        7.73500      0.21000  -9999.00000      4.26300      1.80400
   620.20        7.51400      0.20900  -9999.00000      4.21300      1.83400
   620.40        6.88900      0.20800  -9999.00000      3.81200      1.87900
   620.60        5.70700      0.20800  -9999.00000      3.66100      1.93900
   620.80        6.59600      0.21000  -9999.00000      4.11300      2.02900
   621.00        7.96200      0.21000  -9999.00000      4.56400      2.09700
   621.20       10.03900      0.21100  -9999.00000      4.41400      2.24000
   621.40       12.65600      0.21000  -9999.00000      4.26300      2.27800
   621.60       15.05900      0.21000  -9999.00000      4.16300      1.90900
   621.80       18.71200      0.20900  -9999.00000      4.41400      1.78100
   622.00       16.90800      0.20700  -9999.00000      4.46400      1.70600
   622.20       14.62900      0.20700  -9999.00000      3.91200      1.65300
   622.40       11.43600      0.20700  -9999.00000      3.51100      1.61600
   622.60        8.93900      0.20800  -9999.00000      3.36100      1.59300
   622.80        7.09100      0.20900  -9999.00000      3.96200      1.56300
   623.00        5.79000      0.20900  -9999.00000      4.31300      1.53300
   623.20        4.79600      0.20900  -9999.00000      4.56400      1.49500
   623.40        3.91600      0.21000  -9999.00000      4.81500      1.45000
   623.60        3.24400      0.20900  -9999.00000      5.06600      1.42000
   623.80        2.88900      0.20900  -9999.00000      5.31700      1.33700
   624.00        2.50000      0.20900  -9999.00000      5.61800      1.41300
   624.20        2.68700      0.20800  -9999.00000      6.01900      1.48000
   624.40        2.97400      0.20800  -9999.00000      6.37000      1.55500
   624.60        3.48800      0.20800  -9999.00000      6.52000      1.61600
   624.80        4.46100      0.20800  -9999.00000      5.71800      1.68300
   625.00        6.13500      0.20800  -9999.00000      5.16600      1.77400
   625.20        9.61200      0.20900  -9999.00000      5.31700      1.88700
   625.40       16.18900      0.20900  -9999.00000      5.56700      2.00700
   625.60       25.37100      0.20900  -9999.00000      4.96600      2.13500
   625.80       51.56700      0.20900  -9999.00000      4.06300      2.25500
   626.00       45.92600      0.20900  -9999.00000      3.16000      2.33000
   626.20       28.06900      0.20900  -9999.00000      3.06000      2.40600
   626.40       19.82800      0.20900  -9999.00000      2.95900      2.56400
   626.60       21.01100      0.20900  -9999.00000      2.90900      2.46600
   626.80       23.59100      0.20800  -9999.00000      3.11000      2.37600
   627.00       22.58800      0.20800  -9999.00000      3.26000      2.30800
   627.20       21.01000      0.20900  -9999.00000      3.16000      2.25500
   627.40       23.59100      0.21000  -9999.00000      3.00900      2.22500
   627.60       28.48000      0.21000  -9999.00000      2.80900      2.17200
   627.80       34.37700      0.21000  -9999.00000      2.65800      2.32300
   628.00       24.99800      0.21000  -9999.00000      2.45800      2.48800
