~Version information
VERS.              2.00:   CWLS LOG ASCII STANDARD -VERSION 2.00
WRAP.                NO:   one line per depth step
~Well Information Block
#MNEM.UNIT     DATA         DESCRIPTION OF MNEMONIC
#--------  --------------   ------------------------
STRT.M                 4.20:START DEPTH
STOP.M              1057.00:STOP DEPTH
STEP.M                 0.20:STEP VALUE
NULL.           -9999.00000:NULL VALUE
WELL.                 13420:WELL NAME
FLD .             VYATSKAYA:FIELD NAME
CTRY.                RUSSIA:COUNTRY
DATE.            06.03.1988:DATE
UWI .                 13420:UNIQUE WELL IDENTIFIER
SRVC.         ÄêãÄçëäÄü èÉä:çÄáÇÄçàÖ ëÖêÇàëçéâ äéåèÄçàà Éàë
SRVC_OC.                ààí:çÄáÇÄçàÖ ëÖêÇàëçéâ äéåèÄçàà-éñàîêéÇäÄ
~Parameter Information Block
#MNEM.UNIT       Value     Description of mnemonic
#---------   -----------   ------------------------------------
EKB .M               166.47: Elevation Kelly Bushing
TDL.M                  1055: Total Depth
SCD .M          -9999.00000: Surface Casing Diameter
SCDP.M          -9999.00000: Surface Casing Depth
CD  .M                0.228: Casing Diameter
CDP .M                  400: Casing Depth
BS  .M                0.216: Bit Size
                       CLAY: Drill Fluid Type
DFD .G/CM3        1.09-1.06: Drill Fluid Density
DFV .S                19-25: Drill Fluid Viscosity
RMF.OHMM               0.07: Mud Filtrate Resistivity
MT  .C                   18: Meas Temperature
                      DRST3: Cartridge Gamma
TAU_GR.S              1.5;3: GR Time Constant
K_GK                   1500: äéùî. èÖêÖïéÑÄ
SPEED.M/H           390;780: Speed M/Hour
                     NGK_60: Probe NGR
USL_ED.IMP/MIN         5775: 1 ìëã.ÖÑ.
OTN_KNL.GR/NGR            9: éíçéòÖçàÖ äÄçÄãéÇ
TAU_NGR.S             1.5;3: NGR Time Constant
SPEED.M/H           390;780: Speed M/Hour
                        K_3: Cartridge BK
                       BK_3: Probe BK
                       USBA: Cartridge DT
                 Sonde 1.4M: Probe DT
                      SKP_1: Cartridge DS
~Curve Information Block
#MNEM.UNIT       API CODE     Curve Description
#---------    -------------   --------------------------------
DEPT.M                    :    1    DEPTH M
BK.OHMM                   :    2    LATEROLOG DEEP
DS.M                      :    3    CALIPER
DT.MCS                    :    4    DELTA TIME INTERVAL TRANSIT TIME MCSEC/M
GR.MCR/H                  :    5    GAMMA RAY MICRO_ROENTGENS PER HOUR
NGR.UE                    :    6    NEUTRON GAMMA RAY
~A DEPT.M       BK           DS           DT           GR           NGR          
# ...
   1044.20       3.95500      0.21300    268.00000     10.46900      1.94900
   1044.40       5.17700      0.21300    242.50000     11.30900      2.10600
   1044.60       8.38100      0.21500    195.00000      7.85200      2.47800
   1044.80      15.19700      0.21500    174.50000      5.87700      2.39600
   1045.00      11.61000      0.21300    189.00000      5.97500      2.12000
   1045.20       6.97100      0.21400    215.00000      7.75300      1.83700
   1045.40       4.62200      0.21300    237.00000      9.43200      1.74000
   1045.60       4.43000      0.21400    240.50000      9.97500      1.68100
   1045.80       4.62200      0.21300    230.00000     10.56800      1.62100
   1046.00       3.79000      0.21500    268.00000     11.35800      1.55400
   1046.20       3.43200      0.21500    284.00000     12.19800      1.59100
   1046.40       3.73700      0.21800    279.00000     12.24700      1.65100
   1046.60       4.01100      0.22400    283.00000     11.55600      1.73300
   1046.80       4.49300      0.21600    238.00000     10.86400      1.81500
   1047.00       5.03200      0.21500    220.00000     10.51900      1.88900
   1047.20       4.01100      0.21400    223.20800     10.71600      1.71800
   1047.40       3.43200      0.21300    275.50000     12.09900      1.65100
   1047.60       3.24300      0.21500    297.00000     13.23500      1.61400
   1047.80       3.38400      0.22000    293.50000     13.08600      1.58400
   1048.00       3.29000      0.21600    297.50000     12.79000      1.58400
   1048.20       3.53100      0.21500    249.26800     12.24700      1.57600
   1048.40       3.15300      0.21400    154.80400     11.55600      1.63600
   1048.60       2.77500      0.22300    176.42400     11.25900      1.57600
   1048.80       2.89600      0.21300    302.11100     12.49400      1.50900
   1049.00       2.89600      0.22400    283.50000     12.34600      1.72500
   1049.20       2.77500      0.21800    274.19000     12.39500      1.69600
   1049.40       2.69800      0.21700    300.99400     11.60500      1.62900
   1049.60       2.66000      0.22000    294.00000     10.76500      1.65800
   1049.80       3.33600      0.21500    264.00000      9.77800      1.86000
   1050.00       5.79800      0.22000    224.50000      8.00000      2.02400
   1050.20       9.79500      0.21800    208.00000      6.27200      2.16500
   1050.40      13.18900      0.21600    194.50000      5.97500      2.31400
   1050.60      15.41400      0.21500    182.50000      5.67900      2.45600
   1050.80      13.37700      0.21400    181.00000      5.97500      2.52300
   1051.00      10.07600      0.21300    178.00000      5.87700      2.43400
   1051.20       6.97100      0.21200    189.50000      6.22200      2.21000
   1051.40       6.05000      0.21200    201.50000      6.46900      2.10600
   1051.60       7.48300      0.21000    207.50000      6.27200      2.06100
   1051.80       8.87000      0.21000    192.50000      6.17300      2.21700
   1052.00       6.05000      0.21100    188.50000      6.17300      2.31400
   1052.20       4.12700      0.21200    204.00000      6.02500      1.96400
   1052.40       3.19800      0.21100    197.50000      6.22200      1.76300
   1052.60       2.62200      0.21100    190.00000      6.32100      1.77000
   1052.80       2.30800      0.21000    191.00000      6.56800      1.76100
   1053.00       2.66000      0.20800    187.50000      6.71600      1.72500
   1053.20       3.15300      0.20800  -9999.00000      6.81500      1.66600
   1053.40       3.43200      0.20900  -9999.00000      6.42000      1.71100
   1053.60       3.63300      0.20900  -9999.00000      6.37000      1.78500
   1053.80       3.33600      0.20700  -9999.00000      6.56800      1.75500
   1054.00       2.97900      0.20600  -9999.00000      6.61700      1.72500
   1054.20       2.66000  -9999.00000  -9999.00000      6.46900      1.80000
   1054.40       2.62200  -9999.00000  -9999.00000      6.37000      1.82200
   1054.60       2.58500  -9999.00000  -9999.00000  -9999.00000      1.80000
   1054.80       2.62200  -9999.00000  -9999.00000  -9999.00000      1.72500
   1055.00   -9999.00000  -9999.00000  -9999.00000  -9999.00000      1.79300
   1055.20   -9999.00000  -9999.00000  -9999.00000  -9999.00000      1.86000
   1055.40   -9999.00000  -9999.00000  -9999.00000  -9999.00000      1.75500
   1055.60   -9999.00000  -9999.00000  -9999.00000  -9999.00000      1.79300
   1055.80   -9999.00000  -9999.00000  -9999.00000  -9999.00000      1.85200
   1056.00   -9999.00000  -9999.00000  -9999.00000  -9999.00000      1.88900
   1056.20   -9999.00000  -9999.00000  -9999.00000  -9999.00000      1.80400
   1056.40   -9999.00000  -9999.00000  -9999.00000  -9999.00000      1.79900
   1056.60   -9999.00000  -9999.00000  -9999.00000  -9999.00000      1.79900
   1056.80   -9999.00000  -9999.00000  -9999.00000  -9999.00000      1.77700
   1057.00   -9999.00000  -9999.00000  -9999.00000  -9999.00000      1.77800
.LAS
