~Version information
VERS.              2.00:   CWLS LOG ASCII STANDARD -VERSION 2.00
WRAP.                NO:   one line per depth step
~Well Information Block
#MNEM.UNIT     DATA         DESCRIPTION OF MNEMONIC
#--------  --------------   ------------------------
STRT.M                 4.20:START DEPTH
STOP.M              1057.00:STOP DEPTH
STEP.M                 0.20:STEP VALUE
NULL.           -9999.00000:NULL VALUE
WELL.                 13420:WELL NAME
FLD .             VYATSKAYA:FIELD NAME
CTRY.                RUSSIA:COUNTRY
DATE.            06.03.1988:DATE
UWI .                 13420:UNIQUE WELL IDENTIFIER
SRVC.         ÄêãÄçëäÄü èÉä:çÄáÇÄçàÖ ëÖêÇàëçéâ äéåèÄçàà Éàë
SRVC_OC.                ààí:çÄáÇÄçàÖ ëÖêÇàëçéâ äéåèÄçàà-éñàîêéÇäÄ
~Parameter Information Block
#MNEM.UNIT       Value     Description of mnemonic
#---------   -----------   ------------------------------------
EKB .M               166.47: Elevation Kelly Bushing
TDL.M                  1055: Total Depth
SCD .M          -9999.00000: Surface Casing Diameter
SCDP.M          -9999.00000: Surface Casing Depth
CD  .M                0.228: Casing Diameter
CDP .M                  400: Casing Depth
BS  .M                0.216: Bit Size
                       CLAY: Drill Fluid Type
DFD .G/CM3        1.09-1.06: Drill Fluid Density
DFV .S                19-25: Drill Fluid Viscosity
RMF.OHMM               0.07: Mud Filtrate Resistivity
MT  .C                   18: Meas Temperature
                      DRST3: Cartridge Gamma
TAU_GR.S              1.5;3: GR Time Constant
K_GK                   1500: äéùî. èÖêÖïéÑÄ
SPEED.M/H           390;780: Speed M/Hour
                     NGK_60: Probe NGR
USL_ED.IMP/MIN         5775: 1 ìëã.ÖÑ.
OTN_KNL.GR/NGR            9: éíçéòÖçàÖ äÄçÄãéÇ
TAU_NGR.S             1.5;3: NGR Time Constant
SPEED.M/H           390;780: Speed M/Hour
                        K_3: Cartridge BK
                       BK_3: Probe BK
                       USBA: Cartridge DT
                 Sonde 1.4M: Probe DT
                      SKP_1: Cartridge DS
~Curve Information Block
#MNEM.UNIT       API CODE     Curve Description
#---------    -------------   --------------------------------
DEPT.M                    :    1    DEPTH M
BK.OHMM                   :    2    LATEROLOG DEEP
DS.M                      :    3    CALIPER
DT.MCS                    :    4    DELTA TIME INTERVAL TRANSIT TIME MCSEC/M
GR.MCR/H                  :    5    GAMMA RAY MICRO_ROENTGENS PER HOUR
NGR.UE                    :    6    NEUTRON GAMMA RAY
~A DEPT.M       BK           DS           DT           GR           NGR          
# ...
   794.60        6.13500      0.21100  -9999.00000      2.75900      2.18000
   794.80        6.79000      0.21100  -9999.00000      3.81200      2.29300
   795.00        9.75200      0.21100  -9999.00000      3.71200      2.39800
   795.20       16.90800      0.21100  -9999.00000      3.56100      2.54900
   795.40       28.89400      0.21100  -9999.00000      3.41100      2.54900
   795.60       47.97300      0.21100  -9999.00000      3.56100      2.16500
   795.80       74.06400      0.21200  -9999.00000      3.76200      2.03700
   796.00       74.06400      0.21300  -9999.00000      3.96200      1.93900
   796.20       74.20000      0.21400  -9999.00000      4.31300      1.87900
   796.40       36.35500      0.21500  -9999.00000      4.71500      1.83400
   796.60       30.66000      0.21500  -9999.00000      5.16600      1.81100
   796.80        7.84800      0.21600  -9999.00000      5.56700      1.77400
   797.00        7.19500      0.21600  -9999.00000      6.06900      1.76600
   797.20        6.88900      0.21500  -9999.00000      6.37000      1.81100
   797.40        6.31600      0.21500  -9999.00000      6.77100      1.82600
   797.60        6.22500      0.21300  -9999.00000      6.52000      1.75100
   797.80        6.24100      0.21200  -9999.00000      6.37000      1.78900
   798.00        6.24100      0.21100  -9999.00000      6.21900      1.85600
   798.20        6.14200      0.21000  -9999.00000      6.32000      1.91700
   798.40        6.07700      0.21000  -9999.00000      6.47000      1.99900
   798.60        5.30800      0.21000  -9999.00000      5.91800      2.09700
   798.80        5.15700      0.21100  -9999.00000      5.61800      2.18700
   799.00        5.79000      0.21100  -9999.00000      5.26600      2.32300
   799.20        6.22500      0.21200  -9999.00000      5.71800      2.48100
   799.40        6.79000      0.21200  -9999.00000      6.01900      2.47000
   799.60        7.30000      0.21300  -9999.00000      5.36700      2.42300
   799.80        8.19600      0.21200  -9999.00000      4.76500      2.33000
   800.00        7.30000      0.21200  -9999.00000      4.46400      2.17200
   800.20        6.59600      0.21200  -9999.00000      4.51400      2.21000
   800.40        6.31600      0.21300  -9999.00000      4.86500      2.36800
   800.60        9.33800      0.21300  -9999.00000      5.31700      2.60100
   800.80       11.60300      0.21400  -9999.00000      5.81800      2.81900
   801.00       14.21100      0.21400  -9999.00000      6.21900      2.90200
   801.20       16.66500      0.21400  -9999.00000      6.42000      2.81200
   801.40       20.41100      0.21400  -9999.00000      6.57100      2.73700
   801.60       15.27700      0.21300  -9999.00000      5.91800      2.64600
   801.80       11.43600      0.21100  -9999.00000      5.36700      2.54100
   802.00       11.11000      0.21000  -9999.00000      4.81500      2.48100
   802.20       11.03100      0.21000  -9999.00000      4.86500      2.33800
   802.40       11.32900      0.20900  -9999.00000      4.71500      2.35300
   802.60       11.45000      0.21000  -9999.00000      4.51400      2.36800
   802.80       11.51100      0.21100  -9999.00000      4.31300      2.38300
   803.00       11.75900      0.21200  -9999.00000      4.06300      2.39200
   803.20       11.82200      0.21200  -9999.00000      4.31300      2.39800
   803.40       12.65600      0.21200  -9999.00000      4.51400      2.40600
   803.60       13.41100      0.21200  -9999.00000      4.06300      2.40900
   803.80       14.62900      0.21000  -9999.00000      3.71200      2.40600
   804.00       16.90800      0.21000  -9999.00000      3.36100      2.27800
   804.20       19.26200      0.21000  -9999.00000      3.46100      2.15000
   804.40       21.31700      0.21100  -9999.00000      3.51100      2.01400
   804.60        9.20200      0.21100  -9999.00000      3.61100      1.87900
   804.80        5.00900      0.21100  -9999.00000      3.71200      1.76600
   805.00        5.46400      0.21100  -9999.00000      3.76200      1.91700
   805.20        6.88900      0.21100  -9999.00000      3.81200      2.02200
   805.40        8.07900      0.21200  -9999.00000      3.91200      2.09700
   805.60        9.61200      0.21200  -9999.00000      4.16300      2.15700
   805.80       10.95000      0.21200  -9999.00000      4.56400      2.27800
   806.00        8.56000      0.21200  -9999.00000      4.76500      2.22500
   806.20        6.98900      0.21200  -9999.00000      4.41400      2.17200
   806.40        5.70700      0.21100  -9999.00000      4.21300      2.14200
   806.60        6.04700      0.21200  -9999.00000      4.06300      2.11200
   806.80        6.59600      0.21200  -9999.00000      3.81200      2.07500
   807.00        6.98900      0.21200  -9999.00000      3.76200      2.02900
   807.20        7.19500      0.21300  -9999.00000      4.61400      1.96900
   807.40        7.51400      0.21400  -9999.00000      5.31700      1.90200
   807.60        8.19600      0.21300  -9999.00000      5.86800      1.84100
   807.80        8.94000      0.21100  -9999.00000      6.77100      1.73600
   808.00        6.59600      0.20900  -9999.00000      6.82100      1.76600
   808.20        5.30800      0.21000  -9999.00000      6.11900      1.86400
   808.40        4.46100      0.21100  -9999.00000      5.61800      1.99900
   808.60        7.09200      0.21200  -9999.00000      5.76800      2.13500
   808.80        9.20300      0.21300  -9999.00000      6.01900      2.27000
   809.00       11.60300      0.21500  -9999.00000      6.16900      2.34500
   809.20       14.62900      0.21400  -9999.00000      6.06900      2.41300
   809.40       17.15500      0.21400  -9999.00000      5.96900      2.24000
   809.60        8.55900      0.21400  -9999.00000      6.27000      1.95400
   809.80        4.66000      0.21500  -9999.00000      6.72100      1.71300
   810.00        2.84800      0.21500  -9999.00000      7.17200      1.64600
   810.20        1.79200      0.21500  -9999.00000      7.22300      1.60100
   810.40        1.16000      0.21500  -9999.00000      7.07200      1.57800
   810.60        1.23700      0.21500  -9999.00000      7.32300      1.56300
   810.80        1.27700      0.21400  -9999.00000      7.72400      1.57100
   811.00        1.64200      0.21400  -9999.00000      7.92500      1.60800
   811.20        2.13200      0.21300  -9999.00000     12.48900      1.77400
   811.40        2.72700      0.21300  -9999.00000     16.05000      1.92400
   811.60        3.53900      0.21200  -9999.00000     13.19000      2.31500
   811.80        4.59300      0.21200  -9999.00000      9.12900      2.39800
   812.00        5.96000      0.21200  -9999.00000      6.72100      2.46600
   812.20        7.62400      0.21300  -9999.00000      5.71800      2.52600
   812.40        9.61200      0.21200  -9999.00000      4.26300      2.41300
   812.60        7.40600      0.21200  -9999.00000      3.31000      2.30800
   812.80        5.96000      0.21200  -9999.00000      2.90900      2.19500
   813.00        4.93700      0.21100  -9999.00000      2.65800      2.09000
   813.20        3.80400      0.21100  -9999.00000      2.85900      1.95400
   813.40        4.09000      0.21200  -9999.00000      3.00900      2.05200
   813.60        4.46100      0.21200  -9999.00000      3.26000      2.18000
   813.80        4.86600      0.21200  -9999.00000      3.41100      2.35300
   814.00        5.38600      0.21200  -9999.00000      3.66100      2.33800
   814.20        5.96000      0.21200  -9999.00000      3.96200      2.28500
   814.40        6.79000      0.21100  -9999.00000      4.36400      2.21800
   814.60        7.51500      0.21200  -9999.00000      5.06600      2.15000
   814.80        9.33700      0.21200  -9999.00000      6.01900      2.09000
   815.00        5.96000      0.21300  -9999.00000      6.57100      2.02900
   815.20        3.15200      0.21300  -9999.00000      5.76800      1.90900
